timestamp,lon,lat,alt,pitch,roll,yaw,dyaw,airspeed,groundspeed, yawcmd,pitchcmd,rollcmd,tyaw,tpitch,troll,throttle,rvx,rvy,rvz,accx,accy,accz,speN,speE,speD,gpsSta,nStNum,insSta
20150827080812386,-124.319515,48.266865, 3.34,-6.10,-45.00,36.60,7,7, 0.00, 0.00, 0.00, 0.00, 0.00, 0.00,-1.00, 0.00,-10.00,-70.00, 0.00,-10.00,-70.00,669.00,268.00,250.00,172,0,1
20150827080812472,-124.319510,48.266880, 2.74,-14.20,-44.70,31.60,8,8, 0.00, 0.00, 0.00, 0.00, 0.00, 0.00,-1.00, 0.00,-20.00,-80.00, 0.00,-20.00,-80.00,734.00,220.00,355.00,181,0,1
20150827080812672,-124.319510,48.266895, 1.88,-23.10,-43.60,25.70,9,9, 0.00, 0.00, 0.00, 0.00, 0.00, 0.00,-1.00, 0.00,-20.00,-80.00, 0.00,-20.00,-80.00,803.00,169.00,476.00,191,0,1
20150827080812872,-124.319500,48.266910, 0.77,-31.70,-41.70,19.20,10,10, 0.00, 0.00, 0.00, 0.00, 0.00, 0.00,-1.00,-10.00,-10.00,-80.00,-10.00,-10.00,-80.00,870.00,117.00,605.00,201,0,1
20150827080813071,-124.319500,48.266920,-0.07,-36.70,-39.20,14.40,11,11, 0.00, 0.00, 0.00, 0.00, 0.00, 0.00,-1.00,40.00, 0.00,-100.00,40.00, 0.00,-100.00,907.00,79.00,679.00,208,0,1
20150827080813271,-124.319500,48.266920,-0.07,-36.70,-39.20,14.40,11,11, 0.00, 0.00, 0.00, 0.00, 0.00, 0.00,-1.00,40.00, 0.00,-100.00,40.00, 0.00,-100.00,907.00,79.00,679.00,208,0,1
20150827080813472,-124.319500,48.266920,-0.07,-36.70,-39.20,14.40,11,11, 0.00, 0.00, 0.00, 0.00, 0.00, 0.00,-1.00,40.00, 0.00,-100.00,40.00, 0.00,-100.00,907.00,79.00,679.00,208,0,1
20150827080813672,-124.319500,48.266920,-0.07,-36.70,-39.20,14.40,11,11, 0.00, 0.00, 0.00, 0.00, 0.00, 0.00,-1.00,40.00, 0.00,-100.00,40.00, 0.00,-100.00,907.00,79.00,679.00,208,0,1
20150827080813871,-124.319500,48.266920,-0.07,-36.70,-39.20,14.40,11,11, 0.00, 0.00, 0.00, 0.00, 0.00, 0.00,-1.00,40.00, 0.00,-100.00,40.00, 0.00,-100.00,907.00,79.00,679.00,208,0,1
20150827080814071,-124.319500,48.266920,-0.07,-36.70,-39.20,14.40,11,11, 0.00, 0.00, 0.00, 0.00, 0.00, 0.00,-1.00,40.00, 0.00,-100.00,40.00, 0.00,-100.00,907.00,79.00,679.00,208,0,1
20150827080814272,-124.319500,48.266920,-0.07,-36.70,-39.20,14.40,11,11, 0.00, 0.00, 0.00, 0.00, 0.00, 0.01, 0.00,40.00, 0.00,-100.00,40.00, 0.00,-100.00,907.00,79.00,679.00,208,0,1
20150827080814472,-124.319500,48.266920,-0.07,-36.70,-39.20,14.40,11,11, 0.00, 0.00, 0.00, 0.00, 0.07, 0.21, 0.00,40.00, 0.00,-100.00,40.00, 0.00,-100.00,907.00,79.00,679.00,208,0,1
20150827080814671,-124.319500,48.266920,-0.07,-36.70,-39.20,14.40,11,11, 0.00, 0.00, 0.00, 0.00, 0.21, 0.60, 0.00,40.00, 0.00,-100.00,40.00, 0.00,-100.00,907.00,79.00,679.00,208,0,1
20150827080814871,-124.319500,48.266920,-0.07,-36.70,-39.20,14.40,11,11, 0.00, 0.00, 0.00, 0.00, 0.42, 0.90, 0.00,40.00, 0.00,-100.00,40.00, 0.00,-100.00,907.00,79.00,679.00,208,0,1
20150827080815071,-124.319500,48.266920,-0.07,-36.70,-39.20,14.40,11,11, 0.00, 0.00, 0.00, 0.00, 0.66, 1.00, 0.00,40.00, 0.00,-100.00,40.00, 0.00,-100.00,907.00,79.00,679.00,208,0,1
20150827080815271,-124.319500,48.266920,-0.07,-36.70,-39.20,14.40,11,11, 0.00, 0.00, 0.00, 0.00, 0.83, 1.00, 0.00,40.00, 0.00,-100.00,40.00, 0.00,-100.00,907.00,79.00,679.00,208,0,1
20150827080815471,-124.319500,48.266920,-0.07,-36.70,-39.20,14.40,11,11, 0.00, 0.00, 0.00, 0.00, 0.94, 1.00, 0.00,40.00, 0.00,-100.00,40.00, 0.00,-100.00,907.00,79.00,679.00,208,0,1
20150827080815671,-124.319500,48.266920,-0.07,-36.70,-39.20,14.40,11,11, 0.00, 0.00, 0.00, 0.00, 0.97, 1.00, 0.00,40.00, 0.00,-100.00,40.00, 0.00,-100.00,907.00,79.00,679.00,208,0,1
20150827080815870,-124.319500,48.266920,-0.07,-36.70,-39.20,14.40,11,11, 0.00, 0.00, 0.00, 0.00, 0.99, 1.00, 0.00,40.00, 0.00,-100.00,40.00, 0.00,-100.00,907.00,79.00,679.00,208,0,1
20150827080816071,-124.319805,48.266815,-0.01, 0.00, 0.00, 0.00,0,0, 0.00, 0.00, 0.00, 0.00, 1.00, 1.00, 0.00, 0.00, 0.00, 0.00, 0.00, 0.00, 0.00, 0.00, 0.00, 0.00,209,0,1
20150827080816270,-124.319805,48.266815, 0.00, 1.70, 0.20,100.70,0,0, 0.00, 0.00, 0.00, 0.00, 0.06, 1.00, 0.00, 0.00,-10.00, 0.00, 0.00,-10.00, 0.00, 0.00, 0.00, 0.00,216,0,1
20150827080816471,-124.319805,48.266815, 0.00, 0.10, 0.20,100.70,0,0, 0.00, 0.00, 0.00, 0.00, 0.09, 1.00, 0.00, 0.00, 0.00, 0.00, 0.00, 0.00, 0.00, 0.00, 0.00, 0.00,224,0,1
20150827080816670,-124.319805,48.266815, 0.00,-0.10, 0.10,100.70,0,0, 0.00, 0.00, 0.00, 0.00, 0.09, 1.00, 0.00, 0.00, 0.00, 0.00, 0.00, 0.00, 0.00, 0.00, 0.00, 0.00,232,0,1
20150827080816870,-124.319805,48.266815, 0.00, 0.40, 0.10,100.70,0,0, 0.00,10.00, 0.00, 0.00, 0.14, 1.00, 0.00, 0.00, 0.00, 0.00, 0.00, 0.00, 0.00, 0.00, 0.00, 0.00,240,0,1
20150827080817071,-124.319805,48.266815, 0.00, 1.20, 0.00,100.70,0,0, 0.00,10.00, 0.00, 0.00, 0.21, 1.00, 0.00, 0.00, 0.00, 0.00, 0.00, 0.00, 0.00, 0.00, 0.00, 0.00,248,0,1
20150827080817270,-124.319805,48.266815, 0.00, 2.00, 0.00,100.70,0,0, 0.00,10.00, 0.00, 0.00, 0.32, 1.00, 0.00, 0.00, 0.00, 0.00, 0.00, 0.00, 0.00, 0.00, 0.00, 0.00,0,0,1
20150827080817470,-124.319805,48.266815, 0.00, 2.70, 0.00,100.70,0,0, 0.00,10.00, 0.00, 0.00, 0.37, 1.00, 0.00, 0.00, 0.00, 0.00, 0.00, 0.00, 0.00, 0.00, 0.00, 0.00,8,0,1
20150827080817671,-124.319805,48.266815, 0.00, 3.30, 0.00,100.70,0,0, 0.00,10.00, 0.00, 0.00, 0.36, 1.00, 0.00, 0.00, 0.00, 0.00, 0.00, 0.00, 0.00, 0.00, 0.00, 0.00,16,0,1
20150827080817870,-124.319805,48.266815, 0.00, 3.70, 0.10,100.70,0,0, 0.00,10.00, 0.00, 0.00, 0.35, 1.00, 0.00, 0.00, 0.00, 0.00, 0.00, 0.00, 0.00, 0.00, 0.00, 0.00,23,0,1
20150827080818070,-124.319805,48.266815, 0.00, 4.10, 0.10,100.70,0,0, 0.00,10.00, 0.00, 0.00, 0.34, 1.00, 0.00, 0.00, 0.00, 0.00, 0.00, 0.00, 0.00, 0.00, 0.00, 0.00,31,0,1
20150827080818270,-124.319805,48.266815, 0.00, 4.80, 0.10,100.70,0,0, 0.00,10.00, 0.00, 0.00, 0.33, 1.00, 0.00, 0.00, 0.00, 0.00, 0.00, 0.00, 0.00, 0.00, 0.00, 0.00,39,0,1
20150827080818470,-124.319805,48.266815, 0.00, 5.50, 0.10,100.70,0,0, 0.00,10.00, 0.00, 0.00, 0.31, 1.00, 0.00, 0.00, 0.00, 0.00, 0.00, 0.00, 0.00, 0.00, 0.00, 0.00,46,0,1
20150827080818670,-124.319805,48.266815, 0.00, 6.50, 0.10,100.70,0,0, 0.00,10.00, 0.00, 0.00, 0.28, 1.00, 0.00, 0.00, 0.00, 0.00, 0.00, 0.00, 0.00, 0.00, 0.00, 0.00,54,0,1
20150827080818870,-124.319805,48.266815, 0.00, 7.80, 0.10,100.70,0,0, 0.00,10.00, 0.00, 0.00, 0.25, 1.00, 0.00, 0.00,10.00, 0.00, 0.00,10.00, 0.00, 0.00, 0.00, 0.00,62,0,1
20150827080819070,-124.319805,48.266815, 0.01, 9.30, 0.20,100.50,0,0, 0.00,10.00, 0.00, 0.00, 0.22, 1.00, 0.00, 0.00,10.00, 0.00, 0.00,10.00, 0.00,12.00,60.00, 1.00,70,0,1
20150827080819270,-124.319800,48.266815, 0.01,10.90, 0.50,99.70,1,1, 0.00,10.00, 0.00, 0.00, 0.17, 1.00, 0.00, 0.00,10.00, 0.00, 0.00,10.00, 0.00,23.00,124.00, 1.00,77,0,1
20150827080819470,-124.319800,48.266815, 0.01,12.50, 0.70,98.40,1,1, 0.00,10.00, 0.00, 0.00, 0.13, 1.00, 0.00, 0.00, 0.00,-10.00, 0.00, 0.00,-10.00,28.00,184.00, 2.00,84,0,1
20150827080819670,-124.319790,48.266815, 0.01,12.30, 0.90,96.60,2,2, 0.00,10.00, 0.00, 0.00, 0.14, 1.00, 0.00, 0.00, 0.00,-10.00, 0.00, 0.00,-10.00,31.00,248.00, 1.00,92,0,1
20150827080819870,-124.319785,48.266815, 0.01,12.10, 0.70,94.50,3,3, 0.00,10.00, 0.00, 0.00, 0.14, 0.17, 0.00, 0.00, 0.00,-10.00, 0.00, 0.00,-10.00,27.00,311.00, 0.00,100,0,1
20150827080820070,-124.319775,48.266815, 0.01,12.30, 0.30,92.70,3,3, 0.00,10.00, 0.00, 0.00, 0.14, 0.17, 0.00, 0.00, 0.00,-10.00, 0.00, 0.00,-10.00,22.00,364.00, 0.00,107,0,1
20150827080820270,-124.319770,48.266815, 0.01,12.60, 0.30,91.10,4,4, 0.00,10.00, 0.00, 0.00, 0.13, 0.17, 0.00, 0.00, 0.00,-10.00, 0.00, 0.00,-10.00,14.00,413.00, 1.00,114,0,1
20150827080820471,-124.319755,48.266815, 0.01,12.60, 0.30,89.70,4,4, 0.00,10.00, 0.00, 0.00, 0.13, 0.17, 0.00, 0.00, 0.00,-10.00, 0.00, 0.00,-10.00, 5.00,459.00, 1.00,121,0,1
20150827080820671,-124.319740,48.266815, 0.01,12.70, 0.30,88.40,4,4, 0.00,10.00, 0.00, 0.00, 0.13, 0.17, 0.00, 0.00, 0.00, 0.00, 0.00, 0.00, 0.00, 6.00,510.00, 0.00,129,0,1
20150827080820871,-124.319725,48.266815, 0.01,12.80, 0.30,87.80,5,5, 0.00,10.00, 0.00, 0.00, 0.13, 0.17, 0.00, 0.00, 0.00, 0.00, 0.00, 0.00, 0.00,15.00,552.00, 0.00,136,0,1
20150827080821071,-124.319705,48.266815, 0.01,12.80, 0.30,87.50,5,5, 0.00,10.00, 0.00, 0.00, 0.13, 0.17, 0.00, 0.00, 0.00, 0.00, 0.00, 0.00, 0.00,22.00,590.00, 0.00,143,0,1
20150827080821270,-124.319690,48.266815, 0.01,12.80, 0.30,87.40,6,6, 0.00,10.00, 0.00, 0.00, 0.13, 0.17, 0.00, 0.00, 0.00, 0.00, 0.00, 0.00, 0.00,28.00,626.00, 1.00,150,0,1
20150827080821471,-124.319675,48.266815, 0.01,12.70, 0.40,87.60,6,6, 0.00,10.00, 0.00, 0.00, 0.13, 0.17, 0.00, 0.00, 0.00, 0.00, 0.00, 0.00, 0.00,33.00,666.00, 1.00,158,0,1
20150827080821671,-124.319655,48.266815, 0.02,12.60, 1.30,88.00,6,6, 0.00,10.00, 0.00, 0.00, 0.13, 0.16, 0.00,10.00, 0.00, 0.00,10.00, 0.00, 0.00,35.00,699.00, 1.00,165,0,1
20150827080822179,-124.319640,48.266815, 0.03,12.50, 2.60,88.40,7,7, 0.00,10.00, 0.00, 0.00, 0.13, 0.13, 0.00,10.00, 0.00, 0.00,10.00, 0.00, 0.00,33.00,729.00, 8.00,172,0,1
20150827080822685,-124.319615,48.266815, 0.06,12.50, 3.70,88.80,7,7, 0.00,10.00, 0.00, 0.00, 0.13, 0.10, 0.00, 0.00, 0.00, 0.00, 0.00, 0.00, 0.00,27.00,762.00,18.00,180,0,1
20150827080822692,-124.319595,48.266815, 0.12,12.90, 4.50,89.40,7,7, 0.00,10.00, 0.00, 0.00, 0.12, 0.08, 0.00, 0.00, 0.00, 0.00, 0.00, 0.00, 0.00,18.00,788.00,30.00,187,0,1
20150827080823198,-124.319570,48.266815, 0.21,13.60, 5.20,90.20,8,8, 0.00,10.00, 0.00, 0.00, 0.10, 0.07, 0.00, 0.00, 0.00, 0.00, 0.00, 0.00, 0.00, 5.00,812.00,49.00,195,0,1
20150827080823204,-124.319555,48.266815, 0.33,14.30, 5.70,91.20,8,8, 0.00,10.00, 0.00, 0.00, 0.09, 0.05, 0.00, 0.00, 0.00, 0.00, 0.00, 0.00, 0.00, 8.00,828.00,70.00,202,0,1
20150827080823209,-124.319530,48.266815, 0.48,14.80, 6.20,92.30,8,8, 0.00,10.00, 0.00, 0.00, 0.08, 0.04, 0.00, 0.00, 0.00,10.00, 0.00, 0.00,10.00,24.00,841.00,89.00,209,0,1
20150827080823714,-124.319510,48.266815, 0.70,15.20, 6.60,93.70,8,8, 0.00,10.00, 0.00, 0.00, 0.07, 0.03, 0.00, 0.00, 0.00,10.00, 0.00, 0.00,10.00,45.00,851.00,108.00,217,0,1
20150827080823721,-124.319485,48.266815, 0.92,15.50, 7.00,95.00,8,8, 0.00,10.00, 0.00, 0.00, 0.06, 0.02, 0.00, 0.00, 0.00,10.00, 0.00, 0.00,10.00,65.00,858.00,121.00,224,0,1
20150827080824225,-124.319465,48.266815, 1.20,15.60, 7.30,96.40,8,8, 0.00,10.00, 0.00, 0.00, 0.05, 0.01, 0.00, 0.00, 0.00,10.00, 0.00, 0.00,10.00,89.00,864.00,132.00,232,0,1
20150827080824232,-124.319440,48.266810, 1.46,15.70, 7.50,97.70,8,8, 0.00,10.00, 0.00, 0.00, 0.05, 0.01, 0.00, 0.00, 0.00,10.00, 0.00, 0.00,10.00,112.00,868.00,139.00,239,0,1
20150827080824243,-124.319410,48.266810, 1.76,15.80, 7.60,99.10,8,8, 0.00,10.00, 0.00, 0.00, 0.05, 0.01, 0.00, 0.00, 0.00,10.00, 0.00, 0.00,10.00,138.00,872.00,146.00,247,0,1
20150827080824251,-124.319385,48.266805, 2.08,15.80, 7.70,100.40,8,8, 0.00,10.00, 0.00, 0.00, 0.05, 0.00, 0.00, 0.00, 0.00,10.00, 0.00, 0.00,10.00,163.00,874.00,151.00,255,0,1
20150827080824272,-124.319365,48.266800, 2.36,15.90, 7.70,101.50,9,9, 0.00,10.00, 0.00, 0.00, 0.05, 0.00, 0.00, 0.00, 0.00,10.00, 0.00, 0.00,10.00,186.00,875.00,156.00,6,0,1
20150827080824469,-124.319340,48.266795, 2.69,15.90, 7.70,102.80,9,9, 0.00,10.00, 0.00, 0.00, 0.05, 0.00, 0.00, 0.00, 0.00,10.00, 0.00, 0.00,10.00,211.00,875.00,161.00,14,0,1
20150827080824672,-124.319320,48.266795, 3.03,16.00, 7.70,104.00,9,9, 0.00,10.00, 0.00, 0.00, 0.04, 0.00, 0.00, 0.00, 0.00, 0.00, 0.00, 0.00, 0.00,236.00,874.00,165.00,22,0,1
20150827080824870,-124.319295,48.266790, 3.35,16.00, 7.70,105.10,9,9, 0.00,10.00, 0.00, 0.00, 0.04, 0.00, 0.00, 0.00, 0.00, 0.00, 0.00, 0.00, 0.00,259.00,872.00,169.00,29,0,1
20150827080825072,-124.319270,48.266785, 3.69,16.10, 7.70,106.40,9,9, 0.00,10.00, 0.00, 0.00, 0.04, 0.00, 0.00, 0.00, 0.00, 0.00, 0.00, 0.00, 0.00,283.00,869.00,173.00,36,0,1
20150827080825269,-124.319250,48.266780, 4.09,16.00, 7.70,107.70,9,9, 0.00,10.00, 0.00, 0.00, 0.03, 0.00, 0.00, 0.00, 0.00, 0.00, 0.00, 0.00, 0.00,310.00,865.00,176.00,44,0,1
20150827080825469,-124.319220,48.266775, 4.45,15.90, 7.70,108.90,9,9, 0.00,10.00, 0.00, 0.00, 0.02, 0.00, 0.00, 0.00, 0.00, 0.00, 0.00, 0.00, 0.00,334.00,862.00,177.00,53,0,1
20150827080825669,-124.319195,48.266765, 4.80,15.50, 7.60,110.00,9,9, 0.00,10.00, 0.00, 0.00, 0.01, 0.01, 0.00, 0.00, 0.00, 0.00, 0.00, 0.00, 0.00,357.00,859.00,176.00,62,0,1
20150827080825869,-124.319175,48.266760, 5.15,15.10, 7.70,111.10,9,9, 0.00,10.00, 0.00, 0.00, 0.01, 0.00, 0.00, 0.00, 0.00, 0.00, 0.00, 0.00, 0.00,381.00,857.00,172.00,71,0,1
20150827080826071,-124.319160,48.266750, 5.48,14.50, 7.60,112.20,9,9, 0.00,10.00, 0.00, 0.00, 0.01, 0.01, 0.00, 0.00, 0.00, 0.00, 0.00, 0.00, 0.00,404.00,856.00,166.00,80,0,1
20150827080826270,-124.319135,48.266745, 5.79,14.00, 7.60,113.30,9,9, 0.00,10.00, 0.00, 0.00, 0.01, 0.01, 0.00, 0.00, 0.00, 0.00, 0.00, 0.00, 0.00,427.00,857.00,159.00,88,0,1
20150827080826470,-124.319105,48.266735, 6.14,13.40, 7.60,114.50,9,9, 0.00,10.00, 0.00, 0.00, 0.01, 0.01, 0.00, 0.00, 0.00,10.00, 0.00, 0.00,10.00,455.00,858.00,150.00,98,0,1
20150827080826669,-124.319080,48.266730, 6.42,12.90, 7.60,115.60,9,9, 0.00,10.00, 0.00, 0.00, 0.01, 0.01, 0.00, 0.00, 0.00,10.00, 0.00, 0.00,10.00,480.00,859.00,144.00,107,0,1
20150827080826869,-124.319060,48.266720, 6.69,12.40, 7.60,116.70,10,10, 0.00,10.00, 0.00, 0.00, 0.01, 0.01, 0.00, 0.00, 0.00,10.00, 0.00, 0.00,10.00,505.00,860.00,138.00,116,0,1
20150827080827069,-124.319035,48.266710, 6.97,11.90, 7.60,117.90,10,10, 0.00,10.00, 0.00, 0.00, 0.01, 0.01, 0.00, 0.00, 0.00, 0.00, 0.00, 0.00, 0.00,533.00,862.00,132.00,126,0,1
20150827080827269,-124.319015,48.266700, 7.24,11.40, 7.50,119.00,10,10, 0.00,10.00, 0.00, 0.00, 0.01, 0.01, 0.00, 0.00, 0.00, 0.00, 0.00, 0.00, 0.00,561.00,864.00,126.00,136,0,1
20150827080827469,-124.318990,48.266690, 7.47,11.00, 7.50,120.00,10,10, 0.00,10.00, 0.00, 0.00, 0.00, 0.01, 0.00, 0.00, 0.00, 0.00, 0.00, 0.00, 0.00,586.00,865.00,122.00,145,0,1
20150827080827669,-124.318965,48.266680, 7.71,10.50, 7.50,121.10,10,10, 0.00,10.00, 0.00, 0.00, 0.00, 0.01, 0.00, 0.00, 0.00, 0.00, 0.00, 0.00, 0.00,614.00,867.00,117.00,155,0,1
20150827080827869,-124.318945,48.266670, 7.94,10.10, 7.50,122.20,10,10, 0.00,10.00, 0.00, 0.00, 0.00, 0.01, 0.00, 0.00, 0.00, 0.00, 0.00, 0.00, 0.00,643.00,868.00,112.00,165,0,1
20150827080828069,-124.318920,48.266655, 8.17, 9.60, 7.50,123.30,10,10, 0.00,10.00, 0.00, 0.00, 0.00, 0.01, 0.00, 0.00, 0.00, 0.00, 0.00, 0.00, 0.00,673.00,870.00,108.00,175,0,1
20150827080828268,-124.318900,48.266645, 8.36, 9.30, 7.40,124.30,11,11, 0.00,10.00, 0.00, 0.00, 0.00, 0.01, 0.00, 0.00, 0.00, 0.00, 0.00, 0.00, 0.00,699.00,871.00,104.00,184,0,1
20150827080828469,-124.318875,48.266630, 8.57, 8.80, 7.40,125.30,11,11, 0.00,10.00, 0.00, 0.00, 0.00, 0.01, 0.00, 0.00, 0.00, 0.00, 0.00, 0.00, 0.00,729.00,872.00,100.00,194,0,1
20150827080828668,-124.318855,48.266620, 8.76, 8.40, 7.40,126.40,11,11, 0.00,10.00, 0.00, 0.00, 0.00, 0.01, 0.00, 0.00, 0.00, 0.00, 0.00, 0.00, 0.00,758.00,873.00,96.00,204,0,1
20150827080828868,-124.318830,48.266605, 8.95, 8.10, 7.40,127.40,11,11, 0.00,10.00, 0.00, 0.00, 0.00, 0.01, 0.00, 0.00, 0.00, 0.00, 0.00, 0.00, 0.00,789.00,874.00,92.00,214,0,1
20150827080829068,-124.318800,48.266590, 9.13, 7.70, 7.30,128.40,11,11, 0.00,10.00, 0.00, 0.00, 0.00, 0.01, 0.00, 0.00, 0.00, 0.00, 0.00, 0.00, 0.00,819.00,874.00,89.00,224,0,1
20150827080829269,-124.318775,48.266570, 9.31, 7.30, 7.30,129.50,12,12, 0.00,10.00, 0.00, 0.00,-0.01, 0.01, 0.00, 0.00, 0.00, 0.00, 0.00, 0.00, 0.00,850.00,874.00,85.00,234,0,1
20150827080829468,-124.318755,48.266555, 9.46, 7.00, 7.30,130.40,12,12, 0.00,10.00, 0.00, 0.00,-0.01, 0.01, 0.00, 0.00, 0.00, 0.00, 0.00, 0.00, 0.00,878.00,874.00,82.00,243,0,1
20150827080829668,-124.318730,48.266540, 9.61, 6.70, 7.30,131.40,12,12, 0.00,10.00, 0.00, 0.00,-0.01, 0.01, 0.00, 0.00, 0.00, 0.00, 0.00, 0.00, 0.00,909.00,873.00,78.00,253,0,1
20150827080829868,-124.318710,48.266525, 9.77, 6.30, 7.30,132.30,12,12, 0.00,10.00, 0.00, 0.00,-0.01, 0.01, 0.00, 0.00, 0.00, 0.00, 0.00, 0.00, 0.00,941.00,872.00,74.00,7,0,1
20150827080830069,-124.318685,48.266510, 9.91, 6.00, 7.30,133.30,13,13, 0.00,10.00, 0.00, 0.00,-0.01, 0.01, 0.00, 0.00, 0.00, 0.00, 0.00, 0.00, 0.00,972.00,870.00,70.00,17,0,1
20150827080830268,-124.318660,48.266490,10.03, 5.70, 7.40,134.20,13,13,195.80, 3.30,20.00, 0.00,-0.04, 0.08, 0.59, 0.00, 0.00, 0.00, 0.00, 0.00, 0.00,1001.00,868.00,67.00,26,0,1
20150827080830468,-124.318640,48.266470,10.16, 5.10, 9.20,135.00,13,13,196.10,10.90,20.00, 0.00,-0.09, 0.29, 0.59,20.00, 0.00, 0.00,20.00, 0.00, 0.00,1043.00,871.00,64.00,36,0,1
20150827080830668,-124.318615,48.266455,10.26, 4.00,14.20,135.50,13,13,196.30,15.00,20.00, 0.00,-0.06, 0.33, 0.58,50.00, 0.00, 0.00,50.00, 0.00, 0.00,1096.00,881.00,47.00,45,0,1
20150827080830868,-124.318595,48.266430,10.32, 3.00,20.30,136.20,14,14,196.70,15.00,20.00, 0.00, 0.03, 0.23, 0.56,30.00, 0.00,10.00,30.00, 0.00,10.00,1168.00,891.00,10.00,55,0,1
20150827080831068,-124.318565,48.266410,10.30, 3.40,23.70,138.50,15,15,197.00,15.00,20.00, 0.60, 0.10, 0.08, 0.54,10.00,20.00,20.00,10.00,20.00,20.00,1247.00,884.00, 7.00,65,0,1
20150827080831268,-124.318550,48.266385,10.31, 4.20,25.30,144.80,15,15,197.40,15.00,20.00, 0.59, 0.11, 0.03, 0.52,10.00,30.00,60.00,10.00,30.00,60.00,1329.00,849.00,29.00,74,0,1
20150827080831468,-124.318525,48.266365,10.44, 4.60,27.70,154.10,16,16,197.70,15.00,20.00, 0.62, 0.11,-0.04, 0.51,10.00,40.00,70.00,10.00,40.00,70.00,1429.00,749.00,101.00,83,0,1
20150827080831668,-124.318510,48.266335,10.70, 5.20,29.90,162.40,16,16,198.10,15.00,20.00, 0.65, 0.11,-0.12, 0.51,10.00,40.00,50.00,10.00,40.00,50.00,1514.00,600.00,171.00,91,0,1
20150827080831869,-124.318495,48.266310,11.12, 6.60,31.00,169.60,16,16,198.50,15.00,19.00, 0.68, 0.08,-0.17, 0.51, 0.00,30.00,30.00, 0.00,30.00,30.00,1583.00,406.00,236.00,100,0,1
20150827080832068,-124.318485,48.266280,11.59, 8.20,30.30,174.30,16,16,198.90,15.00,15.60, 0.65, 0.05,-0.27, 0.51,-20.00,30.00,20.00,-20.00,30.00,20.00,1619.00,237.00,280.00,108,0,1
20150827080832268,-124.318480,48.266250,12.22,10.30,26.90,178.30,16,16,199.40,15.00,12.80, 0.47, 0.01,-0.27, 0.51,-30.00,20.00,10.00,-30.00,20.00,10.00,1640.00,66.00,319.00,117,0,1
20150827080832468,-124.318480,48.266220,12.84,12.00,22.90,180.70,16,16,199.70,15.00,11.30, 0.47,-0.01,-0.23, 0.52,-30.00,20.00,10.00,-30.00,20.00,10.00,1645.00,58.00,348.00,125,0,1
20150827080832668,-124.318485,48.266190,13.58,13.30,19.00,182.90,16,16,200.10,15.00,10.30, 0.43,-0.03,-0.18, 0.52,-30.00,10.00,10.00,-30.00,10.00,10.00,1644.00,164.00,374.00,134,0,1
20150827080832873,-124.318485,48.266165,14.29,13.80,16.20,184.90,17,17,200.50,15.00, 9.30, 0.39,-0.04,-0.15, 0.52,-20.00, 0.00,10.00,-20.00, 0.00,10.00,1640.00,239.00,390.00,142,0,1
20150827080833068,-124.318495,48.266135,15.09,14.20,13.80,187.10,17,17,200.90,15.00, 8.20, 0.34,-0.04,-0.14, 0.53,-20.00, 0.00,10.00,-20.00, 0.00,10.00,1635.00,309.00,401.00,151,0,1
20150827080833268,-124.318510,48.266105,15.91,14.60,11.70,189.10,17,17,201.30,15.00, 7.30, 0.30,-0.04,-0.13, 0.53,-20.00, 0.00,10.00,-20.00, 0.00,10.00,1628.00,371.00,409.00,160,0,1
20150827080833468,-124.318515,48.266075,16.75,15.20, 9.70,190.60,17,17,201.70,15.00, 6.60, 0.27,-0.04,-0.11, 0.54,-10.00, 0.00, 0.00,-10.00, 0.00, 0.00,1618.00,425.00,420.00,169,0,1
20150827080833668,-124.318525,48.266050,17.43,15.70, 8.20,191.50,17,17,202.00,15.00, 6.30, 0.26,-0.04,-0.10, 0.54,-10.00, 0.00, 0.00,-10.00, 0.00, 0.00,1610.00,461.00,430.00,178,0,1
20150827080833867,-124.318525,48.266050,17.43,15.70, 8.20,191.50,17,17,202.00,15.00, 6.30, 0.26,-0.03,-0.12, 0.55,-10.00, 0.00, 0.00,-10.00, 0.00, 0.00,1610.00,461.00,430.00,188,0,1
20150827080834068,-124.318525,48.266050,17.43,15.70, 8.20,191.50,17,17,202.00,15.00, 6.30, 0.26,-0.02,-0.14, 0.56,-10.00, 0.00, 0.00,-10.00, 0.00, 0.00,1610.00,461.00,430.00,197,0,1
20150827080834267,-124.318525,48.266050,17.43,15.70, 8.20,191.50,17,17,202.00,15.00, 6.30, 0.26,-0.01,-0.16, 0.57,-10.00, 0.00, 0.00,-10.00, 0.00, 0.00,1610.00,461.00,430.00,208,0,1
20150827080834468,-124.318525,48.266050,17.43,15.70, 8.20,191.50,17,17,202.00,15.00, 6.30, 0.26,-0.01,-0.17, 0.57,-10.00, 0.00, 0.00,-10.00, 0.00, 0.00,1610.00,461.00,430.00,217,0,1
20150827080834672,-124.318525,48.266050,17.43,15.70, 8.20,191.50,17,17,202.00,15.00, 6.30, 0.26, 0.00,-0.19, 0.58,-10.00, 0.00, 0.00,-10.00, 0.00, 0.00,1610.00,461.00,430.00,227,0,1
20150827080834868,-124.318525,48.266050,17.43,15.70, 8.20,191.50,17,17,202.00,15.00, 6.30, 0.26, 0.00,-0.21, 0.59,-10.00, 0.00, 0.00,-10.00, 0.00, 0.00,1610.00,461.00,430.00,237,0,1
20150827080835068,-124.318525,48.266050,17.43,15.70, 8.20,191.50,17,17,202.00,15.00, 6.30, 0.26, 0.01,-0.23, 0.60,-10.00, 0.00, 0.00,-10.00, 0.00, 0.00,1610.00,461.00,430.00,248,0,1
20150827080835268,-124.318525,48.266050,17.43,15.70, 8.20,191.50,17,17,202.00,15.00, 6.30, 0.26, 0.02,-0.24, 0.61,-10.00, 0.00, 0.00,-10.00, 0.00, 0.00,1610.00,461.00,430.00,2,0,1
20150827080835467,-124.318525,48.266050,17.43,15.70, 8.20,191.50,17,17,202.00,15.00, 6.30, 0.26, 0.02,-0.24, 0.61,-10.00, 0.00, 0.00,-10.00, 0.00, 0.00,1610.00,461.00,430.00,11,0,1
20150827080835667,-124.318525,48.266050,17.43,15.70, 8.20,191.50,17,17,202.00,15.00, 6.30, 0.26, 0.03,-0.24, 0.62,-10.00, 0.00, 0.00,-10.00, 0.00, 0.00,1610.00,461.00,430.00,22,0,1
20150827080835868,-124.318525,48.266050,17.43,15.70, 8.20,191.50,17,17,202.00,15.00, 6.30, 0.26, 0.04,-0.24, 0.63,-10.00, 0.00, 0.00,-10.00, 0.00, 0.00,1610.00,461.00,430.00,32,0,1
20150827080836068,-124.318525,48.266050,17.43,15.70, 8.20,191.50,17,17,202.00,15.00, 6.30, 0.26, 0.04,-0.24, 0.64,-10.00, 0.00, 0.00,-10.00, 0.00, 0.00,1610.00,461.00,430.00,41,0,1
20150827080836267,-124.318525,48.266050,17.43,15.70, 8.20,191.50,17,17,202.00,15.00, 6.30, 0.26, 0.05,-0.24, 0.64,-10.00, 0.00, 0.00,-10.00, 0.00, 0.00,1610.00,461.00,430.00,51,0,1
20150827080836467,-124.318525,48.266050,17.43,15.70, 8.20,191.50,17,17,202.00,15.00, 6.30, 0.26, 0.05,-0.24, 0.65,-10.00, 0.00, 0.00,-10.00, 0.00, 0.00,1610.00,461.00,430.00,61,0,1
20150827080836671,-124.318525,48.266050,17.43,15.70, 8.20,191.50,17,17,202.00,15.00, 6.30, 0.26, 0.05,-0.24, 0.66,-10.00, 0.00, 0.00,-10.00, 0.00, 0.00,1610.00,461.00,430.00,72,0,1
20150827080836867,-124.318525,48.266050,17.43,15.70, 8.20,191.50,17,17,202.00,15.00, 6.30, 0.26, 0.05,-0.24, 0.67,-10.00, 0.00, 0.00,-10.00, 0.00, 0.00,1610.00,461.00,430.00,81,0,1
20150827080837071,-124.318525,48.266050,17.43,15.70, 8.20,191.50,17,17,202.00,15.00, 6.30, 0.26, 0.04,-0.24, 0.68,-10.00, 0.00, 0.00,-10.00, 0.00, 0.00,1610.00,461.00,430.00,91,0,1
20150827080837267,-124.318525,48.266050,17.43,15.70, 8.20,191.50,17,17,202.00,15.00, 6.30, 0.26, 0.04,-0.24, 0.68,-10.00, 0.00, 0.00,-10.00, 0.00, 0.00,1610.00,461.00,430.00,101,0,1
20150827080837467,-124.318525,48.266050,17.43,15.70, 8.20,191.50,17,17,202.00,15.00, 6.30, 0.26, 0.03,-0.24, 0.69,-10.00, 0.00, 0.00,-10.00, 0.00, 0.00,1610.00,461.00,430.00,111,0,1
20150827080837667,-124.318525,48.266050,17.43,15.70, 8.20,191.50,17,17,202.00,15.00, 6.30, 0.26, 0.03,-0.24, 0.70,-10.00, 0.00, 0.00,-10.00, 0.00, 0.00,1610.00,461.00,430.00,121,0,1
20150827080837868,-124.318525,48.266050,17.43,15.70, 8.20,191.50,17,17,202.00,15.00, 6.30, 0.26, 0.02,-0.24, 0.71,-10.00, 0.00, 0.00,-10.00, 0.00, 0.00,1610.00,461.00,430.00,131,0,1
20150827080838068,-124.318525,48.266050,17.43,15.70, 8.20,191.50,17,17,202.00,15.00, 6.30, 0.26, 0.02,-0.24, 0.71,-10.00, 0.00, 0.00,-10.00, 0.00, 0.00,1610.00,461.00,430.00,141,0,1
20150827080838267,-124.318525,48.266050,17.43,15.70, 8.20,191.50,17,17,202.00,15.00, 6.30, 0.26, 0.01,-0.24, 0.72,-10.00, 0.00, 0.00,-10.00, 0.00, 0.00,1610.00,461.00,430.00,150,0,1
20150827080838472,-124.318525,48.266050,17.43,15.70, 8.20,191.50,17,17,202.00,15.00, 6.30, 0.26, 0.01,-0.24, 0.73,-10.00, 0.00, 0.00,-10.00, 0.00, 0.00,1610.00,461.00,430.00,160,0,1
20150827080838668,-124.318525,48.266050,17.43,15.70, 8.20,191.50,17,17,202.00,15.00, 6.30, 0.26, 0.00,-0.24, 0.74,-10.00, 0.00, 0.00,-10.00, 0.00, 0.00,1610.00,461.00,430.00,170,0,1
20150827080838867,-124.318525,48.266050,17.43,15.70, 8.20,191.50,17,17,202.00,15.00, 6.30, 0.26, 0.00,-0.24, 0.75,-10.00, 0.00, 0.00,-10.00, 0.00, 0.00,1610.00,461.00,430.00,180,0,1
20150827080839068,-124.318525,48.266050,17.43,15.70, 8.20,191.50,17,17,202.00,15.00, 6.30, 0.26, 0.00,-0.24, 0.75,-10.00, 0.00, 0.00,-10.00, 0.00, 0.00,1610.00,461.00,430.00,190,0,1
20150827080839267,-124.318525,48.266050,17.43,15.70, 8.20,191.50,17,17,202.00,15.00, 6.30, 0.26, 0.00,-0.24, 0.76,-10.00, 0.00, 0.00,-10.00, 0.00, 0.00,1610.00,461.00,430.00,200,0,1
20150827080839468,-124.318525,48.266050,17.43,15.70, 8.20,191.50,17,17,202.00,15.00, 6.30, 0.26,-0.01,-0.24, 0.77,-10.00, 0.00, 0.00,-10.00, 0.00, 0.00,1610.00,461.00,430.00,209,0,1
20150827080839667,-124.318525,48.266050,17.43,15.70, 8.20,191.50,17,17,202.00,15.00, 6.30, 0.26,-0.01,-0.24, 0.78,-10.00, 0.00, 0.00,-10.00, 0.00, 0.00,1610.00,461.00,430.00,219,0,1
20150827080839867,-124.318525,48.266050,17.43,15.70, 8.20,191.50,17,17,202.00,15.00, 6.30, 0.26,-0.02,-0.24, 0.78,-10.00, 0.00, 0.00,-10.00, 0.00, 0.00,1610.00,461.00,430.00,228,0,1
20150827080840072,-124.318525,48.266050,17.43,15.70, 8.20,191.50,17,17,202.00,15.00, 6.30, 0.26,-0.02,-0.24, 0.79,-10.00, 0.00, 0.00,-10.00, 0.00, 0.00,1610.00,461.00,430.00,237,0,1
20150827080840267,-124.318525,48.266050,17.43,15.70, 8.20,191.50,17,17,202.00,15.00, 6.30, 0.26,-0.03,-0.24, 0.80,-10.00, 0.00, 0.00,-10.00, 0.00, 0.00,1610.00,461.00,430.00,248,0,1
20150827080840467,-124.318525,48.266050,17.43,15.70, 8.20,191.50,17,17,202.00,15.00, 6.30, 0.26,-0.03,-0.24, 0.81,-10.00, 0.00, 0.00,-10.00, 0.00, 0.00,1610.00,461.00,430.00,2,0,1
20150827080840667,-124.318525,48.266050,17.43,15.70, 8.20,191.50,17,17,202.00,15.00, 6.30, 0.26,-0.04,-0.24, 0.82,-10.00, 0.00, 0.00,-10.00, 0.00, 0.00,1610.00,461.00,430.00,12,0,1
20150827080840867,-124.318525,48.266050,17.43,15.70, 8.20,191.50,17,17,202.00,15.00, 6.30, 0.26,-0.04,-0.24, 0.82,-10.00, 0.00, 0.00,-10.00, 0.00, 0.00,1610.00,461.00,430.00,22,0,1
20150827080841072,-124.318530,48.266045,17.52,15.70, 7.90,191.60,17,17,202.00,15.00, 6.20, 0.26,-0.05,-0.24, 0.83,-30.00, 0.00, 0.00,-30.00, 0.00, 0.00,1610.00,463.00,429.00,30,0,1
20150827080841267,-124.318540,48.266020,18.25,16.20, 3.90,193.30,17,17,202.40,15.00, 5.40, 0.16,-0.06,-0.16, 0.83,-40.00, 0.00,10.00,-40.00, 0.00,10.00,1613.00,482.00,437.00,39,0,1
20150827080841467,-124.318555,48.265995,19.11,16.40, 0.90,195.30,17,17,202.70,15.00, 4.40, 0.03,-0.07,-0.11, 0.83,-20.00, 0.00,10.00,-20.00, 0.00,10.00,1618.00,504.00,454.00,48,0,1
20150827080841667,-124.318570,48.265960,20.01,16.50,-1.10,195.50,17,17,203.10,15.00, 4.50, 0.00,-0.08,-0.05, 0.83,-10.00, 0.00, 0.00,-10.00, 0.00, 0.00,1627.00,525.00,464.00,57,0,1
20150827080841867,-124.318585,48.265935,20.93,16.30,-2.90,193.70,17,17,203.50,15.00, 5.80, 0.00,-0.08, 0.01, 0.83, 0.00, 0.00,-10.00, 0.00, 0.00,-10.00,1642.00,535.00,469.00,66,0,1
20150827080842067,-124.318595,48.265905,21.85,16.00,-3.70,191.50,17,17,203.90,15.00, 7.40, 0.00,-0.08, 0.07, 0.83, 0.00, 0.00,-10.00, 0.00, 0.00,-10.00,1663.00,528.00,471.00,75,0,1
20150827080842266,-124.318610,48.265875,22.76,15.80,-3.40,190.10,18,18,204.30,15.00, 8.50, 0.00,-0.08, 0.09, 0.83, 0.00, 0.00, 0.00, 0.00, 0.00, 0.00,1683.00,512.00,471.00,84,0,1
20150827080842466,-124.318625,48.265845,23.68,15.70,-2.30,189.90,18,18,204.70,15.00, 8.80, 0.00,-0.09, 0.07, 0.83, 0.00, 0.00, 0.00, 0.00, 0.00, 0.00,1702.00,496.00,471.00,93,0,1
20150827080842666,-124.318640,48.265815,24.60,15.60,-1.20,190.50,18,18,205.20,15.00, 8.80, 0.00,-0.09, 0.05, 0.82, 0.00, 0.00, 0.00, 0.00, 0.00, 0.00,1720.00,490.00,472.00,102,0,1
20150827080842871,-124.318655,48.265780,25.58,15.40,-0.50,191.10,18,18,205.60,15.00, 8.70, 0.00,-0.09, 0.03, 0.81, 0.00, 0.00, 0.00, 0.00, 0.00, 0.00,1737.00,491.00,474.00,111,0,1
20150827080843067,-124.318660,48.265750,26.49,15.20,-0.20,191.20,18,18,206.10,15.00, 8.90, 0.00,-0.09, 0.02, 0.81, 0.00, 0.00, 0.00, 0.00, 0.00, 0.00,1753.00,496.00,473.00,120,0,1
20150827080843266,-124.318675,48.265720,27.40,15.00,-0.10,191.00,18,18,206.50,15.00, 9.30, 0.00,-0.09, 0.03, 0.80, 0.00, 0.00, 0.00, 0.00, 0.00, 0.00,1767.00,500.00,471.00,129,0,1
20150827080843466,-124.318695,48.265685,28.30,14.80, 0.00,190.70,19,19,206.90,15.00, 9.70, 0.00,-0.09, 0.04, 0.79, 0.00, 0.00, 0.00, 0.00, 0.00, 0.00,1782.00,502.00,469.00,138,0,1
20150827080843666,-124.318710,48.265655,29.20,14.60, 0.30,190.50,19,19,207.40,15.00,10.10, 0.01,-0.09, 0.04, 0.79, 0.00, 0.00, 0.00, 0.00, 0.00, 0.00,1796.00,503.00,466.00,147,0,1
20150827080843867,-124.318725,48.265625,30.19,14.40, 0.80,190.70,19,19,207.90,15.00,10.30, 0.03,-0.09, 0.03, 0.78, 0.00, 0.00, 0.00, 0.00, 0.00, 0.00,1811.00,505.00,463.00,157,0,1
20150827080844067,-124.318730,48.265590,31.09,14.30, 1.20,191.30,19,19,208.30,15.00,10.20, 0.05,-0.08, 0.02, 0.77, 0.00, 0.00, 0.00, 0.00, 0.00, 0.00,1823.00,510.00,463.00,166,0,1
20150827080844266,-124.318745,48.265560,31.99,14.40, 1.50,191.90,19,19,208.80,15.00,10.10, 0.06,-0.08, 0.01, 0.77, 0.00, 0.00, 0.00, 0.00, 0.00, 0.00,1833.00,519.00,466.00,175,0,1
20150827080844466,-124.318760,48.265525,32.91,14.50, 1.70,192.50,19,19,209.30,15.00,10.00, 0.07,-0.08, 0.00, 0.76, 0.00, 0.00, 0.00, 0.00, 0.00, 0.00,1839.00,530.00,472.00,184,0,1
20150827080844666,-124.318775,48.265490,33.82,14.70, 1.70,192.80,19,19,209.80,15.00,10.20, 0.07,-0.08, 0.01, 0.76, 0.00, 0.00, 0.00, 0.00, 0.00, 0.00,1844.00,541.00,480.00,193,0,1
20150827080844866,-124.318790,48.265460,34.73,14.90, 1.80,193.00,19,19,210.20,15.00,10.30, 0.07,-0.08, 0.01, 0.75, 0.00, 0.00, 0.00, 0.00, 0.00, 0.00,1846.00,552.00,489.00,201,0,1
20150827080845066,-124.318805,48.265425,35.72,15.20, 1.80,193.20,19,19,210.70,15.00,10.50, 0.07,-0.08, 0.01, 0.75, 0.00, 0.00, 0.00, 0.00, 0.00, 0.00,1848.00,562.00,500.00,210,0,1
20150827080845266,-124.318820,48.265390,36.75,15.40, 2.00,193.50,19,19,211.20,15.00,10.60, 0.08,-0.08, 0.01, 0.75, 0.00, 0.00, 0.00, 0.00, 0.00, 0.00,1848.00,572.00,511.00,219,0,1
20150827080845466,-124.318840,48.265360,37.68,15.60, 2.10,193.90,20,20,211.70,15.00,10.60, 0.08,-0.09, 0.01, 0.74, 0.00, 0.00, 0.00, 0.00, 0.00, 0.00,1847.00,581.00,521.00,227,0,1
20150827080845666,-124.318855,48.265325,38.73,15.60, 2.30,194.40,20,20,212.20,15.00,10.60, 0.09,-0.10, 0.00, 0.74, 0.00, 0.00, 0.00, 0.00, 0.00, 0.00,1846.00,592.00,525.00,236,0,1
20150827080845865,-124.318870,48.265290,39.80,15.40, 2.40,194.90,20,20,212.70,15.00,10.60, 0.10,-0.10, 0.00, 0.74, 0.00, 0.00, 0.00, 0.00, 0.00, 0.00,1847.00,605.00,523.00,245,0,1
20150827080846065,-124.318885,48.265260,40.82,15.30, 2.60,195.40,20,20,213.20,15.00,10.60, 0.10,-0.10, 0.01, 0.74, 0.00, 0.00, 0.00, 0.00, 0.00, 0.00,1847.00,619.00,520.00,254,0,1
20150827080846265,-124.318905,48.265225,41.84,15.10, 3.00,195.80,20,20,213.70,15.00,10.70, 0.12,-0.10, 0.02, 0.74, 0.00, 0.00, 0.00, 0.00, 0.00, 0.00,1848.00,633.00,515.00,7,0,1
20150827080846465,-124.318920,48.265190,42.85,14.90, 3.70,196.30,20,20,214.20,15.00,10.70, 0.15,-0.10, 0.02, 0.73, 0.00, 0.00, 0.00, 0.00, 0.00, 0.00,1849.00,649.00,510.00,16,0,1
20150827080846665,-124.318935,48.265160,43.83,14.70, 4.40,197.00,20,20,214.70,15.00,10.60, 0.18,-0.10, 0.02, 0.73, 0.00, 0.00, 0.00, 0.00, 0.00, 0.00,1849.00,666.00,505.00,25,0,1
20150827080846870,-124.318960,48.265125,44.79,14.50, 5.20,198.10,20,20,215.20,15.00,10.20, 0.21,-0.09, 0.00, 0.73, 0.00, 0.00,10.00, 0.00, 0.00,10.00,1847.00,687.00,499.00,34,0,1
20150827080847066,-124.318975,48.265090,45.82,14.40, 5.90,199.50,20,20,215.80,15.00, 9.70, 0.24,-0.08, 0.00, 0.73, 0.00, 0.00,10.00, 0.00, 0.00,10.00,1841.00,714.00,496.00,44,0,1
20150827080847265,-124.319000,48.265060,46.75,14.50, 6.50,200.70,20,20,216.20,15.00, 9.20, 0.27,-0.08,-0.01, 0.73, 0.00, 0.00,10.00, 0.00, 0.00,10.00,1830.00,742.00,498.00,53,0,1
20150827080847465,-124.319020,48.265025,47.79,14.70, 6.90,202.10,20,20,216.80,15.00, 8.80, 0.28,-0.08,-0.01, 0.73, 0.00, 0.00,10.00, 0.00, 0.00,10.00,1814.00,776.00,503.00,63,0,1
20150827080847665,-124.319035,48.264995,48.63,14.80, 7.30,203.10,20,20,217.30,15.00, 8.50, 0.30,-0.08,-0.01, 0.73, 0.00, 0.00, 0.00, 0.00, 0.00, 0.00,1800.00,804.00,508.00,71,0,1
20150827080847865,-124.319060,48.264965,49.71,15.00, 7.60,204.30,20,20,217.80,15.00, 8.10, 0.31,-0.08,-0.02, 0.73, 0.00, 0.00, 0.00, 0.00, 0.00, 0.00,1780.00,839.00,513.00,81,0,1
20150827080848065,-124.319080,48.264930,50.80,15.20, 7.90,205.60,20,20,218.40,15.00, 7.60, 0.32,-0.08,-0.02, 0.73, 0.00, 0.00,10.00, 0.00, 0.00,10.00,1758.00,875.00,518.00,91,0,1
20150827080848265,-124.319110,48.264900,51.78,15.30, 8.20,206.80,20,20,218.90,15.00, 7.20, 0.30,-0.08,-0.02, 0.73, 0.00, 0.00, 0.00, 0.00, 0.00, 0.00,1737.00,909.00,522.00,100,0,1
20150827080848465,-124.319135,48.264865,52.79,15.40, 8.40,207.90,20,20,219.40,15.00, 6.90, 0.28,-0.08,-0.02, 0.73, 0.00, 0.00, 0.00, 0.00, 0.00, 0.00,1715.00,944.00,525.00,109,0,1
20150827080848665,-124.319160,48.264840,53.81,15.50, 8.60,208.80,20,20,219.80,15.00, 6.60, 0.27,-0.09,-0.01, 0.73, 0.00, 0.00, 0.00, 0.00, 0.00, 0.00,1693.00,978.00,528.00,118,0,1
20150827080848865,-124.319190,48.264810,54.83,15.40, 8.80,209.70,20,20,220.30,15.00, 6.30, 0.26,-0.09,-0.01, 0.73, 0.00, 0.00, 0.00, 0.00, 0.00, 0.00,1673.00,1011.00,526.00,127,0,1
20150827080849065,-124.319220,48.264775,55.95,15.20, 9.10,210.70,20,20,220.90,15.00, 6.10, 0.25,-0.09,-0.01, 0.73, 0.00, 0.00, 0.00, 0.00, 0.00, 0.00,1654.00,1048.00,518.00,137,0,1
20150827080849265,-124.319240,48.264750,56.93,14.90, 9.40,211.80,20,20,221.40,15.00, 5.70, 0.24,-0.09,-0.01, 0.73, 0.00, 0.00, 0.00, 0.00, 0.00, 0.00,1638.00,1082.00,509.00,146,0,1
20150827080849465,-124.319270,48.264720,57.89,14.60, 9.70,212.80,20,20,221.90,15.00, 5.40, 0.22,-0.09,-0.01, 0.73, 0.00, 0.00, 0.00, 0.00, 0.00, 0.00,1621.00,1117.00,499.00,154,0,1
20150827080849665,-124.319305,48.264690,58.84,14.40, 9.90,213.90,20,20,222.40,15.00, 5.10, 0.21,-0.08,-0.01, 0.73, 0.00, 0.00, 0.00, 0.00, 0.00, 0.00,1604.00,1154.00,490.00,163,0,1
20150827080849864,-124.319340,48.264660,59.87,14.40,10.10,215.10,20,20,222.90,15.00, 4.60, 0.19,-0.08,-0.01, 0.73, 0.00, 0.00, 0.00, 0.00, 0.00, 0.00,1583.00,1193.00,487.00,173,0,1
20150827080850064,-124.319370,48.264635,60.79,14.60,10.20,216.10,20,20,223.40,15.00, 4.30, 0.18,-0.08,-0.01, 0.72, 0.00, 0.00, 0.00, 0.00, 0.00, 0.00,1561.00,1228.00,490.00,182,0,1
20150827080850269,-124.319400,48.264610,61.72,14.70,10.40,217.10,20,20,223.90,15.00, 4.00, 0.17,-0.08, 0.00, 0.72, 0.00, 0.00, 0.00, 0.00, 0.00, 0.00,1538.00,1262.00,495.00,191,0,1
20150827080850465,-124.319440,48.264575,62.78,14.90,10.50,218.30,20,20,224.50,15.00, 3.70, 0.15,-0.08, 0.00, 0.72, 0.00, 0.00, 0.00, 0.00, 0.00, 0.00,1512.00,1300.00,501.00,201,0,1
20150827080850664,-124.319470,48.264550,63.74,15.10,10.70,219.40,20,20,225.00,15.00, 3.30, 0.14,-0.08, 0.00, 0.72, 0.00, 0.00, 0.00, 0.00, 0.00, 0.00,1486.00,1333.00,506.00,210,0,1
20150827080850864,-124.319510,48.264525,64.70,15.20,10.80,220.50,20,20,225.50,15.00, 3.00, 0.12,-0.08, 0.00, 0.71, 0.00, 0.00, 0.00, 0.00, 0.00, 0.00,1461.00,1365.00,512.00,219,0,1
20150827080851064,-124.319545,48.264500,65.71,15.40,10.90,221.50,20,20,225.90,15.00, 2.60, 0.11,-0.08, 0.00, 0.71, 0.00, 0.00, 0.00, 0.00, 0.00, 0.00,1433.00,1397.00,517.00,228,0,1
20150827080851264,-124.319585,48.264475,66.72,15.50,10.80,222.60,20,20,226.50,15.00, 2.40, 0.09,-0.09, 0.00, 0.71, 0.00, 0.00, 0.00, 0.00, 0.00, 0.00,1405.00,1428.00,522.00,237,0,1
20150827080851464,-124.319630,48.264450,67.84,15.50,10.50,223.70,20,20,227.00,15.00, 2.10, 0.08,-0.09, 0.00, 0.71, 0.00, 0.00, 0.00, 0.00, 0.00, 0.00,1377.00,1461.00,523.00,247,0,1
20150827080851664,-124.319670,48.264425,68.82,15.30,10.30,224.70,20,20,227.50,15.00, 1.80, 0.07,-0.09,-0.01, 0.71, 0.00, 0.00, 0.00, 0.00, 0.00, 0.00,1354.00,1488.00,520.00,0,0,1
20150827080851865,-124.319705,48.264400,69.84,15.10, 9.90,225.60,20,20,228.10,15.00, 1.60, 0.06,-0.09, 0.00, 0.71, 0.00, 0.00, 0.00, 0.00, 0.00, 0.00,1331.00,1517.00,514.00,9,0,1
20150827080852064,-124.319745,48.264375,70.83,15.00, 9.60,226.50,20,20,228.50,15.00, 1.40, 0.05,-0.09, 0.00, 0.68, 0.00, 0.00, 0.00, 0.00, 0.00, 0.00,1310.00,1544.00,508.00,18,0,1
20150827080852264,-124.319790,48.264350,71.87,14.80, 9.30,227.40,20,20,229.10,15.00, 1.20, 0.04,-0.09, 0.00, 0.65, 0.00, 0.00, 0.00, 0.00, 0.00, 0.00,1288.00,1572.00,502.00,28,0,1
20150827080852464,-124.319830,48.264330,72.81,14.60, 9.00,228.20,20,20,229.60,15.00, 1.00, 0.03,-0.09, 0.00, 0.63, 0.00, 0.00, 0.00, 0.00, 0.00, 0.00,1268.00,1595.00,496.00,37,0,1
20150827080852664,-124.319875,48.264305,73.82,14.40, 8.80,229.10,20,20,230.10,15.00, 0.80, 0.03,-0.08, 0.00, 0.60, 0.00, 0.00, 0.00, 0.00, 0.00, 0.00,1246.00,1618.00,490.00,47,0,1
20150827080852864,-124.319920,48.264285,74.71,14.50, 8.60,229.90,20,20,230.70,15.00, 0.80, 0.02,-0.08, 0.00, 0.60, 0.00, 0.00, 0.00, 0.00, 0.00, 0.00,1224.00,1637.00,488.00,56,0,1
20150827080853064,-124.319965,48.264265,75.71,14.70, 8.50,230.70,20,20,231.10,15.00, 0.80, 0.01,-0.08, 0.00, 0.60, 0.00, 0.00, 0.00, 0.00, 0.00, 0.00,1198.00,1655.00,491.00,66,0,1
20150827080853265,-124.320005,48.264240,76.62,14.80, 8.40,231.50,20,20,231.70,14.30, 0.80, 0.00,-0.10, 0.01, 0.60, 0.00, 0.00, 0.00, 0.00, 0.00, 0.00,1174.00,1670.00,496.00,75,0,1
20150827080853464,-124.320060,48.264225,77.63,14.70, 8.30,232.20,20,20,232.20,13.50, 0.80, 0.00,-0.11, 0.01, 0.60, 0.00, 0.00, 0.00, 0.00, 0.00, 0.00,1149.00,1687.00,495.00,84,0,1
20150827080853664,-124.320105,48.264200,78.65,14.00, 8.20,232.90,20,20,232.80,12.70, 0.80, 0.00,-0.12, 0.01, 0.60, 0.00, 0.00, 0.00, 0.00, 0.00, 0.00,1129.00,1706.00,482.00,94,0,1
20150827080853868,-124.320150,48.264180,79.51,13.30, 8.20,233.50,21,21,233.30,12.00, 0.80, 0.00,-0.12, 0.01, 0.60, 0.00, 0.00, 0.00, 0.00, 0.00, 0.00,1116.00,1725.00,460.00,103,0,1
20150827080854064,-124.320195,48.264160,80.40,12.30, 8.00,234.20,21,21,233.80,11.40, 0.80, 0.00,-0.12, 0.00, 0.60, 0.00, 0.00, 0.00, 0.00, 0.00, 0.00,1104.00,1749.00,429.00,113,0,1
20150827080854263,-124.320250,48.264140,81.25,11.30, 7.60,235.00,21,21,234.40,11.00, 0.80, 0.00,-0.11, 0.00, 0.60, 0.00, 0.00, 0.00, 0.00, 0.00, 0.00,1094.00,1776.00,397.00,123,0,1
20150827080854463,-124.320295,48.264120,82.03,10.60, 7.20,235.70,21,21,235.00,10.50, 0.80, 0.00,-0.11, 0.00, 0.38, 0.00, 0.00, 0.00, 0.00, 0.00, 0.00,1084.00,1801.00,370.00,134,0,1
20150827080854664,-124.320350,48.264100,82.73, 9.90, 6.80,236.50,21,21,235.50,10.10, 0.80, 0.00,-0.11, 0.00, 0.35, 0.00, 0.00, 0.00, 0.00, 0.00, 0.00,1070.00,1821.00,346.00,145,0,1
20150827080854863,-124.320395,48.264080,83.38, 9.30, 6.50,237.10,21,21,236.10, 9.80, 0.80, 0.00,-0.10, 0.00, 0.33, 0.00, 0.00, 0.00, 0.00, 0.00, 0.00,1055.00,1837.00,324.00,156,0,1
20150827080855063,-124.320445,48.264060,83.99, 8.70, 5.90,237.70,21,21,236.70, 9.40,-0.30, 0.00,-0.10,-0.02, 0.31,-10.00, 0.00, 0.00,-10.00, 0.00, 0.00,1041.00,1853.00,303.00,167,0,1
20150827080855264,-124.320495,48.264045,84.57, 8.20, 4.80,238.30,21,21,237.30, 9.00,-0.30, 0.00,-0.09,-0.01, 0.29, 0.00, 0.00, 0.00, 0.00, 0.00, 0.00,1028.00,1867.00,283.00,179,0,1
20150827080855465,-124.320545,48.264025,85.09, 7.80, 4.10,238.80,21,21,237.90, 8.80,-0.30, 0.00,-0.08, 0.00, 0.27, 0.00, 0.00, 0.00, 0.00, 0.00, 0.00,1018.00,1879.00,268.00,190,0,1
20150827080855664,-124.320600,48.264005,85.61, 7.60, 3.60,239.30,21,21,238.50, 8.40,-0.30, 0.00,-0.08, 0.00, 0.26, 0.00, 0.00, 0.00, 0.00, 0.00, 0.00,1007.00,1890.00,258.00,202,0,1
20150827080855865,-124.320645,48.263990,86.08, 7.40, 3.10,239.60,21,21,239.00, 8.20,-0.30, 0.00,-0.08, 0.00, 0.24, 0.00, 0.00, 0.00, 0.00, 0.00, 0.00,997.00,1899.00,252.00,213,0,1
20150827080856064,-124.320700,48.263970,86.58, 7.30, 2.50,239.90,21,21,239.60, 7.90,-0.30, 0.00,-0.08, 0.00, 0.22, 0.00, 0.00, 0.00, 0.00, 0.00, 0.00,989.00,1906.00,247.00,224,0,1
20150827080856264,-124.320755,48.263955,87.04, 7.20, 2.00,240.20,21,21,240.20, 7.60,-0.30, 0.00,-0.08, 0.00, 0.20, 0.00, 0.00, 0.00, 0.00, 0.00, 0.00,982.00,1912.00,243.00,235,0,1
20150827080856465,-124.320800,48.263935,87.51, 7.10, 1.50,240.50,21,21,240.80, 7.30,-0.30, 0.01,-0.08, 0.00, 0.18, 0.00, 0.00, 0.00, 0.00, 0.00, 0.00,975.00,1917.00,240.00,246,0,1
20150827080856664,-124.320850,48.263915,87.97, 7.00, 1.10,240.80,21,21,241.50, 7.00,-0.30, 0.02,-0.08, 0.00, 0.17, 0.00, 0.00, 0.00, 0.00, 0.00, 0.00,970.00,1921.00,236.00,1,0,1
20150827080856864,-124.320905,48.263900,88.42, 6.90, 0.70,241.10,21,21,242.10, 6.70, 0.80, 0.02,-0.08, 0.01, 0.15, 0.00, 0.00, 0.00, 0.00, 0.00, 0.00,965.00,1924.00,232.00,12,0,1
20150827080857064,-124.320960,48.263885,88.86, 6.70, 0.80,241.30,21,21,242.80, 6.50, 1.10, 0.02,-0.08, 0.01, 0.13, 0.00, 0.00, 0.00, 0.00, 0.00, 0.00,960.00,1926.00,227.00,23,0,1
20150827080857264,-124.321010,48.263870,89.31, 6.60, 0.90,241.40,21,21,243.40, 6.20, 1.40, 0.03,-0.09, 0.01, 0.12, 0.00, 0.00, 0.00, 0.00, 0.00, 0.00,955.00,1929.00,222.00,35,0,1
20150827080857464,-124.321060,48.263850,89.70, 6.40, 0.90,241.50,21,21,244.00, 6.00, 1.70, 0.03,-0.09, 0.00, 0.10, 0.00, 0.00, 0.00, 0.00, 0.00, 0.00,950.00,1931.00,215.00,46,0,1
20150827080857664,-124.321120,48.263835,90.13, 6.00, 0.80,241.70,21,21,244.80, 5.90, 2.10, 0.02,-0.09, 0.00, 0.09, 0.00, 0.00, 0.00, 0.00, 0.00, 0.00,945.00,1934.00,204.00,58,0,1
20150827080857864,-124.321170,48.263815,90.51, 5.70, 0.70,241.90,21,21,245.50, 6.00, 2.50, 0.02,-0.08, 0.00, 0.08, 0.00, 0.00, 0.00, 0.00, 0.00, 0.00,941.00,1937.00,191.00,70,0,1
20150827080858064,-124.321220,48.263800,90.85, 5.50, 0.50,242.00,21,21,246.10, 6.20, 2.80, 0.01,-0.07, 0.00, 0.07, 0.00, 0.00, 0.00, 0.00, 0.00, 0.00,937.00,1940.00,182.00,81,0,1
20150827080858264,-124.321270,48.263785,91.21, 5.60, 0.50,242.10,21,21,246.80, 6.30, 3.20, 0.01,-0.06, 0.00, 0.07, 0.00, 0.00, 0.00, 0.00, 0.00, 0.00,933.00,1943.00,180.00,93,0,1
20150827080858464,-124.321325,48.263765,91.56, 5.80, 0.30,242.10,21,21,247.50, 6.50, 3.20, 0.01,-0.06, 0.00, 0.06, 0.00, 0.00, 0.00, 0.00, 0.00, 0.00,929.00,1943.00,184.00,105,0,1
20150827080858663,-124.321380,48.263750,91.92, 6.10, 0.10,242.20,21,21,248.20, 6.60, 3.60, 0.00,-0.06, 0.01, 0.06, 0.00, 0.00, 0.00, 0.00, 0.00, 0.00,925.00,1942.00,192.00,117,0,1
20150827080858863,-124.321430,48.263730,92.30, 6.40, 0.00,242.20,21,21,249.00, 6.70, 4.00, 0.00,-0.06, 0.01, 0.05, 0.00, 0.00, 0.00, 0.00, 0.00, 0.00,921.00,1940.00,202.00,129,0,1
20150827080859063,-124.321485,48.263715,92.68, 6.60, 0.00,242.20,21,21,249.70, 6.80, 4.50, 0.00,-0.06, 0.02, 0.05, 0.00, 0.00, 0.00, 0.00, 0.00, 0.00,918.00,1937.00,210.00,140,0,1
20150827080859268,-124.321540,48.263700,93.12, 6.80, 0.10,242.20,21,21,250.40, 6.80, 4.90, 0.00,-0.06, 0.02, 0.04, 0.00, 0.00, 0.00, 0.00, 0.00, 0.00,913.00,1933.00,219.00,152,0,1
20150827080859463,-124.321585,48.263685,93.51, 7.10, 0.20,242.30,21,21,251.10, 6.80, 5.20, 0.00,-0.06, 0.02, 0.04, 0.00, 0.00, 0.00, 0.00, 0.00, 0.00,909.00,1929.00,225.00,163,0,1
20150827080859667,-124.321640,48.263670,93.95, 7.30, 0.50,242.40,21,21,251.80, 6.80, 5.60, 0.02,-0.07, 0.02, 0.03, 0.00, 0.00, 0.00, 0.00, 0.00, 0.00,904.00,1924.00,233.00,174,0,1
20150827080859863,-124.321690,48.263650,94.42, 7.40, 1.00,242.70,21,21,252.60, 6.70, 5.90, 0.04,-0.07, 0.03, 0.03, 0.00, 0.00, 0.00, 0.00, 0.00, 0.00,897.00,1920.00,239.00,186,0,1
20150827080900063,-124.321735,48.263635,94.87, 7.30, 1.60,243.00,21,21,253.30, 6.70, 6.10, 0.06,-0.08, 0.02, 0.03, 0.00, 0.00, 0.00, 0.00, 0.00, 0.00,888.00,1917.00,237.00,197,0,1
20150827080900263,-124.321790,48.263620,95.34, 7.10, 2.30,243.60,21,21,254.10, 6.60, 6.30, 0.09,-0.08, 0.02, 0.02, 0.00, 0.00, 0.00, 0.00, 0.00, 0.00,878.00,1917.00,230.00,209,0,1
20150827080900464,-124.321845,48.263605,95.77, 6.80, 2.90,244.20,21,21,254.80, 6.50, 6.30, 0.12,-0.08, 0.01, 0.02, 0.00, 0.00, 0.00, 0.00, 0.00, 0.00,865.00,1918.00,221.00,220,0,1
20150827080900663,-124.321895,48.263590,96.18, 6.50, 3.50,245.00,21,21,255.60, 6.40, 6.30, 0.14,-0.08, 0.01, 0.02, 0.00, 0.00, 0.00, 0.00, 0.00, 0.00,850.00,1921.00,211.00,231,0,1
20150827080900863,-124.321950,48.263575,96.58, 6.20, 4.10,245.80,21,21,256.40, 6.30, 6.30, 0.17,-0.07, 0.00, 0.01, 0.00, 0.00, 0.00, 0.00, 0.00, 0.00,832.00,1925.00,199.00,243,0,1
20150827080901063,-124.322005,48.263560,96.97, 5.90, 4.60,246.60,21,21,257.20, 6.20, 6.30, 0.19,-0.07, 0.00, 0.01, 0.00, 0.00, 0.00, 0.00, 0.00, 0.00,811.00,1931.00,188.00,255,0,1
20150827080901263,-124.322050,48.263545,97.30, 5.70, 5.00,247.40,20,20,257.90, 6.10, 6.30, 0.21,-0.07, 0.00, 0.00, 0.00, 0.00, 0.00, 0.00, 0.00, 0.00,789.00,1937.00,179.00,10,0,1
20150827080901463,-124.322105,48.263530,97.61, 5.50, 5.40,248.20,20,20,258.70, 6.00, 6.30, 0.22,-0.06, 0.00, 0.00, 0.00, 0.00, 0.00, 0.00, 0.00, 0.00,767.00,1943.00,172.00,21,0,1
20150827080901663,-124.322110,48.263530,97.68, 5.50, 5.50,248.40,20,20,258.80, 6.10, 6.20, 0.23,-0.06, 0.00, 0.00, 0.00, 0.00, 0.00, 0.00, 0.00, 0.00,762.00,1944.00,170.00,23,0,1
20150827080901862,-124.322165,48.263515,98.02, 5.50, 6.10,249.40,20,20,259.60, 6.00, 6.10, 0.25,-0.06, 0.00, 0.00, 0.00, 0.00, 0.00, 0.00, 0.00, 0.00,734.00,1952.00,167.00,33,0,1
20150827080902062,-124.322215,48.263500,98.34, 5.50, 6.50,250.40,20,20,260.40, 5.90, 6.00, 0.25,-0.06,-0.01,-0.01, 0.00, 0.00, 0.00, 0.00, 0.00, 0.00,704.00,1958.00,167.00,44,0,1
20150827080902262,-124.322270,48.263490,98.67, 5.50, 6.90,251.50,20,20,261.20, 5.70, 5.80, 0.24,-0.06,-0.01,-0.01, 0.00, 0.00, 0.00, 0.00, 0.00, 0.00,671.00,1965.00,167.00,55,0,1
20150827080902462,-124.322325,48.263480,98.99, 5.50, 7.10,252.40,20,20,262.00, 5.60, 5.70, 0.24,-0.06,-0.01,-0.01, 0.00, 0.00, 0.00, 0.00, 0.00, 0.00,638.00,1972.00,167.00,66,0,1
20150827080902662,-124.322385,48.263465,99.32, 5.50, 7.30,253.30,20,20,262.90, 5.40, 5.70, 0.24,-0.06,-0.01,-0.02, 0.00, 0.00, 0.00, 0.00, 0.00, 0.00,603.00,1978.00,166.00,78,0,1
20150827080902862,-124.322440,48.263455,99.64, 5.50, 7.40,254.10,20,20,263.70, 5.20, 5.70, 0.24,-0.06,-0.01,-0.02, 0.00, 0.00, 0.00, 0.00, 0.00, 0.00,570.00,1984.00,165.00,89,0,1
20150827080903062,-124.322490,48.263450,99.95, 5.40, 7.60,255.00,20,20,264.40, 5.10, 5.60, 0.23,-0.06,-0.01,-0.02, 0.00, 0.00, 0.00, 0.00, 0.00, 0.00,537.00,1990.00,162.00,100,0,1
20150827080903262,-124.322545,48.263435,100.25, 5.20, 7.70,256.00,20,20,265.30, 4.90, 5.50, 0.23,-0.07,-0.02,-0.03, 0.00, 0.00, 0.00, 0.00, 0.00, 0.00,505.00,1997.00,156.00,111,0,1
20150827080903462,-124.322600,48.263430,100.54, 4.90, 7.60,257.00,20,20,266.00, 4.70, 5.40, 0.22,-0.07,-0.02,-0.03, 0.00, 0.00, 0.00, 0.00, 0.00, 0.00,473.00,2003.00,147.00,122,0,1
20150827080903662,-124.322650,48.263420,100.81, 4.60, 7.30,258.00,20,20,266.80, 4.50, 5.20, 0.22,-0.07,-0.03,-0.04, 0.00, 0.00, 0.00, 0.00, 0.00, 0.00,440.00,2010.00,136.00,133,0,1
20150827080903863,-124.322705,48.263415,101.07, 4.30, 7.00,258.90,20,20,267.60, 4.40, 5.20, 0.22,-0.07,-0.03,-0.04, 0.00, 0.00, 0.00, 0.00, 0.00, 0.00,408.00,2017.00,125.00,144,0,1
20150827080904062,-124.322760,48.263405,101.29, 4.00, 6.70,259.80,20,20,268.40, 4.20, 5.10, 0.21,-0.06,-0.03,-0.05, 0.00, 0.00, 0.00, 0.00, 0.00, 0.00,379.00,2025.00,114.00,155,0,1
20150827080904262,-124.322810,48.263400,101.49, 3.80, 6.40,260.60,20,20,269.20, 4.10, 5.10, 0.21,-0.06,-0.03,-0.06, 0.00, 0.00, 0.00, 0.00, 0.00, 0.00,350.00,2032.00,104.00,166,0,1
20150827080904462,-124.322875,48.263395,101.68, 3.60, 6.10,261.50,20,20,270.10, 3.90, 5.10, 0.21,-0.06,-0.03,-0.06, 0.00, 0.00, 0.00, 0.00, 0.00, 0.00,322.00,2038.00,97.00,177,0,1
20150827080904662,-124.322925,48.263385,101.86, 3.50, 5.80,262.30,20,20,270.90, 3.70, 5.10, 0.21,-0.05,-0.03,-0.07, 0.00, 0.00, 0.00, 0.00, 0.00, 0.00,294.00,2044.00,92.00,188,0,1
20150827080904862,-124.322980,48.263385,102.04, 3.50, 5.50,263.20,20,20,271.70, 3.50, 5.10, 0.21,-0.06,-0.03,-0.08, 0.00, 0.00, 0.00, 0.00, 0.00, 0.00,267.00,2050.00,89.00,199,0,1
20150827080905062,-124.323035,48.263380,102.20, 3.40, 5.20,263.90,20,20,272.50, 3.30, 5.10, 0.21,-0.06,-0.02,-0.08, 0.00, 0.00, 0.00, 0.00, 0.00, 0.00,241.00,2054.00,86.00,210,0,1
20150827080905262,-124.323095,48.263375,102.36, 3.30, 5.00,264.70,20,20,273.50, 3.20, 5.20, 0.21,-0.06,-0.02,-0.09, 0.00, 0.00, 0.00, 0.00, 0.00, 0.00,215.00,2058.00,83.00,221,0,1
20150827080905462,-124.323150,48.263370,102.52, 3.10, 4.90,265.40,20,20,274.30, 2.90, 5.30, 0.20,-0.06,-0.02,-0.09, 0.00, 0.00, 0.00, 0.00, 0.00, 0.00,190.00,2062.00,79.00,232,0,1
20150827080905662,-124.323200,48.263370,102.65, 2.90, 4.70,266.00,20,20,275.10, 2.80, 5.40, 0.20,-0.07,-0.02,-0.10, 0.00, 0.00, 0.00, 0.00, 0.00, 0.00,167.00,2066.00,72.00,243,0,1
20150827080905861,-124.323255,48.263365,102.78, 2.60, 4.60,266.60,20,20,276.00, 2.60, 5.60, 0.19,-0.06,-0.01,-0.11, 0.00, 0.00, 0.00, 0.00, 0.00, 0.00,145.00,2071.00,63.00,254,0,1
20150827080906061,-124.323315,48.263365,102.89, 2.30, 4.50,267.20,20,20,276.90, 2.50, 5.80, 0.19,-0.07, 0.00,-0.12, 0.00, 0.00, 0.00, 0.00, 0.00, 0.00,122.00,2076.00,53.00,10,0,1
20150827080906261,-124.323370,48.263360,102.98, 2.10, 4.70,267.70,20,20,277.70, 2.30, 6.00, 0.19,-0.06, 0.00,-0.12, 0.00, 0.00, 0.00, 0.00, 0.00, 0.00,101.00,2081.00,44.00,21,0,1
20150827080906461,-124.323430,48.263360,103.05, 1.80, 4.90,268.40,20,20,278.70, 2.10, 6.10, 0.20,-0.06, 0.00,-0.13, 0.00, 0.00, 0.00, 0.00, 0.00, 0.00,78.00,2087.00,35.00,33,0,1
20150827080906661,-124.323485,48.263355,103.10, 1.70, 5.30,269.20,20,20,279.60, 1.90, 6.20, 0.22,-0.06, 0.00,-0.14, 0.00, 0.00, 0.00, 0.00, 0.00, 0.00,55.00,2092.00,29.00,45,0,1
20150827080906861,-124.323535,48.263355,103.15, 1.60, 5.60,270.10,20,20,280.40, 1.80, 6.10, 0.23,-0.05, 0.00,-0.15, 0.00, 0.00, 0.00, 0.00, 0.00, 0.00,32.00,2096.00,26.00,55,0,1
20150827080907062,-124.323600,48.263355,103.19, 1.50, 5.90,271.20,20,20,281.40, 1.70, 6.10, 0.24,-0.05,-0.01,-0.15, 0.00, 0.00, 0.00, 0.00, 0.00, 0.00, 2.00,2099.00,23.00,67,0,1
20150827080907261,-124.323660,48.263355,103.23, 1.40, 6.20,272.20,21,21,282.40, 1.50, 6.10, 0.25,-0.05,-0.01,-0.16, 0.00, 0.00, 0.00, 0.00, 0.00, 0.00,27.00,2101.00,21.00,79,0,1
20150827080907461,-124.323715,48.263360,103.26, 1.40, 6.40,273.20,21,21,283.20, 1.40, 6.00, 0.25,-0.05,-0.01,-0.17, 0.00, 0.00, 0.00, 0.00, 0.00, 0.00,58.00,2102.00,21.00,91,0,1
20150827080907662,-124.323765,48.263360,103.30, 1.30, 6.70,274.10,21,21,284.10, 1.20, 6.00, 0.25,-0.05,-0.01,-0.17, 0.00, 0.00, 0.00, 0.00, 0.00, 0.00,91.00,2102.00,19.00,103,0,1
20150827080907862,-124.323825,48.263360,103.32, 1.20, 6.80,274.90,21,21,285.10, 1.10, 6.10, 0.25,-0.06,-0.02,-0.18, 0.00, 0.00, 0.00, 0.00, 0.00, 0.00,121.00,2101.00,17.00,114,0,1
20150827080908061,-124.323880,48.263365,103.35, 1.00, 6.80,275.80,21,21,286.00, 0.90, 6.10, 0.25,-0.06,-0.02,-0.19, 0.00, 0.00, 0.00, 0.00, 0.00, 0.00,154.00,2101.00,12.00,126,0,1
20150827080908262,-124.323940,48.263370,103.36, 0.80, 6.70,276.80,21,21,287.00, 0.80, 6.10, 0.25,-0.06,-0.02,-0.19, 0.00, 0.00, 0.00, 0.00, 0.00, 0.00,185.00,2100.00, 5.00,138,0,1
20150827080908461,-124.323995,48.263370,103.35, 0.60, 6.60,277.70,21,21,287.90, 0.70, 6.10, 0.25,-0.06,-0.03,-0.20, 0.00, 0.00, 0.00, 0.00, 0.00, 0.00,216.00,2099.00, 2.00,149,0,1
20150827080908661,-124.324055,48.263375,103.33, 0.30, 6.50,278.70,21,21,289.00, 0.50, 6.10, 0.25,-0.06,-0.03,-0.21, 0.00, 0.00, 0.00, 0.00, 0.00, 0.00,248.00,2098.00,11.00,161,0,1
20150827080908861,-124.324110,48.263380,103.30, 0.10, 6.30,279.60,21,21,289.90, 0.40, 6.10, 0.26,-0.05,-0.03,-0.22, 0.00, 0.00, 0.00, 0.00, 0.00, 0.00,278.00,2097.00,18.00,172,0,1
20150827080909061,-124.324165,48.263385,103.24, 0.00, 6.20,280.50,21,21,290.80, 0.30, 6.10, 0.26,-0.05,-0.03,-0.22, 0.00, 0.00, 0.00, 0.00, 0.00, 0.00,309.00,2095.00,24.00,184,0,1
20150827080909261,-124.324225,48.263390,103.19, 0.00, 6.10,281.30,21,21,291.90, 0.30, 6.30, 0.25,-0.05,-0.02,-0.23, 0.00, 0.00, 0.00, 0.00, 0.00, 0.00,340.00,2093.00,27.00,196,0,1
20150827080909461,-124.324275,48.263400,103.12, 0.00, 6.00,282.20,21,21,292.80, 0.10, 6.30, 0.25,-0.05,-0.02,-0.24, 0.00, 0.00, 0.00, 0.00, 0.00, 0.00,370.00,2090.00,28.00,208,0,1
20150827080909661,-124.324340,48.263405,103.06, 0.00, 6.10,283.00,21,21,293.90, 0.10, 6.50, 0.25,-0.05,-0.01,-0.25, 0.00, 0.00, 0.00, 0.00, 0.00, 0.00,400.00,2086.00,28.00,220,0,1
20150827080909860,-124.324390,48.263415,103.01, 0.00, 6.20,283.80,21,21,294.90, 0.00, 6.60, 0.26,-0.05,-0.01,-0.25, 0.00, 0.00, 0.00, 0.00, 0.00, 0.00,428.00,2082.00,27.00,231,0,1
20150827080910061,-124.324445,48.263420,102.94, 0.10, 6.50,284.70,21,21,295.80, 0.00, 6.60, 0.27,-0.05,-0.01,-0.26, 0.00, 0.00, 0.00, 0.00, 0.00, 0.00,459.00,2076.00,26.00,243,0,1
20150827080910261,-124.324505,48.263430,102.89, 0.00, 6.70,285.80,21,21,296.90, 0.00, 6.60, 0.27,-0.05,-0.02,-0.27, 0.00, 0.00, 0.00, 0.00, 0.00, 0.00,490.00,2069.00,25.00,255,0,1
20150827080910461,-124.324560,48.263440,102.83, 0.00, 6.80,286.80,21,21,297.90,-0.20, 6.60, 0.28,-0.05,-0.01,-0.27, 0.00, 0.00, 0.00, 0.00, 0.00, 0.00,522.00,2061.00,26.00,11,0,1
20150827080910661,-124.324615,48.263450,102.77,-0.10, 7.00,287.80,21,21,298.90,-0.20, 6.60, 0.28,-0.06,-0.02,-0.28, 0.00, 0.00, 0.00, 0.00, 0.00, 0.00,554.00,2052.00,29.00,23,0,1
20150827080910860,-124.324675,48.263460,102.70,-0.30, 7.00,288.80,21,21,300.10,-0.30, 6.70, 0.28,-0.06,-0.02,-0.28, 0.00, 0.00, 0.00, 0.00, 0.00, 0.00,587.00,2043.00,35.00,35,0,1
20150827080911060,-124.324725,48.263470,102.62,-0.50, 7.00,289.70,21,21,301.10,-0.40, 6.80, 0.28,-0.05,-0.02,-0.29, 0.00, 0.00, 0.00, 0.00, 0.00, 0.00,619.00,2034.00,42.00,47,0,1
20150827080911261,-124.324780,48.263480,102.53,-0.70, 6.90,290.70,21,21,302.10,-0.40, 6.80, 0.28,-0.05,-0.03,-0.30, 0.00, 0.00, 0.00, 0.00, 0.00, 0.00,650.00,2024.00,50.00,59,0,1
20150827080911461,-124.324835,48.263495,102.42,-0.80, 6.90,291.60,21,21,303.20,-0.40, 6.90, 0.29,-0.05,-0.02,-0.30, 0.00, 0.00, 0.00, 0.00, 0.00, 0.00,681.00,2015.00,55.00,71,0,1
20150827080911660,-124.324890,48.263505,102.30,-0.90, 6.90,292.60,21,21,304.20,-0.50, 6.90, 0.29,-0.04,-0.03,-0.31, 0.00, 0.00, 0.00, 0.00, 0.00, 0.00,713.00,2004.00,59.00,83,0,1
20150827080911861,-124.324940,48.263520,102.18,-0.80, 6.90,293.70,21,21,305.30,-0.40, 6.90, 0.29,-0.04,-0.02,-0.32, 0.00, 0.00, 0.00, 0.00, 0.00, 0.00,745.00,1993.00,60.00,95,0,1
20150827080912060,-124.324995,48.263530,102.06,-0.70, 7.00,294.60,21,21,306.30,-0.40, 7.00, 0.29,-0.04,-0.02,-0.32, 0.00, 0.00, 0.00, 0.00, 0.00, 0.00,777.00,1981.00,57.00,107,0,1
20150827080912260,-124.325050,48.263545,101.95,-0.50, 7.00,295.60,21,21,307.40,-0.50, 7.00, 0.29,-0.04,-0.02,-0.33, 0.00, 0.00, 0.00, 0.00, 0.00, 0.00,809.00,1967.00,53.00,119,0,1
20150827080912461,-124.325100,48.263565,101.85,-0.40, 7.10,296.60,21,21,308.50,-0.50, 7.10, 0.30,-0.04,-0.02,-0.33, 0.00, 0.00, 0.00, 0.00, 0.00, 0.00,840.00,1952.00,48.00,131,0,1
20150827080912662,-124.325155,48.263580,101.75,-0.40, 7.20,297.70,21,21,309.60,-0.50, 7.10, 0.30,-0.04,-0.03,-0.34, 0.00, 0.00, 0.00, 0.00, 0.00, 0.00,871.00,1936.00,46.00,143,0,1
20150827080912861,-124.325210,48.263595,101.66,-0.40, 7.30,298.70,21,21,310.80,-0.50, 7.20, 0.30,-0.04,-0.02,-0.34, 0.00, 0.00, 0.00, 0.00, 0.00, 0.00,902.00,1919.00,45.00,155,0,1
20150827080913061,-124.325260,48.263610,101.57,-0.30, 7.30,299.80,21,21,311.90,-0.50, 7.20, 0.30,-0.04,-0.02,-0.35, 0.00, 0.00, 0.00, 0.00, 0.00, 0.00,933.00,1901.00,44.00,167,0,1
20150827080913261,-124.325305,48.263625,101.49,-0.30, 7.30,300.80,21,21,312.90,-0.50, 7.20, 0.30,-0.05,-0.03,-0.35, 0.00, 0.00, 0.00, 0.00, 0.00, 0.00,963.00,1883.00,43.00,179,0,1
20150827080913461,-124.325360,48.263645,101.40,-0.40, 7.30,301.80,21,21,314.10,-0.60, 7.30, 0.30,-0.05,-0.02,-0.36, 0.00, 0.00, 0.00, 0.00, 0.00, 0.00,993.00,1863.00,44.00,191,0,1
20150827080913661,-124.325405,48.263665,101.31,-0.50, 7.40,302.90,21,21,315.10,-0.60, 7.30, 0.30,-0.05,-0.03,-0.36, 0.00, 0.00, 0.00, 0.00, 0.00, 0.00,1023.00,1844.00,47.00,203,0,1
20150827080913865,-124.325450,48.263680,101.22,-0.60, 7.40,303.80,21,21,316.20,-0.50, 7.40, 0.31,-0.04,-0.02,-0.37, 0.00, 0.00, 0.00, 0.00, 0.00, 0.00,1049.00,1826.00,51.00,214,0,1
20150827080914065,-124.325505,48.263700,101.11,-0.70, 7.50,304.80,20,20,317.40,-0.50, 7.50, 0.31,-0.04,-0.02,-0.37, 0.00, 0.00, 0.00, 0.00, 0.00, 0.00,1078.00,1806.00,55.00,226,0,1
20150827080914260,-124.325550,48.263720,101.00,-0.80, 7.50,305.90,20,20,318.40,-0.50, 7.50, 0.31,-0.04,-0.02,-0.37, 0.00, 0.00, 0.00, 0.00, 0.00, 0.00,1108.00,1785.00,58.00,238,0,1
20150827080914461,-124.325595,48.263740,100.88,-0.80, 7.60,307.00,20,20,319.60,-0.40, 7.50, 0.31,-0.03,-0.03,-0.38, 0.00, 0.00, 0.00, 0.00, 0.00, 0.00,1137.00,1764.00,61.00,250,0,1
20150827080914665,-124.325650,48.263760,100.76,-0.70, 7.70,308.10,20,20,320.80,-0.40, 7.60, 0.32,-0.03,-0.03,-0.38, 0.00, 0.00, 0.00, 0.00, 0.00, 0.00,1166.00,1742.00,61.00,6,0,1
20150827080914861,-124.325695,48.263785,100.65,-0.60, 7.70,309.20,20,20,322.00,-0.40, 7.60, 0.32,-0.03,-0.03,-0.39, 0.00, 0.00, 0.00, 0.00, 0.00, 0.00,1195.00,1718.00,58.00,18,0,1
20150827080915062,-124.325740,48.263805,100.54,-0.50, 7.80,310.30,20,20,323.10,-0.30, 7.60, 0.32,-0.03,-0.03,-0.39, 0.00, 0.00, 0.00, 0.00, 0.00, 0.00,1224.00,1693.00,54.00,29,0,1
20150827080915260,-124.325790,48.263825,100.44,-0.30, 7.80,311.40,20,20,324.30,-0.30, 7.70, 0.32,-0.03,-0.03,-0.40, 0.00, 0.00, 0.00, 0.00, 0.00, 0.00,1252.00,1667.00,49.00,41,0,1
20150827080915460,-124.325835,48.263850,100.35,-0.10, 7.80,312.50,20,20,325.40,-0.30, 7.70, 0.32,-0.03,-0.03,-0.40, 0.00, 0.00, 0.00, 0.00, 0.00, 0.00,1279.00,1641.00,43.00,53,0,1
20150827080915660,-124.325870,48.263875,100.27, 0.00, 7.80,313.60,20,20,326.50,-0.30, 7.70, 0.32,-0.03,-0.03,-0.40, 0.00, 0.00, 0.00, 0.00, 0.00, 0.00,1305.00,1613.00,38.00,65,0,1
20150827080915861,-124.325920,48.263900,100.21, 0.10, 7.80,314.70,20,20,327.70,-0.30, 7.80, 0.32,-0.03,-0.03,-0.40, 0.00, 0.00, 0.00, 0.00, 0.00, 0.00,1330.00,1585.00,34.00,77,0,1
20150827080916060,-124.325965,48.263920,100.15, 0.20, 7.80,315.80,20,20,328.90,-0.30, 7.80, 0.33,-0.04,-0.03,-0.41, 0.00, 0.00, 0.00, 0.00, 0.00, 0.00,1354.00,1556.00,29.00,88,0,1
20150827080916260,-124.326000,48.263950,100.10, 0.10, 7.80,316.90,20,20,330.10,-0.30, 7.90, 0.32,-0.04,-0.02,-0.41, 0.00, 0.00, 0.00, 0.00, 0.00, 0.00,1378.00,1527.00,29.00,100,0,1
20150827080916464,-124.326040,48.263970,100.04, 0.00, 7.90,318.00,20,20,331.20,-0.30, 7.90, 0.33,-0.04,-0.03,-0.41, 0.00, 0.00, 0.00, 0.00, 0.00, 0.00,1399.00,1499.00,33.00,111,0,1
20150827080916660,-124.326080,48.263995,99.97,-0.20, 7.90,319.10,20,20,332.30,-0.30, 7.90, 0.33,-0.04,-0.03,-0.41, 0.00, 0.00, 0.00, 0.00, 0.00, 0.00,1423.00,1470.00,41.00,122,0,1
20150827080916860,-124.326125,48.264025,99.89,-0.50, 8.00,320.20,20,20,333.60,-0.30, 8.00, 0.33,-0.04,-0.03,-0.42, 0.00, 0.00, 0.00, 0.00, 0.00, 0.00,1446.00,1441.00,50.00,134,0,1
20150827080917060,-124.326160,48.264050,99.78,-0.70, 8.10,321.30,20,20,334.80,-0.30, 8.10, 0.34,-0.04,-0.03,-0.42, 0.00, 0.00, 0.00, 0.00, 0.00, 0.00,1469.00,1412.00,59.00,146,0,1
20150827080917260,-124.326200,48.264080,99.66,-0.90, 8.10,322.40,20,20,336.00,-0.30, 8.10, 0.34,-0.03,-0.03,-0.42, 0.00, 0.00,10.00, 0.00, 0.00,10.00,1492.00,1383.00,68.00,158,0,1
20150827080917460,-124.326240,48.264105,99.53,-1.00, 8.10,323.60,20,20,337.20, 0.10, 8.10, 0.34,-0.01,-0.03,-0.43, 0.00, 0.00,10.00, 0.00, 0.00,10.00,1516.00,1353.00,73.00,170,0,1
20150827080917660,-124.326270,48.264130,99.39,-0.70, 8.10,324.80,20,20,338.30, 0.30, 8.00, 0.34,-0.01,-0.03,-0.43, 0.00, 0.00,10.00, 0.00, 0.00,10.00,1539.00,1322.00,70.00,182,0,1
20150827080917860,-124.326305,48.264160,99.27,-0.40, 8.10,326.00,20,20,339.50, 0.40, 8.10, 0.34,-0.01,-0.03,-0.43, 0.00, 0.00, 0.00, 0.00, 0.00, 0.00,1562.00,1289.00,62.00,194,0,1
20150827080918064,-124.326335,48.264185,99.17,-0.10, 8.00,327.10,20,20,340.60, 0.40, 8.10, 0.33,-0.01,-0.03,-0.44, 0.00, 0.00, 0.00, 0.00, 0.00, 0.00,1581.00,1257.00,52.00,204,0,1
