timestamp,lon,lat,alt,pitch,roll,yaw,dyaw,airspeed,groundspeed, yawcmd,pitchcmd,rollcmd,tyaw,tpitch,troll,throttle,rvx,rvy,rvz,accx,accy,accz,speN,speE,speD,gpsSta,nStNum,insSta
20150827090215876,0.000000,0.000000, 0.00, 0.00, 0.00, 0.00,0,0, 0.00, 0.00, 0.00, 0.00, 0.00, 0.00,-1.00, 0.00, 0.00, 0.00, 0.00, 0.00, 0.00, 0.00, 0.00, 0.00,0,0,0
20150827090215975,0.000000,0.000000, 0.00, 0.00, 0.00, 0.00,0,0, 0.00, 0.00, 0.00, 0.00, 0.00, 0.00,-1.00, 0.00, 0.00, 0.00, 0.00, 0.00, 0.00, 0.00, 0.00, 0.00,0,0,0
20150827090216175,0.000000,0.000000, 0.00, 0.00, 0.00, 0.00,0,0, 0.00, 0.00, 0.00, 0.00, 0.00, 0.00,-1.00, 0.00, 0.00, 0.00, 0.00, 0.00, 0.00, 0.00, 0.00, 0.00,0,0,0
20150827090216375,0.000000,0.000000, 0.00, 0.00, 0.00, 0.00,0,0, 0.00, 0.00, 0.00, 0.00, 0.00, 0.00,-1.00, 0.00, 0.00, 0.00, 0.00, 0.00, 0.00, 0.00, 0.00, 0.00,0,0,0
20150827090216575,0.000000,0.000000, 0.00, 0.00, 0.00, 0.00,0,0, 0.00, 0.00, 0.00, 0.00, 0.00, 0.00,-1.00, 0.00, 0.00, 0.00, 0.00, 0.00, 0.00, 0.00, 0.00, 0.00,0,0,0
20150827090216775,0.000000,0.000000, 0.00, 0.00, 0.00, 0.00,0,0, 0.00, 0.00, 0.00, 0.00, 0.00, 0.00,-1.00, 0.00, 0.00, 0.00, 0.00, 0.00, 0.00, 0.00, 0.00, 0.00,0,0,0
20150827090216975,0.000000,0.000000, 0.00, 0.00, 0.00, 0.00,0,0, 0.00, 0.00, 0.00, 0.00, 0.00, 0.00,-1.00, 0.00, 0.00, 0.00, 0.00, 0.00, 0.00, 0.00, 0.00, 0.00,0,0,0
20150827090217175,0.000000,0.000000, 0.00, 0.00, 0.00, 0.00,0,0, 0.00, 0.00, 0.00, 0.00, 0.00, 0.00,-1.00, 0.00, 0.00, 0.00, 0.00, 0.00, 0.00, 0.00, 0.00, 0.00,0,0,0
20150827090217375,0.000000,0.000000, 0.00, 0.00, 0.00, 0.00,0,0, 0.00, 0.00, 0.00, 0.00, 0.00, 0.00, 0.00, 0.00, 0.00, 0.00, 0.00, 0.00, 0.00, 0.00, 0.00, 0.00,0,0,0
20150827090217575,0.000000,0.000000, 0.00, 0.00, 0.00, 0.00,0,0, 0.00, 0.00, 0.00, 0.00, 0.00, 0.00, 0.00, 0.00, 0.00, 0.00, 0.00, 0.00, 0.00, 0.00, 0.00, 0.00,0,0,0
20150827090217775,0.000000,0.000000, 0.00, 0.00, 0.00, 0.00,0,0, 0.00, 0.00, 0.00, 0.00, 0.00, 0.00, 0.00, 0.00, 0.00, 0.00, 0.00, 0.00, 0.00, 0.00, 0.00, 0.00,0,0,0
20150827090217975,0.000000,0.000000, 0.00, 0.00, 0.00, 0.00,0,0, 0.00, 0.00, 0.00, 0.00, 0.00, 0.00, 0.00, 0.00, 0.00, 0.00, 0.00, 0.00, 0.00, 0.00, 0.00, 0.00,0,0,0
20150827090218174,0.000000,0.000000, 0.00, 0.00, 0.00, 0.00,0,0, 0.00, 0.00, 0.00, 0.00, 0.00, 0.00, 0.00, 0.00, 0.00, 0.00, 0.00, 0.00, 0.00, 0.00, 0.00, 0.00,0,0,0
20150827090218374,0.000000,0.000000, 0.00, 0.00, 0.00, 0.00,0,0, 0.00, 0.00, 0.00, 0.00, 0.00, 0.00, 0.00, 0.00, 0.00, 0.00, 0.00, 0.00, 0.00, 0.00, 0.00, 0.00,0,0,0
20150827090218574,0.000000,0.000000, 0.00, 0.00, 0.00, 0.00,0,0, 0.00, 0.00, 0.00, 0.00, 0.00, 0.00, 0.00, 0.00, 0.00, 0.00, 0.00, 0.00, 0.00, 0.00, 0.00, 0.00,0,0,0
20150827090218774,0.000000,0.000000, 0.00, 0.00, 0.00, 0.00,0,0, 0.00, 0.00, 0.00, 0.00, 0.00, 0.00, 0.00, 0.00, 0.00, 0.00, 0.00, 0.00, 0.00, 0.00, 0.00, 0.00,0,0,0
20150827090218975,0.000000,0.000000, 0.00, 0.00, 0.00, 0.00,0,0, 0.00, 0.00, 0.00, 0.00, 0.00, 0.00, 0.00, 0.00, 0.00, 0.00, 0.00, 0.00, 0.00, 0.00, 0.00, 0.00,0,0,0
20150827090219174,0.000000,0.000000, 0.00, 0.00, 0.00, 0.00,0,0, 0.00, 0.00, 0.00, 0.00, 0.00, 0.00, 0.00, 0.00, 0.00, 0.00, 0.00, 0.00, 0.00, 0.00, 0.00, 0.00,0,0,0
20150827090219375,0.000000,0.000000, 0.00, 0.00, 0.00, 0.00,0,0, 0.00, 0.00, 0.00, 0.00, 0.00, 0.00, 0.00, 0.00, 0.00, 0.00, 0.00, 0.00, 0.00, 0.00, 0.00, 0.00,0,0,0
20150827090219574,0.000000,0.000000, 0.00, 0.00, 0.00, 0.00,0,0, 0.00, 0.00, 0.00, 0.00, 0.00, 0.00, 0.00, 0.00, 0.00, 0.00, 0.00, 0.00, 0.00, 0.00, 0.00, 0.00,0,0,0
20150827090219775,0.000000,0.000000, 0.00, 0.00, 0.00, 0.00,0,0, 0.00, 0.00, 0.00, 0.00, 0.00, 0.00, 0.00, 0.00, 0.00, 0.00, 0.00, 0.00, 0.00, 0.00, 0.00, 0.00,0,0,0
20150827090219974,0.000000,0.000000, 0.00, 0.00, 0.00, 0.00,0,0, 0.00, 0.00, 0.00, 0.00, 0.00, 0.00, 0.00, 0.00, 0.00, 0.00, 0.00, 0.00, 0.00, 0.00, 0.00, 0.00,0,0,0
20150827090220175,0.000000,0.000000, 0.00, 0.00, 0.00, 0.00,0,0, 0.00, 0.00, 0.00, 0.00, 0.00, 0.00, 0.00, 0.00, 0.00, 0.00, 0.00, 0.00, 0.00, 0.00, 0.00, 0.00,0,0,0
20150827090220375,0.000000,0.000000, 0.00, 0.00, 0.00, 0.00,0,0, 0.00, 0.00, 0.00, 0.00, 0.00, 0.00, 0.00, 0.00, 0.00, 0.00, 0.00, 0.00, 0.00, 0.00, 0.00, 0.00,0,0,0
20150827090220574,0.000000,0.000000, 0.00, 0.00, 0.00, 0.00,0,0, 0.00,10.00, 0.00, 0.00, 0.00, 0.00, 0.00, 0.00, 0.00, 0.00, 0.00, 0.00, 0.00, 0.00, 0.00, 0.00,0,0,0
20150827090220774,0.000000,0.000000, 0.00, 0.00, 0.00, 0.00,0,0, 0.00,10.00, 0.00, 0.00, 0.06, 0.00, 0.00, 0.00, 0.00, 0.00, 0.00, 0.00, 0.00, 0.00, 0.00, 0.00,0,0,0
20150827090220974,0.000000,0.000000, 0.00, 0.00, 0.00, 0.00,0,0, 0.00,10.00, 0.00, 0.00, 0.18, 0.00, 0.00, 0.00, 0.00, 0.00, 0.00, 0.00, 0.00, 0.00, 0.00, 0.00,0,0,0
20150827090221174,0.000000,0.000000, 0.00, 0.00, 0.00, 0.00,0,0, 0.00,10.00, 0.00, 0.00, 0.25, 0.00, 0.00, 0.00, 0.00, 0.00, 0.00, 0.00, 0.00, 0.00, 0.00, 0.00,0,0,0
20150827090221374,0.000000,0.000000, 0.00, 0.00, 0.00, 0.00,0,0, 0.00,10.00, 0.00, 0.00, 0.27, 0.00, 0.00, 0.00, 0.00, 0.00, 0.00, 0.00, 0.00, 0.00, 0.00, 0.00,0,0,0
20150827090221574,0.000000,0.000000, 0.00, 0.00, 0.00, 0.00,0,0, 0.00,10.00, 0.00, 0.00, 0.28, 0.00, 0.00, 0.00, 0.00, 0.00, 0.00, 0.00, 0.00, 0.00, 0.00, 0.00,0,0,0
20150827090221773,0.000000,0.000000, 0.00, 0.00, 0.00, 0.00,0,0, 0.00,10.00, 0.00, 0.00, 0.29, 0.00, 0.00, 0.00, 0.00, 0.00, 0.00, 0.00, 0.00, 0.00, 0.00, 0.00,0,0,0
20150827090221973,0.000000,0.000000, 0.00, 0.00, 0.00, 0.00,0,0, 0.00,10.00, 0.00, 0.00, 0.30, 0.00, 0.00, 0.00, 0.00, 0.00, 0.00, 0.00, 0.00, 0.00, 0.00, 0.00,0,0,0
20150827090222174,0.000000,0.000000, 0.00, 0.00, 0.00, 0.00,0,0, 0.00,10.00, 0.00, 0.00, 0.31, 0.00, 0.00, 0.00, 0.00, 0.00, 0.00, 0.00, 0.00, 0.00, 0.00, 0.00,0,0,0
20150827090222373,0.000000,0.000000, 0.00, 0.00, 0.00, 0.00,0,0, 0.00,10.00, 0.00, 0.00, 0.32, 0.00, 0.00, 0.00, 0.00, 0.00, 0.00, 0.00, 0.00, 0.00, 0.00, 0.00,0,0,0
20150827090222574,0.000000,0.000000, 0.00, 0.00, 0.00, 0.00,0,0, 0.00,10.00, 0.00, 0.00, 0.33, 0.00, 0.00, 0.00, 0.00, 0.00, 0.00, 0.00, 0.00, 0.00, 0.00, 0.00,0,0,0
20150827090222773,0.000000,0.000000, 0.00, 0.00, 0.00, 0.00,0,0, 0.00,10.00, 0.00, 0.00, 0.34, 0.00, 0.00, 0.00, 0.00, 0.00, 0.00, 0.00, 0.00, 0.00, 0.00, 0.00,0,0,0
20150827090222973,0.000000,0.000000, 0.00, 0.00, 0.00, 0.00,0,0, 0.00,10.00, 0.00, 0.00, 0.35, 0.00, 0.00, 0.00, 0.00, 0.00, 0.00, 0.00, 0.00, 0.00, 0.00, 0.00,0,0,0
20150827090223173,0.000000,0.000000, 0.00, 0.00, 0.00, 0.00,0,0, 0.00,10.00, 0.00, 0.00, 0.37, 0.00, 0.00, 0.00, 0.00, 0.00, 0.00, 0.00, 0.00, 0.00, 0.00, 0.00,0,0,0
20150827090223373,0.000000,0.000000, 0.00, 0.00, 0.00, 0.00,0,0, 0.00,10.00, 0.00, 0.00, 0.38, 0.00, 0.00, 0.00, 0.00, 0.00, 0.00, 0.00, 0.00, 0.00, 0.00, 0.00,0,0,0
20150827090223573,0.000000,0.000000, 0.00, 0.00, 0.00, 0.00,0,0, 0.00,10.00, 0.00, 0.00, 0.39, 0.00, 0.00, 0.00, 0.00, 0.00, 0.00, 0.00, 0.00, 0.00, 0.00, 0.00,0,0,0
20150827090223774,0.000000,0.000000, 0.00, 0.00, 0.00, 0.00,0,0, 0.00,10.00, 0.00, 0.00, 0.40, 0.00, 0.00, 0.00, 0.00, 0.00, 0.00, 0.00, 0.00, 0.00, 0.00, 0.00,0,0,0
20150827090223973,0.000000,0.000000, 0.00, 0.00, 0.00, 0.00,0,0, 0.00,10.00, 0.00, 0.00, 0.42, 0.00, 0.00, 0.00, 0.00, 0.00, 0.00, 0.00, 0.00, 0.00, 0.00, 0.00,0,0,0
20150827090224173,0.000000,0.000000, 0.00, 0.00, 0.00, 0.00,0,0, 0.00,10.00, 0.00, 0.00, 0.43, 0.00, 0.00, 0.00, 0.00, 0.00, 0.00, 0.00, 0.00, 0.00, 0.00, 0.00,0,0,0
20150827090224373,0.000000,0.000000, 0.00, 0.00, 0.00, 0.00,0,0, 0.00,10.00, 0.00, 0.00, 0.44, 0.00, 0.00, 0.00, 0.00, 0.00, 0.00, 0.00, 0.00, 0.00, 0.00, 0.00,0,0,0
20150827090224573,0.000000,0.000000, 0.00, 0.00, 0.00, 0.00,0,0, 0.00,10.00, 0.00, 0.00, 0.45, 0.00, 0.00, 0.00, 0.00, 0.00, 0.00, 0.00, 0.00, 0.00, 0.00, 0.00,0,0,0
20150827090224773,0.000000,0.000000, 0.00, 0.00, 0.00, 0.00,0,0, 0.00,10.00, 0.00, 0.00, 0.45, 0.00, 0.00, 0.00, 0.00, 0.00, 0.00, 0.00, 0.00, 0.00, 0.00, 0.00,0,0,0
20150827090224973,0.000000,0.000000, 0.00, 0.00, 0.00, 0.00,0,0, 0.00,10.00, 0.00, 0.00, 0.45, 0.00, 0.00, 0.00, 0.00, 0.00, 0.00, 0.00, 0.00, 0.00, 0.00, 0.00,0,0,0
20150827090225173,0.000000,0.000000, 0.00, 0.00, 0.00, 0.00,0,0, 0.00,10.00, 0.00, 0.00, 0.45, 0.00, 0.00, 0.00, 0.00, 0.00, 0.00, 0.00, 0.00, 0.00, 0.00, 0.00,0,0,0
20150827090225373,0.000000,0.000000, 0.00, 0.00, 0.00, 0.00,0,0, 0.00,10.00, 0.00, 0.00, 0.45, 0.00, 0.00, 0.00, 0.00, 0.00, 0.00, 0.00, 0.00, 0.00, 0.00, 0.00,0,0,0
20150827090225573,0.000000,0.000000, 0.00, 0.00, 0.00, 0.00,0,0, 0.00,10.00, 0.00, 0.00, 0.45, 0.00, 0.00, 0.00, 0.00, 0.00, 0.00, 0.00, 0.00, 0.00, 0.00, 0.00,0,0,0
20150827090225772,0.000000,0.000000, 0.00, 0.00, 0.00, 0.00,0,0, 0.00,10.00, 0.00, 0.00, 0.45, 0.00, 0.00, 0.00, 0.00, 0.00, 0.00, 0.00, 0.00, 0.00, 0.00, 0.00,0,0,0
20150827090225973,0.000000,0.000000, 0.00, 0.00, 0.00, 0.00,0,0, 0.00,10.00, 0.00, 0.00, 0.45, 0.00, 0.00, 0.00, 0.00, 0.00, 0.00, 0.00, 0.00, 0.00, 0.00, 0.00,0,0,0
20150827090226173,0.000000,0.000000, 0.00, 0.00, 0.00, 0.00,0,0, 0.00,10.00, 0.00, 0.00, 0.45, 0.00, 0.00, 0.00, 0.00, 0.00, 0.00, 0.00, 0.00, 0.00, 0.00, 0.00,0,0,0
20150827090226373,0.000000,0.000000, 0.00, 0.00, 0.00, 0.00,0,0, 0.00,10.00, 0.00, 0.00, 0.45, 0.00, 0.00, 0.00, 0.00, 0.00, 0.00, 0.00, 0.00, 0.00, 0.00, 0.00,0,0,0
20150827090226572,0.000000,0.000000, 0.00, 0.00, 0.00, 0.00,0,0, 0.00,10.00, 0.00, 0.00, 0.45, 0.00, 0.00, 0.00, 0.00, 0.00, 0.00, 0.00, 0.00, 0.00, 0.00, 0.00,0,0,0
20150827090226772,0.000000,0.000000, 0.00, 0.00, 0.00, 0.00,0,0, 0.00,10.00, 0.00, 0.00, 0.45, 0.00, 0.00, 0.00, 0.00, 0.00, 0.00, 0.00, 0.00, 0.00, 0.00, 0.00,0,0,0
20150827090226972,0.000000,0.000000, 0.00, 0.00, 0.00, 0.00,0,0, 0.00,10.00, 0.00, 0.00, 0.45, 0.00, 0.00, 0.00, 0.00, 0.00, 0.00, 0.00, 0.00, 0.00, 0.00, 0.00,0,0,0
20150827090227173,0.000000,0.000000, 0.00, 0.00, 0.00, 0.00,0,0, 0.00,10.00, 0.00, 0.00, 0.45, 0.00, 0.00, 0.00, 0.00, 0.00, 0.00, 0.00, 0.00, 0.00, 0.00, 0.00,0,0,0
20150827090227372,0.000000,0.000000, 0.00, 0.00, 0.00, 0.00,0,0, 0.00,10.00, 0.00, 0.00, 0.45, 0.00, 0.00, 0.00, 0.00, 0.00, 0.00, 0.00, 0.00, 0.00, 0.00, 0.00,0,0,0
20150827090227572,0.000000,0.000000, 0.00, 0.00, 0.00, 0.00,0,0, 0.00,10.00, 0.00, 0.00, 0.45, 0.00, 0.00, 0.00, 0.00, 0.00, 0.00, 0.00, 0.00, 0.00, 0.00, 0.00,0,0,0
20150827090227772,-124.313985,48.266085, 0.00, 0.00, 0.00, 0.00,0,0, 0.00,10.00, 0.00, 0.00, 0.45, 0.00, 0.00, 0.00, 0.00, 0.00, 0.00, 0.00, 0.00, 0.00, 0.00, 0.00,36,0,1
20150827090227972,-124.313985,48.266085, 0.00, 0.00, 0.00, 0.00,0,0, 0.00,10.00, 0.00, 0.00, 0.45, 0.00, 0.00, 0.00, 0.00, 0.00, 0.00, 0.00, 0.00, 0.00, 0.00, 0.00,47,0,1
20150827090228172,-124.313985,48.266085, 0.00, 0.00, 0.00, 0.00,0,0, 0.00,10.00, 0.00, 0.00, 0.45, 0.00, 0.00, 0.00, 0.00, 0.00, 0.00, 0.00, 0.00, 0.00, 0.00, 0.00,59,0,1
20150827090228372,-124.313985,48.266085, 0.00, 0.00, 0.00, 0.00,0,0, 0.00,10.00, 0.00, 0.00, 0.45, 0.00, 0.00, 0.00, 0.00, 0.00, 0.00, 0.00, 0.00, 0.00, 0.00, 0.00,71,0,1
20150827090228572,-124.313985,48.266085, 0.00, 0.00, 0.00, 0.00,0,0, 0.00,10.00, 0.00, 0.00, 0.45, 0.00, 0.00, 0.00, 0.00, 0.00, 0.00, 0.00, 0.00, 0.00, 0.00, 0.00,82,0,1
20150827090228772,-124.313985,48.266085, 0.00, 0.00, 0.00, 0.00,0,0, 0.00,10.00, 0.00, 0.00, 0.45, 0.00, 0.00, 0.00, 0.00, 0.00, 0.00, 0.00, 0.00, 0.00, 0.00, 0.00,93,0,1
20150827090228972,-124.313985,48.266085, 0.00, 0.00, 0.00, 0.00,0,0, 0.00,10.00, 0.00, 0.00, 0.45, 0.00, 0.00, 0.00, 0.00, 0.00, 0.00, 0.00, 0.00, 0.00, 0.00, 0.00,105,0,1
20150827090229172,-124.313985,48.266085, 0.00, 0.00, 0.00, 0.00,0,0, 0.00,10.00, 0.00, 0.00, 0.45, 0.00, 0.00, 0.00, 0.00, 0.00, 0.00, 0.00, 0.00, 0.00, 0.00, 0.00,117,0,1
20150827090229372,-124.313985,48.266085, 0.00, 0.00, 0.00, 0.00,0,0, 0.00,10.00, 0.00, 0.00, 0.45, 0.00, 0.00, 0.00, 0.00, 0.00, 0.00, 0.00, 0.00, 0.00, 0.00, 0.00,128,0,1
20150827090229572,-124.313985,48.266085, 0.00, 0.00, 0.00, 0.00,0,0, 0.00,10.00, 0.00, 0.00, 0.45, 0.00, 0.00, 0.00, 0.00, 0.00, 0.00, 0.00, 0.00, 0.00, 0.00, 0.00,139,0,1
20150827090229772,-124.313985,48.266085, 0.00, 0.00, 0.00, 0.00,0,0, 0.00,10.00, 0.00, 0.00, 0.45, 0.00, 0.00, 0.00, 0.00, 0.00, 0.00, 0.00, 0.00, 0.00, 0.00, 0.00,151,0,1
20150827090229971,-124.313985,48.266085, 0.00, 0.00, 0.00, 0.00,0,0, 0.00,10.00, 0.00, 0.00, 0.45, 0.00, 0.00, 0.00, 0.00, 0.00, 0.00, 0.00, 0.00, 0.00, 0.00, 0.00,162,0,1
20150827090230171,-124.313985,48.266085, 0.00, 0.00, 0.00, 0.00,0,0, 0.00,10.00, 0.00, 0.00, 0.45, 0.00, 0.00, 0.00, 0.00, 0.00, 0.00, 0.00, 0.00, 0.00, 0.00, 0.00,174,0,1
20150827090230371,-124.313985,48.266085, 0.00, 0.00, 0.00, 0.00,0,0, 0.00,10.00, 0.00, 0.00, 0.45, 0.00, 0.00, 0.00, 0.00, 0.00, 0.00, 0.00, 0.00, 0.00, 0.00, 0.00,185,0,1
20150827090230571,-124.313985,48.266085, 0.00, 0.00, 0.00, 0.00,0,0, 0.00,10.00, 0.00, 0.00, 0.45, 0.00, 0.00, 0.00, 0.00, 0.00, 0.00, 0.00, 0.00, 0.00, 0.00, 0.00,197,0,1
20150827090230771,-124.313985,48.266085, 0.00, 0.00, 0.00, 0.00,0,0, 0.00,10.00, 0.00, 0.00, 0.45, 0.00, 0.00, 0.00, 0.00, 0.00, 0.00, 0.00, 0.00, 0.00, 0.00, 0.00,208,0,1
20150827090230972,-124.313985,48.266085, 0.00, 0.00, 0.00, 0.00,0,0, 0.00,10.00, 0.00, 0.00, 0.45, 0.00, 0.00, 0.00, 0.00, 0.00, 0.00, 0.00, 0.00, 0.00, 0.00, 0.00,220,0,1
20150827090231171,-124.313985,48.266085, 0.00, 0.00, 0.00, 0.00,0,0, 0.00,10.00, 0.00, 0.00, 0.45, 0.00, 0.00, 0.00, 0.00, 0.00, 0.00, 0.00, 0.00, 0.00, 0.00, 0.00,232,0,1
20150827090231371,-124.313985,48.266085, 0.00, 0.00, 0.00, 0.00,0,0, 0.00,10.00, 0.00, 0.00, 0.45, 0.00, 0.00, 0.00, 0.00, 0.00, 0.00, 0.00, 0.00, 0.00, 0.00, 0.00,243,0,1
20150827090231571,-124.313985,48.266085, 0.00, 0.00, 0.00, 0.00,0,0, 0.00,10.00, 0.00, 0.00, 0.45, 0.00, 0.00, 0.00, 0.00, 0.00, 0.00, 0.00, 0.00, 0.00, 0.00, 0.00,255,0,1
20150827090231771,-124.313985,48.266085, 0.00, 0.00, 0.00, 0.00,0,0, 0.00,10.00, 0.00, 0.00, 0.45, 0.00, 0.00, 0.00, 0.00, 0.00, 0.00, 0.00, 0.00, 0.00, 0.00, 0.00,10,0,1
20150827090231971,-124.313985,48.266085, 0.00, 0.00, 0.00, 0.00,0,0, 0.00,10.00, 0.00, 0.00, 0.45, 0.00, 0.00, 0.00, 0.00, 0.00, 0.00, 0.00, 0.00, 0.00, 0.00, 0.00,22,0,1
20150827090232172,-124.313985,48.266085, 0.00, 0.00, 0.00, 0.00,0,0, 0.00,10.00, 0.00, 0.00, 0.45, 0.00, 0.00, 0.00, 0.00, 0.00, 0.00, 0.00, 0.00, 0.00, 0.00, 0.00,33,0,1
20150827090232372,-124.313985,48.266085, 0.00, 0.00, 0.00, 0.00,0,0, 0.00,10.00, 0.00, 0.00, 0.45, 0.00, 0.00, 0.00, 0.00, 0.00, 0.00, 0.00, 0.00, 0.00, 0.00, 0.00,45,0,1
20150827090232572,-124.313985,48.266085, 0.00, 0.00, 0.00, 0.00,0,0, 0.00,10.00, 0.00, 0.00, 0.45, 0.00, 0.00, 0.00, 0.00, 0.00, 0.00, 0.00, 0.00, 0.00, 0.00, 0.00,56,0,1
20150827090232772,-124.313985,48.266085, 0.00, 0.00, 0.00, 0.00,0,0, 0.00,10.00, 0.00, 0.00, 0.45, 0.00, 0.00, 0.00, 0.00, 0.00, 0.00, 0.00, 0.00, 0.00, 0.00, 0.00,68,0,1
20150827090232977,-124.313985,48.266085, 0.00, 0.00, 0.00, 0.00,0,0, 0.00,10.00, 0.00, 0.00, 0.45, 0.00, 0.00, 0.00, 0.00, 0.00, 0.00, 0.00, 0.00, 0.00, 0.00, 0.00,79,0,1
20150827090233172,-124.313985,48.266085, 0.00, 0.00, 0.00, 0.00,0,0, 0.00,10.00, 0.00, 0.00, 0.45, 0.00, 0.00, 0.00, 0.00, 0.00, 0.00, 0.00, 0.00, 0.00, 0.00, 0.00,91,0,1
20150827090233372,-124.313985,48.266085, 0.00, 0.00, 0.00, 0.00,0,0, 0.00,10.00, 0.00, 0.00, 0.45, 0.00, 0.00, 0.00, 0.00, 0.00, 0.00, 0.00, 0.00, 0.00, 0.00, 0.00,102,0,1
20150827090233571,-124.313985,48.266085, 0.00, 0.00, 0.00, 0.00,0,0, 0.00,10.00, 0.00, 0.00, 0.45, 0.00, 0.00, 0.00, 0.00, 0.00, 0.00, 0.00, 0.00, 0.00, 0.00, 0.00,114,0,1
20150827090233771,-124.313985,48.266085, 0.00, 0.00, 0.00, 0.00,0,0, 0.00,10.00, 0.00, 0.00, 0.45, 0.00, 0.00, 0.00, 0.00, 0.00, 0.00, 0.00, 0.00, 0.00, 0.00, 0.00,126,0,1
20150827090233971,-124.313985,48.266085, 0.00, 0.00, 0.00, 0.00,0,0, 0.00,10.00, 0.00, 0.00, 0.45, 0.00, 0.00, 0.00, 0.00, 0.00, 0.00, 0.00, 0.00, 0.00, 0.00, 0.00,137,0,1
20150827090234171,-124.313985,48.266085, 0.00, 0.00, 0.00, 0.00,0,0, 0.00,10.00, 0.00, 0.00, 0.45, 0.00, 0.00, 0.00, 0.00, 0.00, 0.00, 0.00, 0.00, 0.00, 0.00, 0.00,149,0,1
20150827090234372,-124.313985,48.266085, 0.00, 0.00, 0.00, 0.00,0,0, 0.00,10.00, 0.00, 0.00, 0.45, 0.00, 0.00, 0.00, 0.00, 0.00, 0.00, 0.00, 0.00, 0.00, 0.00, 0.00,161,0,1
20150827090234571,-124.313985,48.266085, 0.00, 0.00, 0.00, 0.00,0,0, 0.00,10.00, 0.00, 0.00, 0.45, 0.00, 0.00, 0.00, 0.00, 0.00, 0.00, 0.00, 0.00, 0.00, 0.00, 0.00,172,0,1
20150827090234771,-124.313985,48.266085, 0.00, 0.00, 0.00, 0.00,0,0, 0.00,10.00, 0.00, 0.00, 0.45, 0.00, 0.00, 0.00, 0.00, 0.00, 0.00, 0.00, 0.00, 0.00, 0.00, 0.00,184,0,1
20150827090234971,-124.313985,48.266085, 0.00, 0.00, 0.00, 0.00,0,0, 0.00,10.00, 0.00, 0.00, 0.45, 0.00, 0.00, 0.00, 0.00, 0.00, 0.00, 0.00, 0.00, 0.00, 0.00, 0.00,196,0,1
20150827090235171,-124.313985,48.266085, 0.00, 0.00, 0.00, 0.00,0,0, 0.00,10.00, 0.00, 0.00, 0.45, 0.00, 0.00, 0.00, 0.00, 0.00, 0.00, 0.00, 0.00, 0.00, 0.00, 0.00,207,0,1
20150827090235371,-124.313985,48.266085, 0.00, 0.00, 0.00, 0.00,0,0, 0.00,10.00, 0.00, 0.00, 0.45, 0.00, 0.00, 0.00, 0.00, 0.00, 0.00, 0.00, 0.00, 0.00, 0.00, 0.00,219,0,1
20150827090235571,-124.313985,48.266085, 0.00, 0.00, 0.00, 0.00,0,0, 0.00,10.00, 0.00, 0.00, 0.45, 0.00, 0.00, 0.00, 0.00, 0.00, 0.00, 0.00, 0.00, 0.00, 0.00, 0.00,230,0,1
20150827090235771,-124.313985,48.266085, 0.00, 0.00, 0.00, 0.00,0,0, 0.00,10.00, 0.00, 0.00, 0.45, 0.00, 0.00, 0.00, 0.00, 0.00, 0.00, 0.00, 0.00, 0.00, 0.00, 0.00,242,0,1
20150827090235971,-124.313985,48.266085, 0.00, 0.00, 0.00, 0.00,0,0, 0.00,10.00, 0.00, 0.00, 0.45, 0.00, 0.00, 0.00, 0.00, 0.00, 0.00, 0.00, 0.00, 0.00, 0.00, 0.00,255,0,1
20150827090236171,-124.313985,48.266085, 0.00, 0.00, 0.00, 0.00,0,0, 0.00,10.00, 0.00, 0.00, 0.45, 0.00, 0.00, 0.00, 0.00, 0.00, 0.00, 0.00, 0.00, 0.00, 0.00, 0.00,12,0,1
20150827090236371,-124.313985,48.266085, 0.00, 0.00, 0.00, 0.00,0,0, 0.00,10.00, 0.00, 0.00, 0.45, 0.00, 0.00, 0.00, 0.00, 0.00, 0.00, 0.00, 0.00, 0.00, 0.00, 0.00,24,0,1
20150827090236571,-124.313985,48.266085, 0.00, 0.00, 0.00, 0.00,0,0, 0.00,10.00, 0.00, 0.00, 0.45, 0.00, 0.00, 0.00, 0.00, 0.00, 0.00, 0.00, 0.00, 0.00, 0.00, 0.00,31,0,1
20150827090236771,-124.313985,48.266085, 0.00, 0.00, 0.00, 0.00,0,0, 0.00,10.00, 0.00, 0.00, 0.45, 0.00, 0.00, 0.00, 0.00, 0.00, 0.00, 0.00, 0.00, 0.00, 0.00, 0.00,31,0,1
20150827090236971,-124.313985,48.266085, 0.00, 0.00, 0.00, 0.00,0,0, 0.00,10.00, 0.00, 0.00, 0.45, 0.00, 0.00, 0.00, 0.00, 0.00, 0.00, 0.00, 0.00, 0.00, 0.00, 0.00,31,0,1
20150827090237171,-124.313985,48.266085, 0.00, 0.00, 0.00, 0.00,0,0, 0.00,10.00, 0.00, 0.00, 0.45, 0.00, 0.00, 0.00, 0.00, 0.00, 0.00, 0.00, 0.00, 0.00, 0.00, 0.00,31,0,1
20150827090237371,-124.313985,48.266085, 0.00, 0.00, 0.00, 0.00,0,0, 0.00,10.00, 0.00, 0.00, 0.45, 0.00, 0.00, 0.00, 0.00, 0.00, 0.00, 0.00, 0.00, 0.00, 0.00, 0.00,31,0,1
20150827090237570,-124.313985,48.266085, 0.00, 0.00, 0.00, 0.00,0,0, 0.00,10.00, 0.00, 0.00, 0.45, 0.00, 0.00, 0.00, 0.00, 0.00, 0.00, 0.00, 0.00, 0.00, 0.00, 0.00,31,0,1
20150827090237770,-124.313985,48.266085, 0.00, 0.00, 0.00, 0.00,0,0, 0.00,10.00, 0.00, 0.00, 0.45, 0.00, 0.00, 0.00, 0.00, 0.00, 0.00, 0.00, 0.00, 0.00, 0.00, 0.00,31,0,1
20150827090237970,-124.313985,48.266085, 0.00, 0.00, 0.00, 0.00,0,0, 0.00,10.00, 0.00, 0.00, 0.45, 0.00, 0.00, 0.00, 0.00, 0.00, 0.00, 0.00, 0.00, 0.00, 0.00, 0.00,31,0,1
20150827090238170,-124.313985,48.266085, 0.00, 0.00, 0.00, 0.00,0,0, 0.00,10.00, 0.00, 0.00, 0.45, 0.00, 0.00, 0.00, 0.00, 0.00, 0.00, 0.00, 0.00, 0.00, 0.00, 0.00,31,0,1
20150827090238370,-124.313985,48.266085, 0.00, 0.00, 0.00, 0.00,0,0, 0.00,10.00, 0.00, 0.00, 0.45, 0.00, 0.00, 0.00, 0.00, 0.00, 0.00, 0.00, 0.00, 0.00, 0.00, 0.00,31,0,1
20150827090238570,-124.313985,48.266085, 0.00, 0.00, 0.00, 0.00,0,0, 0.00,10.00, 0.00, 0.00, 0.45, 0.00, 0.00, 0.00, 0.00, 0.00, 0.00, 0.00, 0.00, 0.00, 0.00, 0.00,31,0,1
20150827090238770,-124.313985,48.266085, 0.00, 0.00, 0.00, 0.00,0,0, 0.00,10.00, 0.00, 0.00, 0.45, 0.00, 0.00, 0.00, 0.00, 0.00, 0.00, 0.00, 0.00, 0.00, 0.00, 0.00,31,0,1
20150827090238971,-124.313985,48.266085, 0.00, 0.00, 0.00, 0.00,0,0, 0.00,10.00, 0.00, 0.00, 0.45, 0.00, 0.00, 0.00, 0.00, 0.00, 0.00, 0.00, 0.00, 0.00, 0.00, 0.00,31,0,1
20150827090239170,-124.313985,48.266085, 0.00, 0.00, 0.00, 0.00,0,0, 0.00,10.00, 0.00, 0.00, 0.45, 0.00, 0.00, 0.00, 0.00, 0.00, 0.00, 0.00, 0.00, 0.00, 0.00, 0.00,31,0,1
20150827090239370,-124.313985,48.266085, 0.00, 0.00, 0.00, 0.00,0,0, 0.00,10.00, 0.00, 0.00, 0.45, 0.00, 0.00, 0.00, 0.00, 0.00, 0.00, 0.00, 0.00, 0.00, 0.00, 0.00,31,0,1
20150827090239570,-124.313985,48.266085, 0.00, 0.00, 0.00, 0.00,0,0, 0.00,10.00, 0.00, 0.00, 0.45, 0.00, 0.00, 0.00, 0.00, 0.00, 0.00, 0.00, 0.00, 0.00, 0.00, 0.00,31,0,1
20150827090239771,-124.313985,48.266085, 0.00, 0.00, 0.00, 0.00,0,0, 0.00,10.00, 0.00, 0.00, 0.45, 0.00, 0.00, 0.00, 0.00, 0.00, 0.00, 0.00, 0.00, 0.00, 0.00, 0.00,31,0,1
20150827090239971,-124.313985,48.266085, 0.00, 0.00, 0.00, 0.00,0,0, 0.00,10.00, 0.00, 0.00, 0.45, 0.00, 0.00, 0.00, 0.00, 0.00, 0.00, 0.00, 0.00, 0.00, 0.00, 0.00,31,0,1
20150827090240170,-124.313985,48.266085, 0.00, 0.00, 0.00, 0.00,0,0, 0.00,10.00, 0.00, 0.00, 0.45, 0.00, 0.00, 0.00, 0.00, 0.00, 0.00, 0.00, 0.00, 0.00, 0.00, 0.00,31,0,1
20150827090240370,-124.313985,48.266085, 0.00, 0.00, 0.00, 0.00,0,0, 0.00,10.00, 0.00, 0.00, 0.45, 0.00, 0.00, 0.00, 0.00, 0.00, 0.00, 0.00, 0.00, 0.00, 0.00, 0.00,31,0,1
20150827090240570,-124.313985,48.266085, 0.00, 0.00, 0.00, 0.00,0,0, 0.00,10.00, 0.00, 0.00, 0.45, 0.00, 0.00, 0.00, 0.00, 0.00, 0.00, 0.00, 0.00, 0.00, 0.00, 0.00,31,0,1
20150827090240770,-124.313985,48.266085, 0.00, 0.00, 0.00, 0.00,0,0, 0.00,10.00, 0.00, 0.00, 0.45, 0.00, 0.00, 0.00, 0.00, 0.00, 0.00, 0.00, 0.00, 0.00, 0.00, 0.00,31,0,1
20150827090240970,-124.313985,48.266085, 0.00, 0.00, 0.00, 0.00,0,0, 0.00,10.00, 0.00, 0.00, 0.45, 0.00, 0.00, 0.00, 0.00, 0.00, 0.00, 0.00, 0.00, 0.00, 0.00, 0.00,31,0,1
20150827090241170,-124.313985,48.266085, 0.00, 0.00, 0.00, 0.00,0,0, 0.00,10.00, 0.00, 0.00, 0.45, 0.00, 0.00, 0.00, 0.00, 0.00, 0.00, 0.00, 0.00, 0.00, 0.00, 0.00,31,0,1
20150827090241370,-124.313985,48.266085, 0.00, 0.00, 0.00, 0.00,0,0, 0.00,10.00, 0.00, 0.00, 0.45, 0.00, 0.00, 0.00, 0.00, 0.00, 0.00, 0.00, 0.00, 0.00, 0.00, 0.00,31,0,1
20150827090241569,-124.313985,48.266085, 0.00, 0.00, 0.00, 0.00,0,0, 0.00,10.00, 0.00, 0.00, 0.45, 0.00, 0.00, 0.00, 0.00, 0.00, 0.00, 0.00, 0.00, 0.00, 0.00, 0.00,31,0,1
20150827090241770,-124.313985,48.266085, 0.00, 0.00, 0.00, 0.00,0,0, 0.00,10.00, 0.00, 0.00, 0.45, 0.00, 0.00, 0.00, 0.00, 0.00, 0.00, 0.00, 0.00, 0.00, 0.00, 0.00,31,0,1
20150827090241970,-124.313985,48.266085, 0.00, 0.00, 0.00, 0.00,0,0, 0.00,10.00, 0.00, 0.00, 0.45, 0.00, 0.00, 0.00, 0.00, 0.00, 0.00, 0.00, 0.00, 0.00, 0.00, 0.00,31,0,1
20150827090242170,-124.313985,48.266085, 0.00, 0.00, 0.00, 0.00,0,0, 0.00,10.00, 0.00, 0.00, 0.45, 0.00, 0.00, 0.00, 0.00, 0.00, 0.00, 0.00, 0.00, 0.00, 0.00, 0.00,31,0,1
20150827090242369,-124.313985,48.266085, 0.00, 0.00, 0.00, 0.00,0,0, 0.00,10.00, 0.00, 0.00, 0.45, 0.00, 0.00, 0.00, 0.00, 0.00, 0.00, 0.00, 0.00, 0.00, 0.00, 0.00,31,0,1
20150827090242569,-124.313985,48.266085, 0.00, 0.00, 0.00, 0.00,0,0, 0.00,10.00, 0.00, 0.00, 0.45, 0.00, 0.00, 0.00, 0.00, 0.00, 0.00, 0.00, 0.00, 0.00, 0.00, 0.00,31,0,1
20150827090242769,-124.313985,48.266085, 0.00, 0.00, 0.00, 0.00,0,0, 0.00,10.00, 0.00, 0.00, 0.45, 0.00, 0.00, 0.00, 0.00, 0.00, 0.00, 0.00, 0.00, 0.00, 0.00, 0.00,31,0,1
20150827090242969,-124.313985,48.266085, 0.00, 0.00, 0.00, 0.00,0,0, 0.00,10.00, 0.00, 0.00, 0.45, 0.00, 0.00, 0.00, 0.00, 0.00, 0.00, 0.00, 0.00, 0.00, 0.00, 0.00,31,0,1
20150827090243169,-124.313985,48.266085, 0.00, 0.00, 0.00, 0.00,0,0, 0.00,10.00, 0.00, 0.00, 0.45, 0.00, 0.00, 0.00, 0.00, 0.00, 0.00, 0.00, 0.00, 0.00, 0.00, 0.00,31,0,1
20150827090243369,-124.313985,48.266085, 0.00, 0.00, 0.00, 0.00,0,0, 0.00,10.00, 0.00, 0.00, 0.45, 0.00, 0.00, 0.00, 0.00, 0.00, 0.00, 0.00, 0.00, 0.00, 0.00, 0.00,31,0,1
20150827090243667,-124.313985,48.266085, 0.00, 0.00, 0.00, 0.00,0,0, 0.00,10.00, 0.00, 0.00, 0.45, 0.00, 0.00, 0.00, 0.00, 0.00, 0.00, 0.00, 0.00, 0.00, 0.00, 0.00,31,0,1
20150827090243779,-124.313985,48.266085, 0.00, 0.00, 0.00, 0.00,0,0, 0.00,10.00, 0.00, 0.00, 0.45, 0.00, 0.00, 0.00, 0.00, 0.00, 0.00, 0.00, 0.00, 0.00, 0.00, 0.00,31,0,1
20150827090243993,-124.313985,48.266085, 0.00, 0.00, 0.00, 0.00,0,0, 0.00,10.00, 0.00, 0.00, 0.45, 0.00, 0.00, 0.00, 0.00, 0.00, 0.00, 0.00, 0.00, 0.00, 0.00, 0.00,31,0,1
20150827090244194,-124.313985,48.266085, 0.00, 0.00, 0.00, 0.00,0,0, 0.00,10.00, 0.00, 0.00, 0.45, 0.00, 0.00, 0.00, 0.00, 0.00, 0.00, 0.00, 0.00, 0.00, 0.00, 0.00,31,0,1
20150827090244378,-124.313985,48.266085, 0.00, 0.00, 0.00, 0.00,0,0, 0.00,10.00, 0.00, 0.00, 0.45, 0.00, 0.00, 0.00, 0.00, 0.00, 0.00, 0.00, 0.00, 0.00, 0.00, 0.00,31,0,1
20150827090244590,-124.313985,48.266085, 0.00, 0.00, 0.00, 0.00,0,0, 0.00,10.00, 0.00, 0.00, 0.45, 0.00, 0.00, 0.00, 0.00, 0.00, 0.00, 0.00, 0.00, 0.00, 0.00, 0.00,31,0,1
20150827090244783,-124.313985,48.266085, 0.00, 0.00, 0.00, 0.00,0,0, 0.00,10.00, 0.00, 0.00, 0.45, 0.00, 0.00, 0.00, 0.00, 0.00, 0.00, 0.00, 0.00, 0.00, 0.00, 0.00,31,0,1
20150827090244986,-124.313985,48.266085, 0.00, 0.00, 0.00, 0.00,0,0, 0.00,10.00, 0.00, 0.00, 0.45, 0.00, 0.00, 0.00, 0.00, 0.00, 0.00, 0.00, 0.00, 0.00, 0.00, 0.00,31,0,1
20150827090245170,-124.313985,48.266085, 0.00, 0.00, 0.00, 0.00,0,0, 0.00,10.00, 0.00, 0.00, 0.45, 0.00, 0.00, 0.00, 0.00, 0.00, 0.00, 0.00, 0.00, 0.00, 0.00, 0.00,31,0,1
20150827090245368,-124.313985,48.266085, 0.00, 0.00, 0.00, 0.00,0,0, 0.00,10.00, 0.00, 0.00, 0.45, 0.00, 0.00, 0.00, 0.00, 0.00, 0.00, 0.00, 0.00, 0.00, 0.00, 0.00,31,0,1
20150827090245568,-124.313985,48.266085, 0.00, 0.00, 0.00, 0.00,0,0, 0.00,10.00, 0.00, 0.00, 0.45, 0.00, 0.00, 0.00, 0.00, 0.00, 0.00, 0.00, 0.00, 0.00, 0.00, 0.00,31,0,1
20150827090245768,-124.313985,48.266085, 0.00, 0.00, 0.00, 0.00,0,0, 0.00,10.00, 0.00, 0.00, 0.45, 0.00, 0.00, 0.00, 0.00, 0.00, 0.00, 0.00, 0.00, 0.00, 0.00, 0.00,31,0,1
20150827090245968,-124.313985,48.266085, 0.00, 0.00, 0.00, 0.00,0,0, 0.00,10.00, 0.00, 0.00, 0.45, 0.00, 0.00, 0.00, 0.00, 0.00, 0.00, 0.00, 0.00, 0.00, 0.00, 0.00,31,0,1
20150827090246169,-124.313985,48.266085, 0.00, 0.00, 0.00, 0.00,0,0, 0.00,10.00, 0.00, 0.00, 0.45, 0.00, 0.00, 0.00, 0.00, 0.00, 0.00, 0.00, 0.00, 0.00, 0.00, 0.00,31,0,1
20150827090246368,-124.313985,48.266085, 0.00, 0.00, 0.00, 0.00,0,0, 0.00,10.00, 0.00, 0.00, 0.45, 0.00, 0.00, 0.00, 0.00, 0.00, 0.00, 0.00, 0.00, 0.00, 0.00, 0.00,31,0,1
20150827090246568,-124.313985,48.266085, 0.00, 0.00, 0.00, 0.00,0,0, 0.00,10.00, 0.00, 0.00, 0.45, 0.00, 0.00, 0.00, 0.00, 0.00, 0.00, 0.00, 0.00, 0.00, 0.00, 0.00,31,0,1
20150827090246768,-124.313985,48.266085, 0.00, 0.00, 0.00, 0.00,0,0, 0.00,10.00, 0.00, 0.00, 0.45, 0.00, 0.00, 0.00, 0.00, 0.00, 0.00, 0.00, 0.00, 0.00, 0.00, 0.00,31,0,1
20150827090246969,-124.313985,48.266085, 0.00, 0.00, 0.00, 0.00,0,0, 0.00,10.00, 0.00, 0.00, 0.45, 0.00, 0.00, 0.00, 0.00, 0.00, 0.00, 0.00, 0.00, 0.00, 0.00, 0.00,31,0,1
20150827090247168,-124.313985,48.266085, 0.00, 0.00, 0.00, 0.00,0,0, 0.00,10.00, 0.00, 0.00, 0.45, 0.00, 0.00, 0.00, 0.00, 0.00, 0.00, 0.00, 0.00, 0.00, 0.00, 0.00,31,0,1
20150827090247368,-124.313985,48.266085, 0.00, 0.00, 0.00, 0.00,0,0, 0.00,10.00, 0.00, 0.00, 0.45, 0.00, 0.00, 0.00, 0.00, 0.00, 0.00, 0.00, 0.00, 0.00, 0.00, 0.00,31,0,1
20150827090247575,-124.313985,48.266085, 0.00, 0.00, 0.00, 0.00,0,0, 0.00,10.00, 0.00, 0.00, 0.45, 0.00, 0.00, 0.00, 0.00, 0.00, 0.00, 0.00, 0.00, 0.00, 0.00, 0.00,31,0,1
20150827090247768,-124.313985,48.266085, 0.00, 0.00, 0.00, 0.00,0,0, 0.00,10.00, 0.00, 0.00, 0.45, 0.00, 0.00, 0.00, 0.00, 0.00, 0.00, 0.00, 0.00, 0.00, 0.00, 0.00,31,0,1
20150827090247968,-124.313985,48.266085, 0.00, 0.00, 0.00, 0.00,0,0, 0.00,10.00, 0.00, 0.00, 0.45, 0.00, 0.00, 0.00, 0.00, 0.00, 0.00, 0.00, 0.00, 0.00, 0.00, 0.00,31,0,1
20150827090248168,-124.308150,48.265370, 0.00, 2.50,-0.20,280.70,0,0, 0.00,10.00, 0.00, 0.00, 0.38, 0.00, 0.00, 0.00, 0.00, 0.00, 0.00, 0.00, 0.00, 0.00, 0.00,36.00,32,0,1
20150827090248368,-124.308150,48.265370, 0.00, 2.20, 0.00,280.70,0,0, 0.00,10.00, 0.00, 0.00, 0.39, 0.00, 0.00, 0.00, 0.00, 0.00, 0.00, 0.00, 0.00, 0.00, 0.00, 0.00,34,0,1
20150827090248568,-124.308150,48.265370, 0.00, 0.70, 0.00,280.70,0,0, 0.00,10.00, 0.00, 0.00, 0.43, 0.00, 0.00, 0.00,-10.00, 0.00, 0.00,-10.00, 0.00, 0.00, 0.00, 0.00,41,0,1
20150827090248768,-124.308150,48.265370, 0.00, 0.00, 0.00,280.70,0,0, 0.00,10.00, 0.00, 0.00, 0.45, 0.00, 0.00, 0.00, 0.00, 0.00, 0.00, 0.00, 0.00, 0.00, 0.00, 0.00,49,0,1
20150827090248968,-124.308150,48.265370, 0.00, 0.30,-0.10,280.70,0,0, 0.00,10.00, 0.00, 0.00, 0.44, 0.00, 0.00, 0.00, 0.00, 0.00, 0.00, 0.00, 0.00, 0.00, 0.00, 0.00,57,0,1
20150827090249168,-124.308150,48.265370, 0.00, 1.00,-0.20,280.70,0,0, 0.00,10.00, 0.00, 0.00, 0.42, 0.00, 0.00, 0.00, 0.00, 0.00, 0.00, 0.00, 0.00, 0.00, 0.00, 0.00,66,0,1
20150827090249368,-124.308150,48.265370, 0.00, 2.00,-0.30,280.70,0,0, 0.00,10.00, 0.00, 0.00, 0.40, 0.00, 0.00, 0.00, 0.00, 0.00, 0.00, 0.00, 0.00, 0.00, 0.00, 0.00,75,0,1
20150827090249569,-124.308150,48.265370, 0.00, 2.90,-0.30,280.70,0,0, 0.00,10.00, 0.00, 0.00, 0.37, 0.00, 0.00, 0.00, 0.00, 0.00, 0.00, 0.00, 0.00, 0.00, 0.00, 0.00,83,0,1
20150827090249769,-124.308150,48.265370, 0.00, 3.30,-0.30,280.70,0,0, 0.00,10.00, 0.00, 0.00, 0.36, 0.00, 0.00, 0.00, 0.00, 0.00, 0.00, 0.00, 0.00, 0.00, 0.00, 0.00,91,0,1
20150827090249968,-124.308150,48.265370, 0.00, 3.30,-0.30,280.70,0,0, 0.00,10.00, 0.00, 0.00, 0.36, 0.00, 0.00, 0.00, 0.00, 0.00, 0.00, 0.00, 0.00, 0.00, 0.00, 0.00,99,0,1
20150827090250168,-124.308150,48.265370, 0.00, 3.30,-0.30,280.70,0,0, 0.00,10.00, 0.00, 0.00, 0.36, 0.00, 0.00, 0.00, 0.00, 0.00, 0.00, 0.00, 0.00, 0.00, 0.00, 0.00,107,0,1
20150827090250369,-124.308150,48.265370, 0.00, 3.30,-0.30,280.70,0,0, 0.00,10.00, 0.00, 0.00, 0.36, 0.00, 0.00, 0.00, 0.00, 0.00, 0.00, 0.00, 0.00, 0.00, 0.00, 0.00,115,0,1
20150827090250568,-124.308150,48.265370, 0.00, 3.40,-0.30,280.70,0,0, 0.00,10.00, 0.00, 0.00, 0.36, 0.00, 0.00, 0.00, 0.00, 0.00, 0.00, 0.00, 0.00, 0.00, 0.00, 0.00,123,0,1
20150827090250768,-124.308150,48.265370, 0.00, 3.40,-0.30,280.70,0,0, 0.00,10.00, 0.00, 0.00, 0.36, 0.00, 0.00, 0.00, 0.00, 0.00, 0.00, 0.00, 0.00, 0.00, 0.00, 0.00,131,0,1
20150827090250968,-124.308150,48.265370, 0.00, 3.50,-0.30,280.70,0,0, 0.00,10.00, 0.00, 0.00, 0.36, 0.00, 0.00, 0.00, 0.00, 0.00, 0.00, 0.00, 0.00, 0.00, 0.00, 0.00,139,0,1
20150827090251168,-124.308150,48.265370, 0.00, 3.50,-0.30,280.70,0,0, 0.00,10.00, 0.00, 0.00, 0.36, 0.00, 0.00, 0.00, 0.00, 0.00, 0.00, 0.00, 0.00, 0.00, 0.00, 0.00,146,0,1
20150827090251368,-124.308150,48.265370, 0.00, 3.50,-0.30,280.70,0,0, 0.00,10.00, 0.00, 0.00, 0.36, 0.00, 0.00, 0.00, 0.00, 0.00, 0.00, 0.00, 0.00, 0.00, 0.00, 0.00,146,0,1
20150827090251568,-124.308150,48.265370, 0.00, 3.50,-0.30,280.70,0,0, 0.00,10.00, 0.00, 0.00, 0.36, 0.00, 0.00, 0.00, 0.00, 0.00, 0.00, 0.00, 0.00, 0.00, 0.00, 0.00,150,0,1
20150827090251768,-124.308150,48.265370, 0.00, 3.50,-0.30,280.70,0,0, 0.00,10.00, 0.00, 0.00, 0.36, 0.00, 0.00, 0.00, 0.00, 0.00, 0.00, 0.00, 0.00, 0.00, 0.00, 0.00,157,0,1
20150827090251968,-124.308150,48.265370, 0.00, 3.50,-0.30,280.70,0,0, 0.00,10.00, 0.00, 0.00, 0.36, 0.00, 0.00, 0.00, 0.00, 0.00, 0.00, 0.00, 0.00, 0.00, 0.00, 0.00,165,0,1
20150827090252168,-124.308150,48.265370, 0.00, 3.50,-0.30,280.70,0,0, 0.00,10.00, 0.00, 0.00, 0.36, 0.00, 0.00, 0.00, 0.00, 0.00, 0.00, 0.00, 0.00, 0.00, 0.00, 0.00,172,0,1
20150827090252368,-124.308150,48.265370, 0.00, 3.50,-0.30,280.70,0,0, 0.00,10.00, 0.00, 0.00, 0.36, 0.00, 0.00, 0.00, 0.00, 0.00, 0.00, 0.00, 0.00, 0.00, 0.00, 0.00,180,0,1
20150827090252568,-124.308150,48.265370, 0.00, 3.50,-0.30,280.70,0,0, 0.00,10.00, 0.00, 0.00, 0.36, 0.00, 0.00, 0.00, 0.00, 0.00, 0.00, 0.00, 0.00, 0.00, 0.00, 0.00,188,0,1
20150827090252768,-124.308150,48.265370, 0.00, 3.50,-0.30,280.70,0,0, 0.00,10.00, 0.00, 0.00, 0.36, 0.00, 0.00, 0.00, 0.00, 0.00, 0.00, 0.00, 0.00, 0.00, 0.00, 0.00,196,0,1
20150827090252968,-124.308150,48.265370, 0.00, 3.50,-0.30,280.70,0,0, 0.00,10.00, 0.00, 0.00, 0.36, 0.00, 0.00, 0.00, 0.00, 0.00, 0.00, 0.00, 0.00, 0.00, 0.00, 0.00,205,0,1
20150827090253168,-124.308150,48.265370, 0.00, 3.50,-0.30,280.70,0,0, 0.00,10.00, 0.00, 0.00, 0.36, 0.00, 0.00, 0.00, 0.00, 0.00, 0.00, 0.00, 0.00, 0.00, 0.00, 0.00,214,0,1
20150827090253367,-124.308150,48.265370, 0.00, 3.50,-0.30,280.70,0,0, 0.00,10.00, 0.00, 0.00, 0.36, 0.00, 0.00, 0.00, 0.00, 0.00, 0.00, 0.00, 0.00, 0.00, 0.00, 0.00,222,0,1
20150827090253567,-124.308150,48.265370, 0.00, 3.40, 0.00,280.00,0,0, 0.00,10.00, 0.00, 0.00, 0.36, 0.00, 0.00,10.00, 0.00,-10.00,10.00, 0.00,-10.00,18.00,50.00, 0.00,231,0,1
20150827090253767,-124.308155,48.265370, 0.00, 3.10, 1.30,276.20,1,1, 0.00,10.00, 0.00, 0.00, 0.37,-0.03, 0.00,10.00, 0.00,-40.00,10.00, 0.00,-40.00,26.00,135.00, 0.00,240,0,1
20150827090253967,-124.308155,48.265370, 0.00, 2.50, 1.80,269.70,2,2, 0.00,10.00, 0.00, 0.00, 0.38,-0.04, 0.00, 0.00, 0.00,-60.00, 0.00, 0.00,-60.00,11.00,210.00, 0.00,249,0,1
20150827090254167,-124.308165,48.265370, 0.00, 2.80, 2.50,259.50,2,2, 0.00,10.00, 0.00, 0.00, 0.37,-0.07, 0.00,10.00, 0.00,-90.00,10.00, 0.00,-90.00,27.00,282.00, 1.00,3,0,1
20150827090254367,-124.308170,48.265370, 0.00, 4.00, 3.30,248.80,3,3, 0.00,10.00, 0.00, 0.00, 0.34,-0.09, 0.00,10.00, 0.00,-110.00,10.00, 0.00,-110.00,86.00,324.00, 2.00,11,0,1
20150827090254567,-124.308185,48.265365, 0.00, 5.80, 3.60,234.00,3,3, 0.00,10.00, 0.00, 0.00, 0.30,-0.11, 0.00, 0.00, 0.00,-130.00, 0.00, 0.00,-130.00,172.00,342.00, 3.00,20,0,1
20150827090254768,-124.308195,48.265365, 0.00, 5.30, 0.80,218.00,3,3, 0.00,10.00, 0.00, 0.00, 0.31,-0.04, 0.00,10.00,-20.00,-140.00,10.00,-20.00,-140.00,162.00,323.00, 0.00,29,0,1
20150827090254967,-124.308200,48.265365, 0.00, 1.30, 2.30,201.30,2,2, 0.00,10.00, 0.00, 0.00, 0.41,-0.09, 0.00,10.00,-30.00,-120.00,10.00,-30.00,-120.00,178.00,275.00, 2.00,39,0,1
20150827090255167,-124.308210,48.265360, 0.00,-0.60, 2.90,187.30,2,2, 0.00,10.00, 0.00, 0.00, 0.46,-0.11, 0.00, 0.00, 0.00,-110.00, 0.00, 0.00,-110.00,194.00,205.00, 1.00,49,0,1
20150827090255367,-124.308210,48.265355, 0.00, 0.50, 2.70,176.20,1,1, 0.00,10.00, 0.00, 0.00, 0.43,-0.11, 0.00, 0.00,10.00,-90.00, 0.00,10.00,-90.00,200.00,132.00, 1.00,58,0,1
20150827090255567,-124.308215,48.265350, 0.00, 2.20, 2.40,167.80,1,1, 0.00,10.00, 0.00, 0.00, 0.39,-0.11, 0.00, 0.00, 0.00,-60.00, 0.00, 0.00,-60.00,196.00,63.00, 1.00,66,0,1
20150827090255767,-124.308215,48.265350, 0.00, 2.60, 2.20,164.70,1,1, 0.00,10.00, 0.00, 0.00, 0.38,-0.11, 0.00, 0.00, 0.00,-50.00, 0.00, 0.00,-50.00,191.00,34.00, 1.00,73,0,1
20150827090255967,-124.308215,48.265350, 0.00, 2.60, 2.20,164.70,1,1, 0.00,10.00, 0.00, 0.00, 0.38,-0.12, 0.00, 0.00, 0.00,-50.00, 0.00, 0.00,-50.00,191.00,34.00, 1.00,83,0,1
20150827090256167,-124.308215,48.265350, 0.00, 2.60, 2.20,164.70,1,1, 0.00,10.00, 0.00, 0.00, 0.38,-0.13, 0.00, 0.00, 0.00,-50.00, 0.00, 0.00,-50.00,191.00,34.00, 1.00,93,0,1
20150827090256367,-124.308215,48.265350, 0.00, 2.60, 2.20,164.70,1,1, 0.00,10.00, 0.00, 0.00, 0.38,-0.14, 0.00, 0.00, 0.00,-50.00, 0.00, 0.00,-50.00,191.00,34.00, 1.00,103,0,1
20150827090256567,-124.308215,48.265350, 0.00, 2.60, 2.20,164.70,1,1, 0.00,10.00, 0.00, 0.00, 0.38,-0.15, 0.00, 0.00, 0.00,-50.00, 0.00, 0.00,-50.00,191.00,34.00, 1.00,113,0,1
20150827090256767,-124.308215,48.265350, 0.00, 2.60, 2.20,164.70,1,1, 0.00,10.00, 0.00, 0.00, 0.38,-0.15, 0.00, 0.00, 0.00,-50.00, 0.00, 0.00,-50.00,191.00,34.00, 1.00,124,0,1
20150827090256967,-124.308215,48.265350, 0.00, 2.60, 2.20,164.70,1,1, 0.00,10.00, 0.00, 0.00, 0.38,-0.16, 0.00, 0.00, 0.00,-50.00, 0.00, 0.00,-50.00,191.00,34.00, 1.00,134,0,1
20150827090257166,-124.308215,48.265350, 0.00, 2.60, 2.20,164.70,1,1, 0.00,10.00, 0.00, 0.00, 0.38,-0.17, 0.00, 0.00, 0.00,-50.00, 0.00, 0.00,-50.00,191.00,34.00, 1.00,144,0,1
20150827090257366,-124.308215,48.265350, 0.00, 2.60, 2.20,164.70,1,1, 0.00,10.00, 0.00, 0.00, 0.38,-0.18, 0.00, 0.00, 0.00,-50.00, 0.00, 0.00,-50.00,191.00,34.00, 1.00,154,0,1
20150827090257566,-124.308215,48.265350, 0.00, 2.60, 2.20,164.70,1,1, 0.00,10.00, 0.00, 0.00, 0.38,-0.19, 0.00, 0.00, 0.00,-50.00, 0.00, 0.00,-50.00,191.00,34.00, 1.00,164,0,1
20150827090257768,-124.308215,48.265350, 0.00, 2.60, 2.20,164.70,1,1, 0.00,10.00, 0.00, 0.00, 0.38,-0.20, 0.00, 0.00, 0.00,-50.00, 0.00, 0.00,-50.00,191.00,34.00, 1.00,173,0,1
20150827090257967,-124.308215,48.265350, 0.00, 2.60, 2.20,164.70,1,1, 0.00,10.00, 0.00, 0.00, 0.38,-0.20, 0.00, 0.00, 0.00,-50.00, 0.00, 0.00,-50.00,191.00,34.00, 1.00,182,0,1
20150827090258167,-124.308215,48.265350, 0.00, 2.60, 2.20,164.70,1,1, 0.00,10.00, 0.00, 0.00, 0.38,-0.21, 0.00, 0.00, 0.00,-50.00, 0.00, 0.00,-50.00,191.00,34.00, 1.00,192,0,1
20150827090258367,-124.308215,48.265350, 0.00, 2.60, 2.20,164.70,1,1, 0.00,10.00, 0.00, 0.00, 0.38,-0.22, 0.00, 0.00, 0.00,-50.00, 0.00, 0.00,-50.00,191.00,34.00, 1.00,202,0,1
20150827090258566,-124.308215,48.265350, 0.00, 2.60, 2.20,164.70,1,1, 0.00,10.00, 0.00, 0.00, 0.38,-0.23, 0.00, 0.00, 0.00,-50.00, 0.00, 0.00,-50.00,191.00,34.00, 1.00,211,0,1
20150827090258766,-124.308215,48.265350, 0.00, 2.60, 2.20,164.70,1,1, 0.00,10.00, 0.00, 0.00, 0.38,-0.24, 0.00, 0.00, 0.00,-50.00, 0.00, 0.00,-50.00,191.00,34.00, 1.00,221,0,1
20150827090258967,-124.308215,48.265350, 0.00, 2.60, 2.20,164.70,1,1, 0.00,10.00, 0.00, 0.00, 0.38,-0.25, 0.00, 0.00, 0.00,-50.00, 0.00, 0.00,-50.00,191.00,34.00, 1.00,230,0,1
20150827090259167,-124.308215,48.265350, 0.00, 2.60, 2.20,164.70,1,1, 0.00,10.00, 0.00, 0.00, 0.38,-0.25, 0.00, 0.00, 0.00,-50.00, 0.00, 0.00,-50.00,191.00,34.00, 1.00,240,0,1
20150827090259367,-124.308215,48.265350, 0.00, 2.60, 2.20,164.70,1,1, 0.00,10.00, 0.00, 0.00, 0.38,-0.25, 0.00, 0.00, 0.00,-50.00, 0.00, 0.00,-50.00,191.00,34.00, 1.00,251,0,1
20150827090259567,-124.308215,48.265350, 0.00, 2.60, 2.20,164.70,1,1, 0.00,10.00, 0.00, 0.00, 0.38,-0.25, 0.00, 0.00, 0.00,-50.00, 0.00, 0.00,-50.00,191.00,34.00, 1.00,4,0,1
20150827090259766,-124.308215,48.265350, 0.00, 2.60, 2.20,164.70,1,1, 0.00,10.00, 0.00, 0.00, 0.38,-0.25, 0.00, 0.00, 0.00,-50.00, 0.00, 0.00,-50.00,191.00,34.00, 1.00,14,0,1
20150827090259966,-124.308215,48.265350, 0.00, 2.60, 2.20,164.70,1,1, 0.00,10.00, 0.00, 0.00, 0.38,-0.25, 0.00, 0.00, 0.00,-50.00, 0.00, 0.00,-50.00,191.00,34.00, 1.00,24,0,1
20150827090300166,-124.308215,48.265350, 0.00, 2.60, 2.20,164.70,1,1, 0.00,10.00, 0.00, 0.00, 0.38,-0.25, 0.00, 0.00, 0.00,-50.00, 0.00, 0.00,-50.00,191.00,34.00, 1.00,33,0,1
20150827090300366,-124.308215,48.265350, 0.00, 2.60, 2.20,164.70,1,1, 0.00,10.00, 0.00, 0.00, 0.38,-0.25, 0.00, 0.00, 0.00,-50.00, 0.00, 0.00,-50.00,191.00,34.00, 1.00,43,0,1
20150827090300566,-124.308215,48.265350, 0.00, 2.60, 2.20,164.70,1,1, 0.00,10.00, 0.00, 0.00, 0.38,-0.25, 0.00, 0.00, 0.00,-50.00, 0.00, 0.00,-50.00,191.00,34.00, 1.00,53,0,1
20150827090300766,-124.308215,48.265350, 0.00, 2.60, 2.20,164.70,1,1, 0.00,10.00, 0.00, 0.00, 0.38,-0.25, 0.00, 0.00, 0.00,-50.00, 0.00, 0.00,-50.00,191.00,34.00, 1.00,63,0,1
20150827090300966,-124.308215,48.265350, 0.00, 2.60, 2.20,164.70,1,1, 0.00,10.00, 0.00, 0.00, 0.38,-0.25, 0.00, 0.00, 0.00,-50.00, 0.00, 0.00,-50.00,191.00,34.00, 1.00,73,0,1
20150827090301166,-124.308215,48.265350, 0.00, 2.60, 2.20,164.70,1,1, 0.00,10.00, 0.00, 0.00, 0.38,-0.25, 0.00, 0.00, 0.00,-50.00, 0.00, 0.00,-50.00,191.00,34.00, 1.00,83,0,1
20150827090301365,-124.308215,48.265350, 0.00, 2.60, 2.20,164.70,1,1, 0.00,10.00, 0.00, 0.00, 0.38,-0.25, 0.00, 0.00, 0.00,-50.00, 0.00, 0.00,-50.00,191.00,34.00, 1.00,93,0,1
20150827090301565,-124.308215,48.265350, 0.00, 2.60, 2.20,164.70,1,1, 0.00,10.00, 0.00, 0.00, 0.38,-0.25, 0.00, 0.00, 0.00,-50.00, 0.00, 0.00,-50.00,191.00,34.00, 1.00,103,0,1
20150827090301765,-124.308215,48.265350, 0.00, 2.60, 2.20,164.70,1,1, 0.00,10.00, 0.00, 0.00, 0.38,-0.25, 0.00, 0.00, 0.00,-50.00, 0.00, 0.00,-50.00,191.00,34.00, 1.00,113,0,1
20150827090301965,-124.308215,48.265350, 0.00, 2.60, 2.20,164.70,1,1, 0.00,10.00, 0.00, 0.00, 0.38,-0.25, 0.00, 0.00, 0.00,-50.00, 0.00, 0.00,-50.00,191.00,34.00, 1.00,123,0,1
20150827090302165,-124.308215,48.265350, 0.00, 2.60, 2.20,164.70,1,1, 0.00,10.00, 0.00, 0.00, 0.38,-0.25, 0.00, 0.00, 0.00,-50.00, 0.00, 0.00,-50.00,191.00,34.00, 1.00,133,0,1
20150827090302365,-124.308215,48.265350, 0.00, 2.60, 2.20,164.70,1,1, 0.00,10.00, 0.00, 0.00, 0.38,-0.25, 0.00, 0.00, 0.00,-50.00, 0.00, 0.00,-50.00,191.00,34.00, 1.00,143,0,1
20150827090302565,-124.308215,48.265350, 0.00, 2.60, 2.20,164.70,1,1, 0.00,10.00, 0.00, 0.00, 0.38,-0.25, 0.00, 0.00, 0.00,-50.00, 0.00, 0.00,-50.00,191.00,34.00, 1.00,153,0,1
20150827090302765,-124.308215,48.265350, 0.00, 2.60, 2.20,164.70,1,1, 0.00,10.00, 0.00, 0.00, 0.38,-0.25, 0.00, 0.00, 0.00,-50.00, 0.00, 0.00,-50.00,191.00,34.00, 1.00,163,0,1
20150827090302965,-124.308215,48.265350, 0.00, 2.60, 2.20,164.70,1,1, 0.00,10.00, 0.00, 0.00, 0.38,-0.25, 0.00, 0.00, 0.00,-50.00, 0.00, 0.00,-50.00,191.00,34.00, 1.00,173,0,1
20150827090303165,-124.308215,48.265350, 0.00, 2.60, 2.20,164.70,1,1, 0.00,10.00, 0.00, 0.00, 0.38,-0.25, 0.00, 0.00, 0.00,-50.00, 0.00, 0.00,-50.00,191.00,34.00, 1.00,183,0,1
20150827090303365,-124.308215,48.265350, 0.00, 2.60, 2.20,164.70,1,1, 0.00,10.00, 0.00, 0.00, 0.38,-0.25, 0.00, 0.00, 0.00,-50.00, 0.00, 0.00,-50.00,191.00,34.00, 1.00,193,0,1
20150827090303565,-124.308215,48.265350, 0.00, 2.60, 2.20,164.70,1,1, 0.00,10.00, 0.00, 0.00, 0.38,-0.25, 0.00, 0.00, 0.00,-50.00, 0.00, 0.00,-50.00,191.00,34.00, 1.00,203,0,1
20150827090303765,-124.308215,48.265350, 0.00, 2.60, 2.20,164.70,1,1, 0.00,10.00, 0.00, 0.00, 0.38,-0.25, 0.00, 0.00, 0.00,-50.00, 0.00, 0.00,-50.00,191.00,34.00, 1.00,213,0,1
20150827090303965,-124.308215,48.265350, 0.00, 2.60, 2.20,164.70,1,1, 0.00,10.00, 0.00, 0.00, 0.38,-0.25, 0.00, 0.00, 0.00,-50.00, 0.00, 0.00,-50.00,191.00,34.00, 1.00,223,0,1
20150827090304165,-124.308215,48.265350, 0.00, 2.60, 2.20,164.70,1,1, 0.00,10.00, 0.00, 0.00, 0.38,-0.25, 0.00, 0.00, 0.00,-50.00, 0.00, 0.00,-50.00,191.00,34.00, 1.00,233,0,1
20150827090304365,-124.308215,48.265350, 0.00, 2.60, 2.20,164.70,1,1, 0.00,10.00, 0.00, 0.00, 0.38,-0.25, 0.00, 0.00, 0.00,-50.00, 0.00, 0.00,-50.00,191.00,34.00, 1.00,243,0,1
20150827090304565,-124.308215,48.265350, 0.00, 2.60, 2.20,164.70,1,1, 0.00,10.00, 0.00, 0.00, 0.38,-0.25, 0.00, 0.00, 0.00,-50.00, 0.00, 0.00,-50.00,191.00,34.00, 1.00,253,0,1
20150827090304765,-124.308215,48.265350, 0.00, 2.60, 2.20,164.70,1,1, 0.00,10.00, 0.00, 0.00, 0.38,-0.25, 0.00, 0.00, 0.00,-50.00, 0.00, 0.00,-50.00,191.00,34.00, 1.00,7,0,1
20150827090304964,-124.308215,48.265350, 0.00, 2.60, 2.20,164.70,1,1, 0.00,10.00, 0.00, 0.00, 0.38,-0.25, 0.00, 0.00, 0.00,-50.00, 0.00, 0.00,-50.00,191.00,34.00, 1.00,17,0,1
20150827090305166,-124.308215,48.265350, 0.00, 2.60, 2.20,164.70,1,1, 0.00,10.00, 0.00, 0.00, 0.38,-0.25, 0.00, 0.00, 0.00,-50.00, 0.00, 0.00,-50.00,191.00,34.00, 1.00,26,0,1
20150827090305365,-124.308215,48.265350, 0.00, 2.60, 2.20,164.70,1,1, 0.00,10.00, 0.00, 0.00, 0.38,-0.25, 0.00, 0.00, 0.00,-50.00, 0.00, 0.00,-50.00,191.00,34.00, 1.00,36,0,1
20150827090305565,-124.308215,48.265350, 0.00, 2.60, 2.20,164.70,1,1, 0.00,10.00, 0.00, 0.00, 0.38,-0.25, 0.00, 0.00, 0.00,-50.00, 0.00, 0.00,-50.00,191.00,34.00, 1.00,46,0,1
20150827090305765,-124.308215,48.265350, 0.00, 2.60, 2.20,164.70,1,1, 0.00,10.00, 0.00, 0.00, 0.38,-0.25, 0.00, 0.00, 0.00,-50.00, 0.00, 0.00,-50.00,191.00,34.00, 1.00,57,0,1
20150827090305965,-124.308215,48.265350, 0.00, 2.60, 2.20,164.70,1,1, 0.00,10.00, 0.00, 0.00, 0.38,-0.25, 0.00, 0.00, 0.00,-50.00, 0.00, 0.00,-50.00,191.00,34.00, 1.00,67,0,1
20150827090306164,-124.308215,48.265350, 0.00, 2.60, 2.20,164.70,1,1, 0.00,10.00, 0.00, 0.00, 0.38,-0.25, 0.00, 0.00, 0.00,-50.00, 0.00, 0.00,-50.00,191.00,34.00, 1.00,77,0,1
20150827090306364,-124.308215,48.265350, 0.00, 2.60, 2.20,164.70,1,1, 0.00,10.00, 0.00, 0.00, 0.38,-0.25, 0.00, 0.00, 0.00,-50.00, 0.00, 0.00,-50.00,191.00,34.00, 1.00,87,0,1
20150827090306564,-124.308215,48.265350, 0.00, 2.60, 2.20,164.70,1,1, 0.00,10.00, 0.00, 0.00, 0.38,-0.25, 0.00, 0.00, 0.00,-50.00, 0.00, 0.00,-50.00,191.00,34.00, 1.00,97,0,1
20150827090306764,-124.308215,48.265350, 0.00, 2.60, 2.20,164.70,1,1, 0.00,10.00, 0.00, 0.00, 0.38,-0.25, 0.00, 0.00, 0.00,-50.00, 0.00, 0.00,-50.00,191.00,34.00, 1.00,107,0,1
20150827090306964,-124.308215,48.265350, 0.00, 2.60, 2.20,164.70,1,1, 0.00,10.00, 0.00, 0.00, 0.38,-0.25, 0.00, 0.00, 0.00,-50.00, 0.00, 0.00,-50.00,191.00,34.00, 1.00,117,0,1
20150827090307165,-124.308215,48.265350, 0.00, 2.60, 2.20,164.70,1,1, 0.00,10.00, 0.00, 0.00, 0.38,-0.25, 0.00, 0.00, 0.00,-50.00, 0.00, 0.00,-50.00,191.00,34.00, 1.00,127,0,1
20150827090307365,-124.308215,48.265350, 0.00, 2.60, 2.20,164.70,1,1, 0.00,10.00, 0.00, 0.00, 0.38,-0.25, 0.00, 0.00, 0.00,-50.00, 0.00, 0.00,-50.00,191.00,34.00, 1.00,137,0,1
20150827090307565,-124.308215,48.265350, 0.00, 2.60, 2.20,164.70,1,1, 0.00,10.00, 0.00, 0.00, 0.38,-0.25, 0.00, 0.00, 0.00,-50.00, 0.00, 0.00,-50.00,191.00,34.00, 1.00,147,0,1
20150827090307765,-124.308215,48.265350, 0.00, 2.60, 2.20,164.70,1,1, 0.00,10.00, 0.00, 0.00, 0.38,-0.25, 0.00, 0.00, 0.00,-50.00, 0.00, 0.00,-50.00,191.00,34.00, 1.00,157,0,1
20150827090307977,-124.308215,48.265350, 0.00, 2.60, 2.20,164.70,1,1, 0.00,10.00, 0.00, 0.00, 0.38,-0.25, 0.00, 0.00, 0.00,-50.00, 0.00, 0.00,-50.00,191.00,34.00, 1.00,167,0,1
20150827090308166,-124.308215,48.265350, 0.00, 2.60, 2.20,164.70,1,1, 0.00,10.00, 0.00, 0.00, 0.38,-0.25, 0.00, 0.00, 0.00,-50.00, 0.00, 0.00,-50.00,191.00,34.00, 1.00,177,0,1
20150827090308365,-124.308215,48.265350, 0.00, 2.60, 2.20,164.70,1,1, 0.00,10.00, 0.00, 0.00, 0.38,-0.25, 0.00, 0.00, 0.00,-50.00, 0.00, 0.00,-50.00,191.00,34.00, 1.00,187,0,1
20150827090308566,-124.308215,48.265350, 0.00, 2.60, 2.20,164.70,1,1, 0.00,10.00, 0.00, 0.00, 0.38,-0.25, 0.00, 0.00, 0.00,-50.00, 0.00, 0.00,-50.00,191.00,34.00, 1.00,196,0,1
20150827090308765,-124.308215,48.265350, 0.00, 2.60, 2.20,164.70,1,1, 0.00,10.00, 0.00, 0.00, 0.38,-0.25, 0.00, 0.00, 0.00,-50.00, 0.00, 0.00,-50.00,191.00,34.00, 1.00,206,0,1
20150827090308964,-124.308215,48.265350, 0.00, 2.60, 2.20,164.70,1,1, 0.00,10.00, 0.00, 0.00, 0.38,-0.25, 0.00, 0.00, 0.00,-50.00, 0.00, 0.00,-50.00,191.00,34.00, 1.00,215,0,1
20150827090309164,-124.308215,48.265350, 0.00, 2.60, 2.20,164.70,1,1, 0.00,10.00, 0.00, 0.00, 0.38,-0.25, 0.00, 0.00, 0.00,-50.00, 0.00, 0.00,-50.00,191.00,34.00, 1.00,225,0,1
20150827090309364,-124.308215,48.265350, 0.00, 2.60, 2.20,164.70,1,1, 0.00,10.00, 0.00, 0.00, 0.38,-0.25, 0.00, 0.00, 0.00,-50.00, 0.00, 0.00,-50.00,191.00,34.00, 1.00,235,0,1
20150827090309564,-124.308215,48.265350, 0.00, 2.60, 2.20,164.70,1,1, 0.00,10.00, 0.00, 0.00, 0.38,-0.25, 0.00, 0.00, 0.00,-50.00, 0.00, 0.00,-50.00,191.00,34.00, 1.00,245,0,1
20150827090309765,-124.308215,48.265350, 0.00, 2.60, 2.20,164.70,1,1, 0.00,10.00, 0.00, 0.00, 0.38,-0.25, 0.00, 0.00, 0.00,-50.00, 0.00, 0.00,-50.00,191.00,34.00, 1.00,255,0,1
20150827090309964,-124.308215,48.265350, 0.00, 2.60, 2.20,164.70,1,1, 0.00,10.00, 0.00, 0.00, 0.38,-0.25, 0.00, 0.00, 0.00,-50.00, 0.00, 0.00,-50.00,191.00,34.00, 1.00,9,0,1
20150827090310164,-124.308215,48.265350, 0.00, 2.60, 2.20,164.70,1,1, 0.00,10.00, 0.00, 0.00, 0.38,-0.25, 0.00, 0.00, 0.00,-50.00, 0.00, 0.00,-50.00,191.00,34.00, 1.00,19,0,1
20150827090310364,-124.308215,48.265350, 0.00, 2.60, 2.20,164.70,1,1, 0.00,10.00, 0.00, 0.00, 0.38,-0.25, 0.00, 0.00, 0.00,-50.00, 0.00, 0.00,-50.00,191.00,34.00, 1.00,29,0,1
20150827090310564,-124.308215,48.265350, 0.00, 2.60, 2.20,164.70,1,1, 0.00,10.00, 0.00, 0.00, 0.38,-0.25, 0.00, 0.00, 0.00,-50.00, 0.00, 0.00,-50.00,191.00,34.00, 1.00,38,0,1
20150827090310764,-124.308215,48.265350, 0.00, 2.60, 2.20,164.70,1,1, 0.00,10.00, 0.00, 0.00, 0.38,-0.25, 0.00, 0.00, 0.00,-50.00, 0.00, 0.00,-50.00,191.00,34.00, 1.00,48,0,1
20150827090310965,-124.308215,48.265350, 0.00, 2.60, 2.20,164.70,1,1, 0.00,10.00, 0.00, 0.00, 0.38,-0.25, 0.00, 0.00, 0.00,-50.00, 0.00, 0.00,-50.00,191.00,34.00, 1.00,58,0,1
20150827090311164,-124.308215,48.265350, 0.00, 2.60, 2.20,164.70,1,1, 0.00,10.00, 0.00, 0.00, 0.38,-0.25, 0.00, 0.00, 0.00,-50.00, 0.00, 0.00,-50.00,191.00,34.00, 1.00,68,0,1
20150827090311364,-124.308215,48.265350, 0.00, 2.60, 2.20,164.70,1,1, 0.00,10.00, 0.00, 0.00, 0.38,-0.25, 0.00, 0.00, 0.00,-50.00, 0.00, 0.00,-50.00,191.00,34.00, 1.00,78,0,1
20150827090311564,-124.308215,48.265350, 0.00, 2.60, 2.20,164.70,1,1, 0.00,10.00, 0.00, 0.00, 0.38,-0.25, 0.00, 0.00, 0.00,-50.00, 0.00, 0.00,-50.00,191.00,34.00, 1.00,87,0,1
20150827090311764,-124.308215,48.265350, 0.00, 2.60, 2.20,164.70,1,1, 0.00,10.00, 0.00, 0.00, 0.38,-0.25, 0.00, 0.00, 0.00,-50.00, 0.00, 0.00,-50.00,191.00,34.00, 1.00,97,0,1
20150827090311964,-124.308215,48.265350, 0.00, 2.60, 2.20,164.70,1,1, 0.00,10.00, 0.00, 0.00, 0.38,-0.25, 0.00, 0.00, 0.00,-50.00, 0.00, 0.00,-50.00,191.00,34.00, 1.00,107,0,1
20150827090312164,-124.308215,48.265350, 0.00, 2.60, 2.20,164.70,1,1, 0.00,10.00, 0.00, 0.00, 0.38,-0.25, 0.00, 0.00, 0.00,-50.00, 0.00, 0.00,-50.00,191.00,34.00, 1.00,117,0,1
20150827090312364,-124.308215,48.265350, 0.00, 2.60, 2.20,164.70,1,1, 0.00,10.00, 0.00, 0.00, 0.38,-0.25, 0.00, 0.00, 0.00,-50.00, 0.00, 0.00,-50.00,191.00,34.00, 1.00,127,0,1
20150827090312564,-124.308215,48.265350, 0.00, 2.60, 2.20,164.70,1,1, 0.00,10.00, 0.00, 0.00, 0.38,-0.25, 0.00, 0.00, 0.00,-50.00, 0.00, 0.00,-50.00,191.00,34.00, 1.00,136,0,1
20150827090312764,-124.308215,48.265350, 0.00, 2.60, 2.20,164.70,1,1, 0.00,10.00, 0.00, 0.00, 0.38,-0.25, 0.00, 0.00, 0.00,-50.00, 0.00, 0.00,-50.00,191.00,34.00, 1.00,146,0,1
20150827090312963,-124.308215,48.265350, 0.00, 2.60, 2.20,164.70,1,1, 0.00,10.00, 0.00, 0.00, 0.38,-0.25, 0.00, 0.00, 0.00,-50.00, 0.00, 0.00,-50.00,191.00,34.00, 1.00,156,0,1
20150827090313163,-124.308215,48.265350, 0.00, 2.60, 2.20,164.70,1,1, 0.00,10.00, 0.00, 0.00, 0.38,-0.25, 0.00, 0.00, 0.00,-50.00, 0.00, 0.00,-50.00,191.00,34.00, 1.00,166,0,1
20150827090313363,-124.308215,48.265350, 0.00, 2.60, 2.20,164.70,1,1, 0.00,10.00, 0.00, 0.00, 0.38,-0.25, 0.00, 0.00, 0.00,-50.00, 0.00, 0.00,-50.00,191.00,34.00, 1.00,176,0,1
20150827090313563,-124.308215,48.265350, 0.00, 2.60, 2.20,164.70,1,1, 0.00,10.00, 0.00, 0.00, 0.38,-0.25, 0.00, 0.00, 0.00,-50.00, 0.00, 0.00,-50.00,191.00,34.00, 1.00,182,0,1
20150827090313763,-124.308215,48.265350, 0.00, 2.60, 2.20,164.70,1,1, 0.00,10.00, 0.00, 0.00, 0.38,-0.25, 0.00, 0.00, 0.00,-50.00, 0.00, 0.00,-50.00,191.00,34.00, 1.00,182,0,1
20150827090313963,-124.308215,48.265350, 0.00, 2.60, 2.20,164.30,1,1, 0.00,10.00, 0.00, 0.00, 0.38,-0.25, 0.00, 0.00, 0.00,-50.00, 0.00, 0.00,-50.00,191.00,32.00, 0.00,183,0,1
20150827090314163,-124.308215,48.265350, 0.00, 1.00, 2.20,157.20,1,1, 0.00,10.00, 0.00, 0.00, 0.42,-0.25, 0.00, 0.00,-20.00,-50.00, 0.00,-20.00,-50.00,177.00,10.00, 1.00,192,0,1
20150827090314363,-124.308215,48.265345, 0.00,-0.40, 2.10,152.50,1,1, 0.00,10.00, 0.00, 0.00, 0.45,-0.25, 0.00, 0.00,-20.00,-60.00, 0.00,-20.00,-60.00,162.00,28.00, 1.00,198,0,1
20150827090314564,-124.308215,48.265345, 0.00,-0.70, 2.00,151.40,1,1, 0.00,10.00, 0.00, 0.00, 0.46,-0.24, 0.00, 0.00,-10.00,-60.00, 0.00,-10.00,-60.00,159.00,31.00, 1.00,199,0,1
20150827090314763,-124.308210,48.265340, 0.00,-0.70, 2.40,143.00,1,1, 0.00,10.00, 0.00, 0.00, 0.46,-0.26, 0.00, 0.00, 0.00,-80.00, 0.00, 0.00,-80.00,149.00,71.00, 0.00,204,0,1
20150827090314963,-124.308210,48.265335, 0.00, 1.10, 1.80,130.00,1,1, 0.00,10.00, 0.00, 0.00, 0.42,-0.24, 0.00, 0.00, 0.00,-90.00, 0.00, 0.00,-90.00,127.00,98.00, 0.00,213,0,1
20150827090315163,-124.308210,48.265335, 0.00, 1.60, 1.90,118.90,1,1, 0.00,10.00, 0.00, 0.00, 0.41,-0.24, 0.00, 0.00, 0.00,-90.00, 0.00, 0.00,-90.00,99.00,114.00, 0.00,222,0,1
20150827090315363,-124.308200,48.265335, 0.00, 1.90, 2.60,108.00,1,1, 0.00,10.00, 0.00, 0.00, 0.40,-0.26, 0.00, 0.00, 0.00,-90.00, 0.00, 0.00,-90.00,66.00,165.00, 0.00,231,0,1
20150827090315563,-124.308200,48.265335, 0.00, 3.80, 2.00,99.10,2,2, 0.00,10.00, 0.00, 0.00, 0.35,-0.25, 0.00, 0.00,10.00,-90.00, 0.00,10.00,-90.00,45.00,229.00, 1.00,238,0,1
20150827090315763,-124.308195,48.265335, 0.01, 6.50, 1.40,88.80,2,2, 0.00,10.00, 0.00, 0.00, 0.28,-0.23, 0.00, 0.00,20.00,-90.00, 0.00,20.00,-90.00,11.00,295.00, 2.00,245,0,1
20150827090315963,-124.308185,48.265335, 0.01, 9.50, 1.20,78.50,3,3, 0.00,10.00, 0.00, 0.00, 0.21,-0.23, 0.00,10.00,20.00,-80.00,10.00,20.00,-80.00,39.00,350.00, 2.00,251,0,1
20150827090316163,-124.308170,48.265335, 0.02,12.60, 0.70,68.60,3,3, 0.00,10.00, 0.00, 0.00, 0.13,-0.22, 0.00,10.00,20.00,-80.00,10.00,20.00,-80.00,103.00,390.00, 1.00,1,0,1
20150827090316363,-124.308165,48.265335, 0.02,13.10, 0.10,60.50,4,4, 0.00,10.00, 0.00, 0.00, 0.12,-0.22, 0.00,10.00, 0.00,-60.00,10.00, 0.00,-60.00,160.00,410.00, 3.00,7,0,1
20150827090316563,-124.308150,48.265340, 0.02,12.20, 0.50,54.00,4,4, 0.00,10.00, 0.00, 0.00, 0.14,-0.22, 0.00, 0.00, 0.00,-40.00, 0.00, 0.00,-40.00,236.00,420.00, 2.00,14,0,1
20150827090316763,-124.308140,48.265350, 0.02,11.70, 0.20,50.10,5,5, 0.00,10.00, 0.00, 0.00, 0.15,-0.22, 0.00, 0.00, 0.00,-20.00, 0.00, 0.00,-20.00,299.00,429.00, 2.00,21,0,1
20150827090316962,-124.308125,48.265350, 0.02,11.70,-0.20,48.00,5,5, 0.00,10.00, 0.00, 0.00, 0.15,-0.22, 0.00, 0.00, 0.00,-10.00, 0.00, 0.00,-10.00,350.00,440.00, 2.00,28,0,1
20150827090317162,-124.308110,48.265360, 0.02,12.10,-0.70,47.20,5,5, 0.00,10.00, 0.00, 0.00, 0.14,-0.22, 0.00, 0.00, 0.00, 0.00, 0.00, 0.00, 0.00,397.00,458.00, 2.00,36,0,1
20150827090317362,-124.308105,48.265365, 0.02,12.60,-0.90,47.30,6,6, 0.00,10.00, 0.00, 0.00, 0.13,-0.22, 0.00, 0.00, 0.00, 0.00, 0.00, 0.00, 0.00,430.00,477.00, 1.00,43,0,1
20150827090317562,-124.308090,48.265375, 0.03,12.90,-1.90,48.00,6,6, 0.00,10.00, 0.00, 0.00, 0.12,-0.15, 0.00,-10.00, 0.00, 0.00,-10.00, 0.00, 0.00,462.00,498.00, 1.00,51,0,1
20150827090317762,-124.308070,48.265380, 0.05,13.00,-3.70,48.80,6,6, 0.00,10.00, 0.00, 0.00, 0.12,-0.10, 0.00,-10.00, 0.00, 0.00,-10.00, 0.00, 0.00,490.00,515.00, 9.00,58,0,1
20150827090317962,-124.308055,48.265395, 0.09,13.00,-5.20,49.50,7,7, 0.00,10.00, 0.00, 0.00, 0.12,-0.07, 0.00,-10.00, 0.00, 0.00,-10.00, 0.00, 0.00,522.00,531.00,22.00,66,0,1
20150827090318162,-124.308040,48.265400, 0.16,13.20,-6.10,49.40,7,7, 0.00,10.00, 0.00, 0.00, 0.12,-0.04, 0.00, 0.00, 0.00, 0.00, 0.00, 0.00, 0.00,549.00,543.00,34.00,73,0,1
20150827090318362,-124.308035,48.265415, 0.25,13.60,-6.90,48.50,7,7, 0.00,10.00, 0.00, 0.00, 0.10,-0.01, 0.00, 0.00, 0.00,-10.00, 0.00, 0.00,-10.00,576.00,551.00,49.00,80,0,1
20150827090318562,-124.308020,48.265420, 0.37,13.90,-7.70,46.80,8,8, 0.00,10.00, 0.00, 0.00, 0.10, 0.01, 0.00, 0.00, 0.00,-10.00, 0.00, 0.00,-10.00,603.00,552.00,65.00,87,0,1
20150827090318762,-124.308005,48.265435, 0.54,14.30,-8.70,44.30,8,8, 0.00,10.00, 0.00, 0.00, 0.09, 0.04, 0.00, 0.00, 0.00,-20.00, 0.00, 0.00,-20.00,636.00,547.00,84.00,95,0,1
20150827090318962,-124.307990,48.265445, 0.74,14.50,-9.50,41.60,8,8, 0.00,10.00, 0.00, 0.00, 0.08, 0.07, 0.00, 0.00, 0.00,-20.00, 0.00, 0.00,-20.00,669.00,534.00,100.00,103,0,1
20150827090319162,-124.307975,48.265460, 0.95,14.70,-10.10,39.20,8,8, 0.00,10.00, 0.00, 0.00, 0.08, 0.10, 0.00, 0.00, 0.00,-20.00, 0.00, 0.00,-20.00,700.00,518.00,111.00,110,0,1
20150827090319362,-124.307960,48.265470, 1.21,14.80,-10.40,36.60,8,8, 0.00,10.00, 0.00, 0.00, 0.08, 0.12, 0.00, 0.00, 0.00,-10.00, 0.00, 0.00,-10.00,734.00,494.00,122.00,118,0,1
20150827090319562,-124.307950,48.265480, 1.43,15.00,-10.40,34.70,8,8, 0.00,10.00, 0.00, 0.00, 0.07, 0.13, 0.00, 0.00, 0.00,-10.00, 0.00, 0.00,-10.00,761.00,473.00,130.00,124,0,1
20150827090319762,-124.307935,48.265495, 1.73,15.20,-10.10,32.50,9,9, 0.00,10.00, 0.00, 0.00, 0.07, 0.13, 0.00, 0.00, 0.00,-10.00, 0.00, 0.00,-10.00,794.00,444.00,138.00,132,0,1
20150827090319962,-124.307920,48.265510, 2.00,15.30,-9.70,30.90,9,9, 0.00,10.00, 0.00, 0.00, 0.05, 0.13, 0.00, 0.00, 0.00,-10.00, 0.00, 0.00,-10.00,818.00,419.00,145.00,139,0,1
20150827090320162,-124.307910,48.265525, 2.32,15.50,-9.10,29.20,9,9, 0.00,10.00, 0.00, 0.00, 0.04, 0.13, 0.00, 0.00, 0.00,-10.00, 0.00, 0.00,-10.00,844.00,392.00,152.00,147,0,1
20150827090320362,-124.307905,48.265540, 2.65,15.40,-8.40,27.70,9,9, 0.00,10.00, 0.00, 0.00, 0.03, 0.12, 0.00, 0.00, 0.00,-10.00, 0.00, 0.00,-10.00,867.00,367.00,155.00,155,0,1
20150827090320562,-124.307890,48.265560, 2.95,15.10,-7.80,26.40,9,9, 0.00,10.00, 0.00, 0.00, 0.02, 0.12, 0.00, 0.00, 0.00,-10.00, 0.00, 0.00,-10.00,887.00,347.00,156.00,162,0,1
20150827090320762,-124.307880,48.265575, 3.28,14.60,-7.00,25.10,9,9, 0.00,10.00, 0.00, 0.00, 0.02, 0.11, 0.00, 0.00, 0.00,-10.00, 0.00, 0.00,-10.00,908.00,326.00,153.00,170,0,1
20150827090320962,-124.307875,48.265590, 3.60,14.10,-6.30,23.90,9,9, 0.00,10.00, 0.00, 0.00, 0.02, 0.11, 0.00, 0.00, 0.00, 0.00, 0.00, 0.00, 0.00,929.00,309.00,147.00,178,0,1
20150827090321162,-124.307865,48.265605, 3.90,13.60,-5.60,22.80,9,9, 0.00,10.00, 0.00, 0.00, 0.02, 0.10, 0.00, 0.00, 0.00, 0.00, 0.00, 0.00, 0.00,950.00,294.00,141.00,186,0,1
20150827090321361,-124.307860,48.265625, 4.16,13.20,-5.00,21.90,10,10, 0.00,10.00, 0.00, 0.00, 0.02, 0.10, 0.00, 0.00, 0.00, 0.00, 0.00, 0.00, 0.00,968.00,282.00,135.00,193,0,1
20150827090321561,-124.307850,48.265640, 4.44,12.70,-4.30,21.10,10,10, 0.00,10.00, 0.00, 0.00, 0.02, 0.10, 0.00, 0.00, 0.00, 0.00, 0.00, 0.00, 0.00,989.00,270.00,129.00,201,0,1
20150827090321761,-124.307845,48.265660, 4.71,12.30,-3.60,20.40,10,10, 0.00,10.00, 0.00, 0.00, 0.01, 0.09, 0.00, 0.00, 0.00, 0.00, 0.00, 0.00, 0.00,1009.00,261.00,124.00,209,0,1
20150827090321961,-124.307835,48.265680, 4.97,11.80,-2.90,19.90,10,10, 0.00,10.00, 0.00, 0.00, 0.01, 0.09, 0.00, 0.00, 0.00, 0.00, 0.00, 0.00, 0.00,1028.00,253.00,120.00,217,0,1
20150827090322161,-124.307830,48.265700, 5.22,11.40,-2.20,19.40,10,10, 0.00,10.00, 0.00, 0.00, 0.01, 0.08, 0.00, 0.00, 0.00, 0.00, 0.00, 0.00, 0.00,1047.00,248.00,115.00,225,0,1
20150827090322668,-124.307820,48.265720, 5.46,11.00,-1.50,19.20,10,10, 0.00,10.00, 0.00, 0.00, 0.01, 0.08, 0.00, 0.00, 0.00, 0.00, 0.00, 0.00, 0.00,1066.00,245.00,111.00,233,0,1
20150827090323175,-124.307815,48.265735, 5.69,10.60,-0.80,19.00,11,11, 0.00,10.00, 0.00, 0.00, 0.01, 0.08, 0.00, 0.00, 0.00, 0.00, 0.00, 0.00, 0.00,1084.00,244.00,107.00,241,0,1
20150827090323182,-124.307815,48.265755, 5.91,10.20,-0.10,19.00,11,11, 0.00,10.00, 0.00, 0.00, 0.00, 0.08, 0.00, 0.00, 0.00, 0.00, 0.00, 0.00, 0.00,1102.00,246.00,102.00,249,0,1
20150827090323686,-124.307805,48.265775, 6.12, 9.80, 0.60,19.00,11,11, 0.00,10.00, 0.00, 0.00, 0.00, 0.08, 0.00, 0.00, 0.00, 0.00, 0.00, 0.00, 0.00,1119.00,250.00,98.00,1,0,1
20150827090323693,-124.307800,48.265795, 6.32, 9.40, 1.30,19.10,11,11, 0.00,10.00, 0.00, 0.00, 0.00, 0.06, 0.00, 0.00, 0.00, 0.00, 0.00, 0.00, 0.00,1136.00,257.00,94.00,9,0,1
20150827090323706,-124.307790,48.265815, 6.51, 9.10, 1.90,19.30,11,11, 0.00,10.00, 0.00, 0.00, 0.00, 0.05, 0.00, 0.00, 0.00, 0.00, 0.00, 0.00, 0.00,1152.00,266.00,91.00,17,0,1
20150827090324212,-124.307785,48.265835, 6.70, 8.70, 2.40,19.60,11,11, 0.00,10.00, 0.00, 0.00, 0.00, 0.05, 0.00, 0.00, 0.00, 0.00, 0.00, 0.00, 0.00,1167.00,276.00,87.00,25,0,1
20150827090324228,-124.307775,48.265860, 6.90, 8.30, 3.00,20.10,12,12, 0.00,10.00, 0.00, 0.00, 0.00, 0.05, 0.00, 0.00, 0.00, 0.00, 0.00, 0.00, 0.00,1184.00,290.00,83.00,34,0,1
20150827090324734,-124.307765,48.265880, 7.07, 7.90, 3.50,20.60,12,12, 0.00,10.00, 0.00, 0.00, 0.00, 0.05, 0.00, 0.00, 0.00, 0.00, 0.00, 0.00, 0.00,1199.00,305.00,79.00,42,0,1
