timestamp,lon,lat,alt,pitch,roll,yaw,dyaw,airspeed,groundspeed, yawcmd,pitchcmd,rollcmd,tyaw,tpitch,troll,throttle,rvx,rvy,rvz,accx,accy,accz,speN,speE,speD,gpsSta,nStNum,insSta
20150827083343655,-124.319820,48.266810, 0.00, 0.70, 0.00,100.70,0,0, 0.00, 0.00, 0.00, 0.00, 0.00, 0.00,-1.00, 0.00, 0.00, 0.00, 0.00, 0.00, 0.00, 0.00, 0.00, 0.00,203,0,1
20150827083343749,-124.319820,48.266810, 0.00, 0.70, 0.00,100.70,0,0, 0.00, 0.00, 0.00, 0.00, 0.00, 0.00,-1.00, 0.00, 0.00, 0.00, 0.00, 0.00, 0.00, 0.00, 0.00, 0.00,212,0,1
20150827083343949,-124.319820,48.266810, 0.00, 0.70, 0.00,100.70,0,0, 0.00, 0.00, 0.00, 0.00, 0.00, 0.00,-1.00, 0.00, 0.00, 0.00, 0.00, 0.00, 0.00, 0.00, 0.00, 0.00,221,0,1
20150827083344149,-124.319820,48.266810, 0.00, 0.70, 0.00,100.70,0,0, 0.00, 0.00, 0.00, 0.00, 0.00, 0.00,-1.00, 0.00, 0.00, 0.00, 0.00, 0.00, 0.00, 0.00, 0.00, 0.00,230,0,1
20150827083344348,-124.319820,48.266810, 0.00, 0.70, 0.00,100.70,0,0, 0.00, 0.00, 0.00, 0.00, 0.00, 0.00,-1.00, 0.00, 0.00, 0.00, 0.00, 0.00, 0.00, 0.00, 0.00, 0.00,239,0,1
20150827083344549,-124.319820,48.266810, 0.00, 0.70, 0.00,100.70,0,0, 0.00, 0.00, 0.00, 0.00, 0.00, 0.00,-1.00, 0.00, 0.00, 0.00, 0.00, 0.00, 0.00, 0.00, 0.00, 0.00,248,0,1
20150827083344748,-124.319820,48.266810, 0.00, 0.70, 0.00,100.70,0,0, 0.00, 0.00, 0.00, 0.00, 0.00, 0.00,-1.00, 0.00, 0.00, 0.00, 0.00, 0.00, 0.00, 0.00, 0.00, 0.00,1,0,1
20150827083344948,-124.319820,48.266810, 0.00, 0.70, 0.00,100.70,0,0, 0.00, 0.00, 0.00, 0.00, 0.00, 0.00,-1.00, 0.00, 0.00, 0.00, 0.00, 0.00, 0.00, 0.00, 0.00, 0.00,10,0,1
20150827083345148,-124.319820,48.266810, 0.00, 0.70, 0.00,100.70,0,0, 0.00, 0.00, 0.00, 0.00, 0.00, 0.00,-1.00, 0.00, 0.00, 0.00, 0.00, 0.00, 0.00, 0.00, 0.00, 0.00,19,0,1
20150827083345348,-124.319820,48.266810, 0.00, 0.70, 0.00,100.70,0,0, 0.00, 0.00, 0.00, 0.00,-0.01, 0.00, 0.00, 0.00, 0.00, 0.00, 0.00, 0.00, 0.00, 0.00, 0.00, 0.00,28,0,1
20150827083345548,-124.319820,48.266810, 0.00, 0.70, 0.00,100.70,0,0, 0.00, 0.00, 0.00, 0.00,-0.02, 0.00, 0.00, 0.00, 0.00, 0.00, 0.00, 0.00, 0.00, 0.00, 0.00, 0.00,37,0,1
20150827083345748,-124.319820,48.266810, 0.00, 0.80,-0.10,100.70,0,0, 0.00, 0.00, 0.00, 0.00,-0.02, 0.00, 0.00, 0.00, 0.00, 0.00, 0.00, 0.00, 0.00, 0.00, 0.00, 0.00,46,0,1
20150827083345948,-124.319820,48.266810, 0.00, 0.90,-0.20,100.70,0,0, 0.00, 0.00, 0.00, 0.00,-0.03, 0.00, 0.00, 0.00, 0.00, 0.00, 0.00, 0.00, 0.00, 0.00, 0.00, 0.00,55,0,1
20150827083346148,-124.319820,48.266810, 0.00, 1.00,-0.20,100.70,0,0, 0.00, 0.00, 0.00, 0.00,-0.04, 0.00, 0.00, 0.00, 0.00, 0.00, 0.00, 0.00, 0.00, 0.00, 0.00, 0.00,64,0,1
20150827083346348,-124.319820,48.266810, 0.00, 1.10,-0.20,100.70,0,0, 0.00, 0.00, 0.00, 0.00,-0.04, 0.00, 0.00, 0.00, 0.00, 0.00, 0.00, 0.00, 0.00, 0.00, 0.00, 0.00,73,0,1
20150827083346548,-124.319820,48.266810, 0.00, 1.20,-0.20,100.70,0,0, 0.00, 0.00, 0.00, 0.00,-0.05, 0.00, 0.00, 0.00, 0.00, 0.00, 0.00, 0.00, 0.00, 0.00, 0.00, 0.00,82,0,1
20150827083346748,-124.319820,48.266810, 0.00, 1.10,-0.20,100.70,0,0, 0.00, 0.00, 0.00, 0.00,-0.05, 0.00, 0.00, 0.00, 0.00, 0.00, 0.00, 0.00, 0.00, 0.00, 0.00, 0.00,91,0,1
20150827083346948,-124.319820,48.266810, 0.00, 1.10,-0.20,100.70,0,0, 0.00, 0.00, 0.00, 0.00,-0.06, 0.00, 0.00, 0.00, 0.00, 0.00, 0.00, 0.00, 0.00, 0.00, 0.00, 0.00,100,0,1
20150827083347148,-124.319820,48.266810, 0.00, 1.10,-0.20,100.70,0,0, 0.00, 0.00, 0.00, 0.00,-0.06, 0.00, 0.00, 0.00, 0.00, 0.00, 0.00, 0.00, 0.00, 0.00, 0.00, 0.00,109,0,1
20150827083347348,-124.319820,48.266810, 0.00, 1.10,-0.20,100.70,0,0, 0.00, 0.00, 0.00, 0.00,-0.07, 0.00, 0.00, 0.00, 0.00, 0.00, 0.00, 0.00, 0.00, 0.00, 0.00, 0.00,118,0,1
20150827083347548,-124.319820,48.266810, 0.00, 1.00,-0.20,100.70,0,0, 0.00, 0.00, 0.00, 0.00,-0.07, 0.00, 0.00, 0.00, 0.00, 0.00, 0.00, 0.00, 0.00, 0.00, 0.00, 0.00,127,0,1
20150827083347748,-124.319820,48.266810, 0.00, 1.00,-0.20,100.70,0,0, 0.00, 0.00, 0.00, 0.00,-0.08, 0.00, 0.00, 0.00, 0.00, 0.00, 0.00, 0.00, 0.00, 0.00, 0.00, 0.00,136,0,1
20150827083347948,-124.319820,48.266810, 0.00, 1.00,-0.20,100.70,0,0, 0.00, 0.00, 0.00, 0.00,-0.09, 0.00, 0.00, 0.00, 0.00, 0.00, 0.00, 0.00, 0.00, 0.00, 0.00, 0.00,146,0,1
20150827083348148,-124.319820,48.266810, 0.00, 0.90,-0.20,100.70,0,0, 0.00, 0.00, 0.00, 0.00,-0.09, 0.00, 0.00, 0.00, 0.00, 0.00, 0.00, 0.00, 0.00, 0.00, 0.00, 0.00,155,0,1
20150827083348348,-124.319820,48.266810, 0.00, 0.90,-0.20,100.70,0,0, 0.00, 0.00, 0.00, 0.00,-0.09, 0.00, 0.00, 0.00, 0.00, 0.00, 0.00, 0.00, 0.00, 0.00, 0.00, 0.00,164,0,1
20150827083348548,-124.319820,48.266810, 0.00, 0.90,-0.20,100.70,0,0, 0.00, 0.00, 0.00, 0.00,-0.10, 0.00, 0.00, 0.00, 0.00, 0.00, 0.00, 0.00, 0.00, 0.00, 0.00, 0.00,173,0,1
20150827083348747,-124.319820,48.266810, 0.00, 0.80,-0.20,100.70,0,0, 0.00,10.00, 0.00, 0.00,-0.10, 0.00, 0.00, 0.00, 0.00, 0.00, 0.00, 0.00, 0.00, 0.00, 0.00, 0.00,182,0,1
20150827083348947,-124.319820,48.266810, 0.00, 0.80,-0.20,100.70,0,0, 0.00,10.00, 0.00, 0.00,-0.05, 0.00, 0.00, 0.00, 0.00, 0.00, 0.00, 0.00, 0.00, 0.00, 0.00, 0.00,191,0,1
20150827083349149,-124.319820,48.266810, 0.00, 1.10,-0.20,100.70,0,0, 0.00,10.00, 0.00, 0.00, 0.05, 0.00, 0.00, 0.00, 0.00, 0.00, 0.00, 0.00, 0.00, 0.00, 0.00, 0.00,200,0,1
20150827083349348,-124.319820,48.266810, 0.00, 1.70,-0.20,100.70,0,0, 0.00,10.00, 0.00, 0.00, 0.10, 0.00, 0.00, 0.00, 0.00, 0.00, 0.00, 0.00, 0.00, 0.00, 0.00, 0.00,209,0,1
20150827083349547,-124.319820,48.266810, 0.00, 2.30,-0.20,100.70,0,0, 0.00,10.00, 0.00, 0.00, 0.10, 0.00, 0.00, 0.00, 0.00, 0.00, 0.00, 0.00, 0.00, 0.00, 0.00, 0.00,218,0,1
20150827083349747,-124.319820,48.266810, 0.00, 2.40,-0.20,100.70,0,0, 0.00,10.00, 0.00, 0.00, 0.11, 0.00, 0.00, 0.00, 0.00, 0.00, 0.00, 0.00, 0.00, 0.00, 0.00, 0.00,227,0,1
20150827083349947,-124.319820,48.266810, 0.00, 2.30,-0.20,100.70,0,0, 0.00,10.00, 0.00, 0.00, 0.12, 0.00, 0.00, 0.00, 0.00, 0.00, 0.00, 0.00, 0.00, 0.00, 0.00, 0.00,236,0,1
20150827083350147,-124.319820,48.266810, 0.00, 2.20,-0.20,100.70,0,0, 0.00,10.00, 0.00, 0.00, 0.13, 0.00, 0.00, 0.00, 0.00, 0.00, 0.00, 0.00, 0.00, 0.00, 0.00, 0.00,245,0,1
20150827083350347,-124.319820,48.266810, 0.00, 2.30,-0.20,100.70,0,0, 0.00,10.00, 0.00, 0.00, 0.14, 0.00, 0.00, 0.00, 0.00, 0.00, 0.00, 0.00, 0.00, 0.00, 0.00, 0.00,254,0,1
20150827083350547,-124.319820,48.266810, 0.00, 2.40,-0.20,100.70,0,0, 0.00,10.00, 0.00, 0.00, 0.15, 0.00, 0.00, 0.00, 0.00, 0.00, 0.00, 0.00, 0.00, 0.00, 0.00, 0.00,7,0,1
20150827083350747,-124.319820,48.266810, 0.00, 2.50,-0.20,100.70,0,0, 0.00,10.00, 0.00, 0.00, 0.15, 0.00, 0.00, 0.00, 0.00, 0.00, 0.00, 0.00, 0.00, 0.00, 0.00, 0.00,16,0,1
20150827083350947,-124.319820,48.266810, 0.00, 2.50,-0.20,100.70,0,0, 0.00,10.00, 0.00, 0.00, 0.17, 0.00, 0.00, 0.00, 0.00, 0.00, 0.00, 0.00, 0.00, 0.00, 0.00, 0.00,25,0,1
20150827083351147,-124.319820,48.266810, 0.00, 2.60,-0.20,100.70,0,0, 0.00,10.00, 0.00, 0.00, 0.17, 0.00, 0.00, 0.00, 0.00, 0.00, 0.00, 0.00, 0.00, 0.00, 0.00, 0.00,34,0,1
20150827083351347,-124.319820,48.266810, 0.00, 2.60,-0.20,100.70,0,0, 0.00,10.00, 0.00, 0.00, 0.19, 0.00, 0.00, 0.00, 0.00, 0.00, 0.00, 0.00, 0.00, 0.00, 0.00, 0.00,43,0,1
20150827083351547,-124.319820,48.266810, 0.00, 2.70,-0.20,100.70,0,0, 0.00,10.00, 0.00, 0.00, 0.19, 0.00, 0.00, 0.00, 0.00, 0.00, 0.00, 0.00, 0.00, 0.00, 0.00, 0.00,52,0,1
20150827083351747,-124.319820,48.266810, 0.00, 2.80,-0.20,100.70,0,0, 0.00,10.00, 0.00, 0.00, 0.20, 0.00, 0.00, 0.00, 0.00, 0.00, 0.00, 0.00, 0.00, 0.00, 0.00, 0.00,60,0,1
20150827083351947,-124.319820,48.266805, 0.00, 2.80,-0.50,101.40,0,0, 0.00,10.00, 0.00, 0.00, 0.22, 0.00, 0.00, 0.00, 0.00,10.00, 0.00, 0.00,10.00,12.00,83.00, 0.00,70,0,1
20150827083352147,-124.319820,48.266805, 0.00, 2.90,-0.80,102.80,1,1, 0.00,10.00, 0.00, 0.00, 0.23, 0.00, 0.00, 0.00, 0.00,10.00, 0.00, 0.00,10.00,28.00,144.00, 0.00,78,0,1
20150827083352346,-124.319815,48.266805, 0.00, 3.10,-0.80,105.10,2,2, 0.00,10.00, 0.00, 0.00, 0.23, 0.00, 0.00, 0.00, 0.00,20.00, 0.00, 0.00,20.00,52.00,210.00, 0.00,87,0,1
20150827083352547,-124.319805,48.266805, 0.00, 3.30,-0.90,108.00,2,2, 0.00,10.00, 0.00, 0.00, 0.24, 0.00, 0.00, 0.00, 0.00,20.00, 0.00, 0.00,20.00,82.00,274.00, 0.00,97,0,1
20150827083352747,-124.319800,48.266800, 0.00, 3.50,-1.00,111.10,3,3, 0.00,10.00, 0.00, 0.00, 0.25, 0.02, 0.00, 0.00, 0.00,20.00, 0.00, 0.00,20.00,116.00,331.00, 0.00,107,0,1
20150827083352946,-124.319790,48.266800, 0.00, 3.90,-1.10,114.30,4,4, 0.00,10.00, 0.00, 0.00, 0.25, 0.03, 0.00, 0.00, 0.00,20.00, 0.00, 0.00,20.00,156.00,382.00, 0.00,117,0,1
20150827083353146,-124.319775,48.266795, 0.00, 4.80,-1.10,117.20,4,4, 0.00,10.00, 0.00, 0.00, 0.24, 0.03, 0.00, 0.00, 0.00,20.00, 0.00, 0.00,20.00,199.00,426.00, 0.00,127,0,1
20150827083353347,-124.319770,48.266795, 0.00, 6.10,-1.10,120.00,5,5, 0.00,10.00, 0.00, 0.00, 0.22, 0.04, 0.00, 0.00,10.00,20.00, 0.00,10.00,20.00,243.00,467.00, 0.00,137,0,1
20150827083353547,-124.319755,48.266790, 0.00, 7.90,-0.90,122.30,5,5, 0.00,10.00, 0.00, 0.00, 0.19, 0.04, 0.00, 0.00,10.00,10.00, 0.00,10.00,10.00,285.00,503.00, 1.00,147,0,1
20150827083353746,-124.319740,48.266780, 0.01, 9.90,-0.60,124.30,6,6, 0.00,10.00, 0.00, 0.00, 0.16, 0.04, 0.00, 0.00,10.00,10.00, 0.00,10.00,10.00,321.00,534.00, 3.00,157,0,1
20150827083353946,-124.319725,48.266780, 0.01,11.80,-0.20,125.90,6,6, 0.00,10.00, 0.00, 0.00, 0.11, 0.04, 0.00, 0.00,10.00,10.00, 0.00,10.00,10.00,351.00,562.00, 3.00,167,0,1
20150827083354146,-124.319705,48.266770, 0.02,13.30, 0.30,127.30,6,6, 0.00,10.00, 0.00, 0.00, 0.09, 0.04, 0.00, 0.00, 0.00, 0.00, 0.00, 0.00, 0.00,374.00,590.00, 6.00,178,0,1
20150827083354346,-124.319690,48.266765, 0.05,13.70, 0.80,128.00,7,7, 0.00,10.00, 0.00, 0.00, 0.09, 0.04, 0.00, 0.00, 0.00, 0.00, 0.00, 0.00, 0.00,393.00,609.00,20.00,187,0,1
20150827083354853,-124.319675,48.266755, 0.10,13.60, 1.20,128.30,7,7, 0.00,10.00, 0.00, 0.00, 0.10, 0.01, 0.00, 0.00, 0.00, 0.00, 0.00, 0.00, 0.00,414.00,627.00,35.00,197,0,1
20150827083355360,-124.319660,48.266750, 0.18,13.70, 1.00,128.20,7,7, 0.00,10.00, 0.00, 0.00, 0.10, 0.01, 0.00, 0.00, 0.00, 0.00, 0.00, 0.00, 0.00,433.00,644.00,46.00,207,0,1
20150827083355367,-124.319640,48.266740, 0.29,14.00, 0.60,127.90,7,7, 0.00,10.00, 0.00, 0.00, 0.10, 0.01, 0.00, 0.00, 0.00, 0.00, 0.00, 0.00, 0.00,449.00,660.00,60.00,217,0,1
20150827083355873,-124.319625,48.266735, 0.43,14.40, 0.20,127.50,8,8, 0.00,10.00, 0.00, 0.00, 0.09, 0.01, 0.00, 0.00, 0.00, 0.00, 0.00, 0.00, 0.00,461.00,674.00,76.00,227,0,1
20150827083355879,-124.319610,48.266725, 0.60,14.90,-0.30,127.10,8,8, 0.00,10.00, 0.00, 0.00, 0.07, 0.01, 0.00, 0.00, 0.00, 0.00, 0.00, 0.00, 0.00,468.00,688.00,93.00,237,0,1
20150827083355884,-124.319585,48.266715, 0.81,15.20,-0.80,126.90,8,8, 0.00,10.00, 0.00, 0.00, 0.07, 0.01, 0.00, 0.00, 0.00, 0.00, 0.00, 0.00, 0.00,472.00,701.00,109.00,247,0,1
20150827083356388,-124.319570,48.266705, 1.02,15.40,-1.10,126.70,8,8, 0.00,10.00, 0.00, 0.00, 0.06, 0.04, 0.00, 0.00, 0.00, 0.00, 0.00, 0.00, 0.00,474.00,711.00,121.00,0,0,1
20150827083356403,-124.319545,48.266700, 1.29,15.60,-1.20,126.60,8,8, 0.00,10.00, 0.00, 0.00, 0.05, 0.05, 0.00, 0.00, 0.00, 0.00, 0.00, 0.00, 0.00,475.00,723.00,132.00,10,0,1
20150827083356909,-124.319530,48.266690, 1.57,15.80,-1.10,126.40,8,8, 0.00,10.00, 0.00, 0.00, 0.05, 0.05, 0.00, 0.00, 0.00, 0.00, 0.00, 0.00, 0.00,475.00,732.00,141.00,20,0,1
20150827083356916,-124.319510,48.266685, 1.84,15.90,-1.00,126.10,8,8, 0.00,10.00, 0.00, 0.00, 0.05, 0.05, 0.00, 0.00, 0.00, 0.00, 0.00, 0.00, 0.00,476.00,741.00,147.00,29,0,1
20150827083356921,-124.319485,48.266670, 2.15,15.90,-0.90,125.70,8,8, 0.00,10.00, 0.00, 0.00, 0.05, 0.06, 0.00, 0.00, 0.00, 0.00, 0.00, 0.00, 0.00,476.00,750.00,153.00,39,0,1
20150827083356929,-124.319470,48.266665, 2.48,16.00,-0.80,125.40,9,9, 0.00,10.00, 0.00, 0.00, 0.04, 0.06, 0.00, 0.00, 0.00, 0.00, 0.00, 0.00, 0.00,476.00,758.00,158.00,49,0,1
20150827083356949,-124.319450,48.266655, 2.77,16.10,-0.70,125.10,9,9, 0.00,10.00, 0.00, 0.00, 0.04, 0.06, 0.00, 0.00, 0.00, 0.00, 0.00, 0.00, 0.00,475.00,766.00,162.00,58,0,1
20150827083357145,-124.319425,48.266645, 3.12,16.10,-0.50,124.80,9,9, 0.00,10.00, 0.00, 0.00, 0.04, 0.06, 0.00, 0.00, 0.00, 0.00, 0.00, 0.00, 0.00,475.00,773.00,166.00,68,0,1
20150827083357345,-124.319410,48.266635, 3.44,16.10,-0.40,124.70,9,9, 0.00,10.00, 0.00, 0.00, 0.04, 0.06, 0.00, 0.00, 0.00, 0.00, 0.00, 0.00, 0.00,475.00,779.00,169.00,77,0,1
20150827083357545,-124.319385,48.266630, 3.80,16.10,-0.20,124.50,9,9, 0.00,10.00, 0.00, 0.00, 0.03, 0.06, 0.00, 0.00, 0.00, 0.00, 0.00, 0.00, 0.00,475.00,786.00,172.00,87,0,1
20150827083357753,-124.319365,48.266620, 4.10,16.00, 0.00,124.50,9,9, 0.00,10.00, 0.00, 0.00, 0.02, 0.06, 0.00, 0.00, 0.00, 0.00, 0.00, 0.00, 0.00,475.00,791.00,174.00,95,0,1
20150827083357946,-124.319340,48.266610, 4.50,15.70, 0.20,124.40,9,9, 0.00,10.00, 0.00, 0.00, 0.02, 0.06, 0.00, 0.00, 0.00, 0.00, 0.00, 0.00, 0.00,478.00,797.00,174.00,105,0,1
20150827083358145,-124.319320,48.266605, 4.82,15.40, 0.50,124.40,9,9, 0.00,10.00, 0.00, 0.00, 0.01, 0.06, 0.00, 0.00, 0.00, 0.00, 0.00, 0.00, 0.00,481.00,803.00,171.00,114,0,1
20150827083358345,-124.319295,48.266595, 5.17,14.90, 0.90,124.50,9,9, 0.00,10.00, 0.00, 0.00, 0.02, 0.06, 0.00, 0.00, 0.00, 0.00, 0.00, 0.00, 0.00,486.00,810.00,167.00,124,0,1
20150827083358545,-124.319280,48.266585, 5.50,14.50, 1.10,124.50,9,9, 0.00,10.00, 0.00, 0.00, 0.01, 0.03, 0.00, 0.00, 0.00, 0.00, 0.00, 0.00, 0.00,492.00,817.00,161.00,134,0,1
20150827083358750,-124.319255,48.266575, 5.79,14.10, 1.10,124.70,9,9, 0.00,10.00, 0.00, 0.00, 0.01, 0.02, 0.00, 0.00, 0.00, 0.00, 0.00, 0.00, 0.00,499.00,824.00,156.00,143,0,1
20150827083358952,-124.319235,48.266570, 6.10,13.70, 1.00,124.90,9,9, 0.00,10.00, 0.00, 0.00, 0.01, 0.02, 0.00, 0.00, 0.00, 0.00, 0.00, 0.00, 0.00,506.00,832.00,151.00,152,0,1
20150827083359150,-124.319210,48.266555, 6.39,13.20, 0.90,125.10,9,9, 0.00,10.00, 0.00, 0.00, 0.01, 0.02, 0.00, 0.00, 0.00, 0.00, 0.00, 0.00, 0.00,515.00,841.00,147.00,161,0,1
20150827083359346,-124.319190,48.266550, 6.70,12.80, 0.80,125.30,10,10, 0.00,10.00, 0.00, 0.00, 0.01, 0.02, 0.00, 0.00, 0.00, 0.00, 0.00, 0.00, 0.00,524.00,851.00,142.00,171,0,1
20150827083359546,-124.319165,48.266540, 6.98,12.40, 0.70,125.50,10,10, 0.00,10.00, 0.00, 0.00, 0.01, 0.02, 0.00, 0.00, 0.00, 0.00, 0.00, 0.00, 0.00,533.00,861.00,138.00,181,0,1
20150827083359746,-124.319145,48.266530, 7.27,12.00, 0.60,125.60,10,10, 0.00,10.00, 0.00, 0.00, 0.01, 0.02, 0.00, 0.00, 0.00, 0.00, 0.00, 0.00, 0.00,543.00,871.00,135.00,192,0,1
20150827083359946,-124.319110,48.266520, 7.53,11.60, 0.50,125.70,10,10, 0.00,10.00, 0.00, 0.00, 0.01, 0.02, 0.00, 0.00, 0.00, 0.00, 0.00, 0.00, 0.00,552.00,882.00,131.00,202,0,1
20150827083400146,-124.319090,48.266510, 7.78,11.20, 0.40,125.70,10,10, 0.00,10.00, 0.00, 0.00, 0.01, 0.02, 0.00, 0.00, 0.00, 0.00, 0.00, 0.00, 0.00,560.00,893.00,128.00,212,0,1
20150827083400346,-124.319065,48.266500, 8.04,10.90, 0.20,125.70,10,10, 0.00,10.00, 0.00, 0.00, 0.00, 0.02, 0.00, 0.00, 0.00, 0.00, 0.00, 0.00, 0.00,570.00,906.00,125.00,223,0,1
20150827083400545,-124.319045,48.266490, 8.28,10.50, 0.10,125.80,10,10, 0.00,10.00, 0.00, 0.00, 0.00, 0.02, 0.00, 0.00, 0.00, 0.00, 0.00, 0.00, 0.00,578.00,918.00,122.00,233,0,1
20150827083400746,-124.319020,48.266475, 8.53,10.10, 0.00,125.80,11,11, 0.00,10.00, 0.00, 0.00, 0.00, 0.02, 0.00, 0.00, 0.00, 0.00, 0.00, 0.00, 0.00,587.00,932.00,119.00,244,0,1
20150827083400946,-124.318990,48.266465, 8.77, 9.80,-0.10,125.80,11,11, 0.00,10.00, 0.00, 0.00, 0.00, 0.02, 0.00, 0.00, 0.00, 0.00, 0.00, 0.00, 0.00,596.00,946.00,116.00,255,0,1
20150827083401145,-124.318965,48.266460, 8.99, 9.50,-0.20,125.80,11,11, 0.00,10.00, 0.00, 0.00, 0.00, 0.02, 0.00, 0.00, 0.00, 0.00, 0.00, 0.00, 0.00,604.00,959.00,114.00,9,0,1
20150827083401345,-124.318945,48.266445, 9.22, 9.20,-0.30,125.80,11,11, 0.00,10.00, 0.00, 0.00, 0.00, 0.02, 0.00, 0.00, 0.00, 0.00, 0.00, 0.00, 0.00,612.00,974.00,112.00,20,0,1
20150827083401545,-124.318915,48.266435, 9.45, 8.90,-0.40,125.80,11,11, 0.00,10.00, 0.00, 0.00, 0.00, 0.02, 0.00, 0.00, 0.00, 0.00, 0.00, 0.00, 0.00,621.00,989.00,110.00,31,0,1
20150827083401745,-124.318885,48.266425, 9.67, 8.60,-0.60,125.70,11,11, 0.00,10.00, 0.00, 0.00, 0.00, 0.02, 0.00, 0.00, 0.00, 0.00, 0.00, 0.00, 0.00,629.00,1004.00,108.00,42,0,1
20150827083401946,-124.318860,48.266410, 9.87, 8.30,-0.70,125.70,12,12, 0.00,10.00, 0.00, 0.00, 0.00, 0.02, 0.00, 0.00, 0.00, 0.00, 0.00, 0.00, 0.00,637.00,1019.00,105.00,52,0,1
20150827083402145,-124.318830,48.266400,10.07, 8.10,-0.80,125.60,12,12, 0.00,10.00, 0.00, 0.00,-0.01, 0.02, 0.00, 0.00, 0.00, 0.00, 0.00, 0.00, 0.00,644.00,1033.00,103.00,62,0,1
20150827083402346,-124.318805,48.266390,10.28, 7.80,-0.90,125.50,12,12, 0.00,10.00, 0.00, 0.00,-0.01, 0.02, 0.00, 0.00, 0.00, 0.00, 0.00, 0.00, 0.00,652.00,1050.00,101.00,73,0,1
20150827083402545,-124.318775,48.266380,10.47, 7.50,-1.00,125.40,12,12, 0.00,10.00, 0.00, 0.00,-0.01, 0.04, 0.00, 0.00, 0.00, 0.00, 0.00, 0.00, 0.00,659.00,1065.00,99.00,83,0,1
20150827083402746,-124.318745,48.266365,10.67, 7.30,-0.70,125.30,12,12, 0.00,10.00, 0.00, 0.00,-0.01, 0.04, 0.00, 0.00, 0.00, 0.00, 0.00, 0.00, 0.00,666.00,1082.00,97.00,94,0,1
20150827083402945,-124.318715,48.266355,10.86, 7.10,-0.30,125.20,12,12, 0.00,10.00, 0.00, 0.00,-0.01, 0.04, 0.00, 0.00, 0.00, 0.00, 0.00, 0.00, 0.00,674.00,1096.00,95.00,104,0,1
20150827083403145,-124.318685,48.266340,11.05, 6.90, 0.00,125.10,13,13, 0.00,10.00, 0.00, 0.00, 0.00, 0.04, 0.00, 0.00, 0.00, 0.00, 0.00, 0.00, 0.00,683.00,1112.00,94.00,115,0,1
20150827083403345,-124.318660,48.266330,11.23, 6.90, 0.40,125.10,13,13, 0.00,10.00, 0.00, 0.00, 0.00, 0.04, 0.00, 0.00, 0.00, 0.00, 0.00, 0.00, 0.00,692.00,1125.00,94.00,125,0,1
20150827083403545,-124.318625,48.266315,11.43, 7.00, 0.90,125.20,13,13, 0.00,10.00, 0.00, 0.00, 0.00, 0.04, 0.00, 0.00, 0.00, 0.00, 0.00, 0.00, 0.00,702.00,1137.00,97.00,136,0,1
20150827083403745,-124.318600,48.266300,11.62, 7.20, 1.10,125.40,13,13, 0.00,10.00, 0.00, 0.00, 0.00, 0.01, 0.00, 0.00, 0.00, 0.00, 0.00, 0.00, 0.00,712.00,1147.00,104.00,146,0,1
20150827083403945,-124.318565,48.266290,11.85, 7.50, 1.00,125.70,13,13, 0.00,10.00, 0.00, 0.00, 0.00, 0.01, 0.00, 0.00, 0.00, 0.00, 0.00, 0.00, 0.00,722.00,1155.00,114.00,157,0,1
20150827083404144,-124.318530,48.266280,12.08, 7.80, 0.90,126.00,13,13, 0.00,10.00, 0.00, 0.00, 0.00, 0.01, 0.00, 0.00, 0.00, 0.00, 0.00, 0.00, 0.00,731.00,1161.00,125.00,167,0,1
20150827083404344,-124.318500,48.266265,12.34, 8.20, 0.80,126.20,13,13, 0.00,10.00, 0.00, 0.00, 0.00, 0.01, 0.00, 0.00, 0.00, 0.00, 0.00, 0.00, 0.00,739.00,1166.00,138.00,178,0,1
20150827083404545,-124.318470,48.266250,12.65, 8.60, 0.70,126.40,13,13,200.40, 1.20,20.00, 0.00, 0.00, 0.01, 0.55, 0.00, 0.00, 0.00, 0.00, 0.00, 0.00,747.00,1169.00,151.00,189,0,1
20150827083404745,-124.318440,48.266235,12.95, 8.90, 1.00,126.40,14,14,200.60, 5.90,20.00, 0.00,-0.05, 0.15, 0.56, 0.00, 0.00, 0.00, 0.00, 0.00, 0.00,754.00,1173.00,164.00,199,0,1
20150827083404945,-124.318410,48.266220,13.27, 8.70, 3.90,126.30,14,14,200.90,15.00,20.00, 0.00,-0.07, 0.35, 0.56,40.00, 0.00, 0.00,40.00, 0.00, 0.00,772.00,1186.00,174.00,209,0,1
20150827083405145,-124.318370,48.266210,13.63, 8.00,10.50,125.90,14,14,201.10,15.00,20.00, 0.08,-0.01, 0.27, 0.55,50.00, 0.00, 0.00,50.00, 0.00, 0.00,809.00,1205.00,164.00,220,0,1
20150827083405345,-124.318340,48.266195,13.94, 8.10,15.40,127.00,14,14,201.30,15.00,20.00, 0.53, 0.09, 0.16, 0.54,20.00,10.00,20.00,20.00,10.00,20.00,853.00,1221.00,151.00,231,0,1
20150827083405545,-124.318310,48.266180,14.25, 9.10,18.80,131.90,15,15,201.60,15.00,20.00, 0.79, 0.13, 0.08, 0.54,20.00,30.00,50.00,20.00,30.00,50.00,905.00,1214.00,177.00,241,0,1
20150827083405745,-124.318280,48.266160,14.68,10.20,23.30,141.10,15,15,201.90,15.00,20.00, 0.81, 0.12,-0.01, 0.55,20.00,40.00,70.00,20.00,40.00,70.00,986.00,1148.00,252.00,251,0,1
20150827083405945,-124.318250,48.266140,15.25,11.10,27.40,150.00,14,14,202.20,15.00,20.00, 0.78, 0.10,-0.11, 0.58,10.00,40.00,60.00,10.00,40.00,60.00,1077.00,1020.00,332.00,4,0,1
20150827083406144,-124.318225,48.266120,15.93,12.20,29.80,156.70,14,14,202.40,15.00,20.00, 0.75, 0.08,-0.16, 0.60, 0.00,30.00,40.00, 0.00,30.00,40.00,1156.00,864.00,391.00,12,0,1
20150827083406345,-124.318205,48.266105,16.70,13.70,30.80,161.50,14,14,202.70,15.00,20.00, 0.74, 0.05,-0.18, 0.62, 0.00,30.00,20.00, 0.00,30.00,20.00,1218.00,704.00,430.00,20,0,1
20150827083406549,-124.318190,48.266080,17.61,15.60,30.30,165.20,14,14,203.00,15.00,20.00, 0.74, 0.01,-0.18, 0.63,-10.00,20.00,10.00,-10.00,20.00,10.00,1268.00,541.00,459.00,29,0,1
20150827083406744,-124.318180,48.266055,18.56,16.90,29.10,168.50,14,14,203.40,15.00,20.00, 0.74, 0.00,-0.16, 0.64,-10.00,20.00,20.00,-10.00,20.00,20.00,1302.00,401.00,477.00,38,0,1
20150827083406944,-124.318165,48.266030,19.54,17.20,28.30,172.50,14,14,203.70,15.00,20.00, 0.75, 0.00,-0.14, 0.65,-10.00,10.00,30.00,-10.00,10.00,30.00,1327.00,278.00,483.00,47,0,1
20150827083407144,-124.318165,48.266010,20.53,16.80,27.90,177.40,14,14,204.00,15.00,17.20, 0.66, 0.01,-0.20, 0.67,-10.00,10.00,30.00,-10.00,10.00,30.00,1344.00,159.00,480.00,56,0,1
20150827083407345,-124.318160,48.265980,21.48,16.70,26.60,182.40,14,14,204.40,15.00,13.50, 0.55, 0.02,-0.28, 0.68,-20.00,10.00,30.00,-20.00,10.00,30.00,1354.00,39.00,473.00,65,0,1
20150827083407544,-124.318160,48.265960,22.41,17.20,23.80,186.70,14,14,204.70,15.00,10.70, 0.45, 0.01,-0.29, 0.69,-30.00,20.00,20.00,-30.00,20.00,20.00,1352.00,77.00,472.00,74,0,1
20150827083407745,-124.318165,48.265935,23.34,18.40,20.30,189.90,14,14,205.00,15.00, 9.00, 0.37,-0.01,-0.26, 0.70,-30.00,10.00,10.00,-30.00,10.00,10.00,1339.00,184.00,482.00,83,0,1
20150827083407944,-124.318175,48.265910,24.29,19.60,16.80,191.80,14,14,205.30,15.00, 8.10, 0.33,-0.05,-0.21, 0.71,-30.00,10.00, 0.00,-30.00,10.00, 0.00,1321.00,272.00,499.00,92,0,1
20150827083408144,-124.318180,48.265890,25.27,20.30,13.60,192.80,14,14,205.60,15.00, 7.60, 0.32,-0.07,-0.16, 0.71,-20.00, 0.00, 0.00,-20.00, 0.00, 0.00,1305.00,340.00,513.00,101,0,1
20150827083408348,-124.318190,48.265865,26.27,20.30,11.10,193.40,14,14,205.90,15.00, 7.50, 0.31,-0.08,-0.11, 0.72,-20.00, 0.00, 0.00,-20.00, 0.00, 0.00,1296.00,390.00,517.00,110,0,1
20150827083408544,-124.318205,48.265840,27.28,20.00, 9.30,194.30,14,14,206.20,15.00, 7.10, 0.30,-0.08,-0.08, 0.73,-10.00, 0.00, 0.00,-10.00, 0.00, 0.00,1295.00,430.00,512.00,119,0,1
20150827083408744,-124.318210,48.265815,28.39,19.40, 7.90,195.80,14,14,206.50,15.00, 6.40, 0.26,-0.08,-0.08, 0.73,-10.00, 0.00,10.00,-10.00, 0.00,10.00,1299.00,469.00,500.00,129,0,1
20150827083408944,-124.318225,48.265795,29.35,18.90, 6.90,197.10,14,14,206.80,15.00, 5.80, 0.24,-0.07,-0.08, 0.74,-10.00, 0.00,10.00,-10.00, 0.00,10.00,1302.00,502.00,490.00,138,0,1
20150827083409144,-124.318240,48.265770,30.29,18.60, 5.80,198.20,14,14,207.10,15.00, 5.30, 0.22,-0.07,-0.08, 0.74,-10.00, 0.00, 0.00,-10.00, 0.00, 0.00,1305.00,534.00,483.00,147,0,1
20150827083409344,-124.318260,48.265745,31.23,18.40, 4.60,198.90,14,14,207.50,15.00, 5.10, 0.19,-0.08,-0.07, 0.75,-10.00, 0.00, 0.00,-10.00, 0.00, 0.00,1308.00,563.00,478.00,156,0,1
20150827083409544,-124.318275,48.265720,32.15,18.20, 3.40,199.20,15,15,207.80,15.00, 5.10, 0.14,-0.08,-0.04, 0.75, 0.00, 0.00, 0.00, 0.00, 0.00, 0.00,1313.00,588.00,475.00,165,0,1
20150827083409748,-124.318290,48.265705,33.01,17.90, 2.40,199.10,15,15,208.00,15.00, 5.30, 0.10,-0.08,-0.03, 0.76, 0.00, 0.00, 0.00, 0.00, 0.00, 0.00,1320.00,607.00,471.00,173,0,1
20150827083409944,-124.318305,48.265675,33.97,17.60, 1.50,198.60,15,15,208.40,15.00, 5.80, 0.06,-0.08, 0.00, 0.76, 0.00, 0.00, 0.00, 0.00, 0.00, 0.00,1331.00,623.00,468.00,182,0,1
20150827083410144,-124.318320,48.265655,34.89,17.20, 0.80,198.00,15,15,208.70,15.00, 6.40, 0.03,-0.08, 0.01, 0.76, 0.00, 0.00, 0.00, 0.00, 0.00, 0.00,1346.00,633.00,463.00,191,0,1
20150827083410344,-124.318340,48.265625,35.87,16.80, 0.40,197.60,15,15,209.00,15.00, 6.80, 0.01,-0.08, 0.02, 0.76, 0.00, 0.00, 0.00, 0.00, 0.00, 0.00,1363.00,640.00,458.00,201,0,1
20150827083410543,-124.318355,48.265605,36.75,16.50, 0.20,197.40,15,15,209.30,15.00, 7.10, 0.00,-0.09, 0.02, 0.77, 0.00, 0.00, 0.00, 0.00, 0.00, 0.00,1379.00,644.00,453.00,210,0,1
20150827083410743,-124.318370,48.265575,37.61,16.10, 0.10,197.50,15,15,209.70,15.00, 7.30, 0.00,-0.08, 0.02, 0.77, 0.00, 0.00, 0.00, 0.00, 0.00, 0.00,1396.00,648.00,449.00,219,0,1
20150827083410944,-124.318395,48.265550,38.55,15.80, 0.10,197.70,16,16,210.10,15.00, 7.40, 0.00,-0.09, 0.02, 0.77, 0.00, 0.00, 0.00, 0.00, 0.00, 0.00,1414.00,653.00,445.00,229,0,1
20150827083411144,-124.318410,48.265525,39.39,15.50, 0.10,197.90,16,16,210.40,15.00, 7.50, 0.00,-0.09, 0.02, 0.77, 0.00, 0.00, 0.00, 0.00, 0.00, 0.00,1431.00,659.00,441.00,238,0,1
20150827083411343,-124.318425,48.265500,40.22,15.20, 0.20,197.90,16,16,210.80,15.00, 7.70, 0.00,-0.09, 0.03, 0.77, 0.00, 0.00, 0.00, 0.00, 0.00, 0.00,1447.00,665.00,438.00,247,0,1
20150827083411543,-124.318450,48.265475,41.11,14.80, 0.50,197.90,16,16,211.10,15.00, 7.90, 0.02,-0.09, 0.04, 0.77, 0.00, 0.00, 0.00, 0.00, 0.00, 0.00,1465.00,672.00,433.00,1,0,1
20150827083411743,-124.318465,48.265455,41.75,14.60, 0.80,197.90,16,16,211.40,15.00, 8.10, 0.03,-0.09, 0.05, 0.77, 0.00, 0.00, 0.00, 0.00, 0.00, 0.00,1478.00,677.00,430.00,10,0,1
20150827083411943,-124.318465,48.265455,41.75,14.60, 0.80,197.90,16,16,211.40,15.00, 8.10, 0.03,-0.09, 0.05, 0.78, 0.00, 0.00, 0.00, 0.00, 0.00, 0.00,1478.00,677.00,430.00,20,0,1
20150827083412144,-124.318465,48.265455,41.75,14.60, 0.80,197.90,16,16,211.40,15.00, 8.10, 0.03,-0.09, 0.06, 0.79, 0.00, 0.00, 0.00, 0.00, 0.00, 0.00,1478.00,677.00,430.00,30,0,1
20150827083412348,-124.318465,48.265455,41.75,14.60, 0.80,197.90,16,16,211.40,15.00, 8.10, 0.03,-0.09, 0.07, 0.80, 0.00, 0.00, 0.00, 0.00, 0.00, 0.00,1478.00,677.00,430.00,40,0,1
20150827083412547,-124.318465,48.265455,41.75,14.60, 0.80,197.90,16,16,211.40,15.00, 8.10, 0.03,-0.09, 0.08, 0.80, 0.00, 0.00, 0.00, 0.00, 0.00, 0.00,1478.00,677.00,430.00,50,0,1
20150827083412743,-124.318465,48.265455,41.75,14.60, 0.80,197.90,16,16,211.40,15.00, 8.10, 0.03,-0.09, 0.10, 0.81, 0.00, 0.00, 0.00, 0.00, 0.00, 0.00,1478.00,677.00,430.00,60,0,1
20150827083412943,-124.318465,48.265455,41.75,14.60, 0.80,197.90,16,16,211.40,15.00, 8.10, 0.03,-0.09, 0.11, 0.82, 0.00, 0.00, 0.00, 0.00, 0.00, 0.00,1478.00,677.00,430.00,71,0,1
20150827083413143,-124.318465,48.265455,41.75,14.60, 0.80,197.90,16,16,211.40,15.00, 8.10, 0.03,-0.09, 0.12, 0.83, 0.00, 0.00, 0.00, 0.00, 0.00, 0.00,1478.00,677.00,430.00,81,0,1
20150827083413343,-124.318465,48.265455,41.75,14.60, 0.80,197.90,16,16,211.40,15.00, 8.10, 0.03,-0.09, 0.13, 0.84, 0.00, 0.00, 0.00, 0.00, 0.00, 0.00,1478.00,677.00,430.00,90,0,1
20150827083413543,-124.318465,48.265455,41.75,14.60, 0.80,197.90,16,16,211.40,15.00, 8.10, 0.03,-0.09, 0.14, 0.85, 0.00, 0.00, 0.00, 0.00, 0.00, 0.00,1478.00,677.00,430.00,101,0,1
20150827083413747,-124.318465,48.265455,41.75,14.60, 0.80,197.90,16,16,211.40,15.00, 8.10, 0.03,-0.09, 0.15, 0.85, 0.00, 0.00, 0.00, 0.00, 0.00, 0.00,1478.00,677.00,430.00,110,0,1
20150827083413942,-124.318465,48.265455,41.75,14.60, 0.80,197.90,16,16,211.40,15.00, 8.10, 0.03,-0.09, 0.16, 0.86, 0.00, 0.00, 0.00, 0.00, 0.00, 0.00,1478.00,677.00,430.00,121,0,1
20150827083414143,-124.318465,48.265455,41.75,14.60, 0.80,197.90,16,16,211.40,15.00, 8.10, 0.03,-0.09, 0.18, 0.87, 0.00, 0.00, 0.00, 0.00, 0.00, 0.00,1478.00,677.00,430.00,130,0,1
20150827083414343,-124.318465,48.265455,41.75,14.60, 0.80,197.90,16,16,211.40,15.00, 8.10, 0.03,-0.09, 0.19, 0.88, 0.00, 0.00, 0.00, 0.00, 0.00, 0.00,1478.00,677.00,430.00,140,0,1
20150827083414543,-124.318465,48.265455,41.75,14.60, 0.80,197.90,16,16,211.40,15.00, 8.10, 0.03,-0.09, 0.20, 0.89, 0.00, 0.00, 0.00, 0.00, 0.00, 0.00,1478.00,677.00,430.00,150,0,1
20150827083414742,-124.318465,48.265455,41.75,14.60, 0.80,197.90,16,16,211.40,15.00, 8.10, 0.03,-0.09, 0.21, 0.90, 0.00, 0.00, 0.00, 0.00, 0.00, 0.00,1478.00,677.00,430.00,160,0,1
20150827083414943,-124.318465,48.265455,41.75,14.60, 0.80,197.90,16,16,211.40,15.00, 8.10, 0.03,-0.09, 0.22, 0.90, 0.00, 0.00, 0.00, 0.00, 0.00, 0.00,1478.00,677.00,430.00,169,0,1
20150827083415143,-124.318465,48.265455,41.75,14.60, 0.80,197.90,16,16,211.40,15.00, 8.10, 0.03,-0.09, 0.24, 0.91, 0.00, 0.00, 0.00, 0.00, 0.00, 0.00,1478.00,677.00,430.00,179,0,1
20150827083415347,-124.318465,48.265455,41.75,14.60, 0.80,197.90,16,16,211.40,15.00, 8.10, 0.03,-0.09, 0.25, 0.91, 0.00, 0.00, 0.00, 0.00, 0.00, 0.00,1478.00,677.00,430.00,188,0,1
20150827083415543,-124.318465,48.265455,41.75,14.60, 0.80,197.90,16,16,211.40,15.00, 8.10, 0.03,-0.09, 0.26, 0.91, 0.00, 0.00, 0.00, 0.00, 0.00, 0.00,1478.00,677.00,430.00,198,0,1
20150827083415742,-124.318465,48.265455,41.75,14.60, 0.80,197.90,16,16,211.40,15.00, 8.10, 0.03,-0.09, 0.28, 0.91, 0.00, 0.00, 0.00, 0.00, 0.00, 0.00,1478.00,677.00,430.00,208,0,1
20150827083415942,-124.318465,48.265455,41.75,14.60, 0.80,197.90,16,16,211.40,15.00, 8.10, 0.03,-0.09, 0.29, 0.91, 0.00, 0.00, 0.00, 0.00, 0.00, 0.00,1478.00,677.00,430.00,218,0,1
20150827083416142,-124.318470,48.265435,42.38,14.40, 4.70,197.60,16,16,211.70,15.00, 8.40, 0.19,-0.07, 0.21, 0.91,50.00, 0.00, 0.00,50.00, 0.00, 0.00,1480.00,690.00,443.00,227,0,1
20150827083416348,-124.318495,48.265410,43.25,14.30, 9.60,197.90,16,16,212.10,15.00, 8.50, 0.35,-0.06, 0.11, 0.90,30.00, 0.00,10.00,30.00, 0.00,10.00,1492.00,714.00,447.00,237,0,1
20150827083416543,-124.318510,48.265380,44.08,14.30,12.50,200.20,17,17,212.40,15.00, 7.30, 0.30,-0.06, 0.01, 0.88,10.00, 0.00,20.00,10.00, 0.00,20.00,1496.00,748.00,455.00,246,0,1
20150827083416743,-124.318530,48.265355,45.01,14.30,14.10,203.60,17,17,212.80,15.00, 5.50, 0.23,-0.06,-0.05, 0.87, 0.00, 0.00,20.00, 0.00, 0.00,20.00,1485.00,808.00,468.00,0,0,1
20150827083416943,-124.318555,48.265330,45.95,14.60,14.20,206.10,17,17,213.20,15.00, 4.20, 0.18,-0.06,-0.07, 0.86, 0.00, 0.00,10.00, 0.00, 0.00,10.00,1462.00,875.00,481.00,10,0,1
20150827083417143,-124.318580,48.265300,46.91,15.20,13.30,207.20,17,17,213.60,15.00, 3.80, 0.16,-0.06,-0.05, 0.86,-10.00, 0.00, 0.00,-10.00, 0.00, 0.00,1436.00,938.00,496.00,20,0,1
20150827083417343,-124.318610,48.265275,47.90,16.00,12.40,207.50,17,17,214.00,15.00, 3.90, 0.16,-0.09,-0.01, 0.85, 0.00, 0.00, 0.00, 0.00, 0.00, 0.00,1413.00,990.00,516.00,30,0,1
20150827083417543,-124.318630,48.265250,48.87,16.20,12.00,208.00,17,17,214.30,15.00, 3.70, 0.16,-0.09, 0.00, 0.85, 0.00, 0.00, 0.00, 0.00, 0.00, 0.00,1398.00,1030.00,528.00,39,0,1
20150827083417743,-124.318660,48.265225,49.96,16.00,11.80,209.40,18,18,214.70,15.00, 3.10, 0.13,-0.09,-0.01, 0.84, 0.00, 0.00,10.00, 0.00, 0.00,10.00,1386.00,1070.00,529.00,49,0,1
20150827083417943,-124.318695,48.265205,51.03,15.60,11.60,211.10,18,18,215.10,15.00, 2.40, 0.10,-0.09,-0.03, 0.83, 0.00, 0.00,10.00, 0.00, 0.00,10.00,1373.00,1113.00,524.00,59,0,1
20150827083418142,-124.318725,48.265180,51.99,15.50,11.10,212.40,18,18,215.40,15.00, 1.80, 0.07,-0.09,-0.03, 0.82, 0.00, 0.00,10.00, 0.00, 0.00,10.00,1359.00,1153.00,520.00,68,0,1
20150827083418342,-124.318755,48.265155,53.02,15.40,10.40,213.30,18,18,215.90,15.00, 1.60, 0.06,-0.09,-0.01, 0.82, 0.00, 0.00, 0.00, 0.00, 0.00, 0.00,1343.00,1194.00,518.00,78,0,1
20150827083418542,-124.318790,48.265130,54.07,15.40, 9.70,213.90,18,18,216.20,15.00, 1.50, 0.05,-0.09, 0.00, 0.81, 0.00, 0.00, 0.00, 0.00, 0.00, 0.00,1329.00,1231.00,518.00,88,0,1
20150827083418743,-124.318820,48.265105,55.12,15.40, 9.20,214.60,18,18,216.60,15.00, 1.30, 0.05,-0.09, 0.00, 0.81, 0.00, 0.00, 0.00, 0.00, 0.00, 0.00,1317.00,1263.00,518.00,98,0,1
20150827083418942,-124.318855,48.265085,56.06,15.30, 9.00,215.50,18,18,217.00,15.00, 1.00, 0.04,-0.09, 0.00, 0.80, 0.00, 0.00, 0.00, 0.00, 0.00, 0.00,1306.00,1290.00,519.00,107,0,1
20150827083419142,-124.318890,48.265060,57.11,15.30, 8.50,216.50,18,18,217.40,15.00, 0.70, 0.02,-0.09,-0.01, 0.80, 0.00, 0.00, 0.00, 0.00, 0.00, 0.00,1293.00,1319.00,519.00,117,0,1
20150827083419342,-124.318930,48.265035,58.14,15.20, 8.00,217.40,19,19,217.80,15.00, 0.70, 0.01,-0.09,-0.01, 0.79, 0.00, 0.00, 0.00, 0.00, 0.00, 0.00,1280.00,1348.00,521.00,127,0,1
20150827083419542,-124.318965,48.265010,59.19,15.20, 7.40,218.10,19,19,218.20,15.00, 0.70, 0.00,-0.09, 0.00, 0.79, 0.00, 0.00, 0.00, 0.00, 0.00, 0.00,1267.00,1374.00,522.00,137,0,1
20150827083419742,-124.319005,48.264990,60.23,15.30, 6.80,218.60,19,19,218.60,15.00, 0.70, 0.00,-0.09, 0.00, 0.78, 0.00, 0.00, 0.00, 0.00, 0.00, 0.00,1255.00,1397.00,524.00,147,0,1
20150827083419942,-124.319045,48.264965,61.27,15.30, 6.20,219.10,19,19,219.00,15.00, 0.70, 0.00,-0.09, 0.00, 0.78, 0.00, 0.00, 0.00, 0.00, 0.00, 0.00,1244.00,1416.00,527.00,157,0,1
20150827083420143,-124.319080,48.264945,62.32,15.40, 5.70,219.70,19,19,219.40,15.00, 0.70, 0.00,-0.09, 0.00, 0.78, 0.00, 0.00, 0.00, 0.00, 0.00, 0.00,1234.00,1434.00,530.00,167,0,1
20150827083420342,-124.319120,48.264925,63.36,15.40, 5.30,220.40,19,19,219.70,15.00, 0.70, 0.00,-0.09, 0.00, 0.77, 0.00, 0.00, 0.00, 0.00, 0.00, 0.00,1224.00,1451.00,533.00,177,0,1
20150827083420542,-124.319160,48.264900,64.42,15.40, 4.90,221.00,19,19,220.10,15.00, 0.70, 0.00,-0.09, 0.00, 0.77, 0.00, 0.00, 0.00, 0.00, 0.00, 0.00,1213.00,1466.00,536.00,187,0,1
20150827083420742,-124.319195,48.264880,65.47,15.40, 4.40,221.50,19,19,220.60,15.00, 0.70, 0.00,-0.10, 0.00, 0.77, 0.00, 0.00, 0.00, 0.00, 0.00, 0.00,1204.00,1480.00,539.00,197,0,1
20150827083420942,-124.319240,48.264860,66.51,15.20, 3.90,221.80,19,19,220.90,15.00, 0.70, 0.00,-0.10, 0.00, 0.76, 0.00, 0.00, 0.00, 0.00, 0.00, 0.00,1197.00,1494.00,536.00,207,0,1
20150827083421142,-124.319280,48.264835,67.56,15.00, 3.40,222.20,19,19,221.40,15.00, 0.70, 0.00,-0.10, 0.00, 0.76, 0.00, 0.00, 0.00, 0.00, 0.00, 0.00,1193.00,1507.00,530.00,217,0,1
20150827083421346,-124.319320,48.264820,68.56,14.80, 2.90,222.50,19,19,221.80,15.00, 0.70, 0.00,-0.10, 0.00, 0.76, 0.00, 0.00, 0.00, 0.00, 0.00, 0.00,1190.00,1519.00,523.00,227,0,1
20150827083421542,-124.319365,48.264795,69.65,14.50, 2.40,222.80,19,19,222.20,15.00, 0.70, 0.00,-0.09, 0.00, 0.75, 0.00, 0.00, 0.00, 0.00, 0.00, 0.00,1188.00,1531.00,516.00,238,0,1
20150827083421742,-124.319400,48.264770,70.62,14.50, 2.00,223.10,19,19,222.70,15.00, 0.70, 0.00,-0.09, 0.00, 0.74, 0.00, 0.00, 0.00, 0.00, 0.00, 0.00,1186.00,1541.00,512.00,248,0,1
20150827083421942,-124.319450,48.264750,71.68,14.60, 1.50,223.30,19,19,223.10,15.00, 0.70, 0.00,-0.09, 0.00, 0.71, 0.00, 0.00, 0.00, 0.00, 0.00, 0.00,1183.00,1549.00,515.00,3,0,1
20150827083422141,-124.319485,48.264730,72.68,14.70, 1.10,223.50,19,19,223.50,15.00, 0.70, 0.00,-0.09, 0.00, 0.68, 0.00, 0.00, 0.00, 0.00, 0.00, 0.00,1179.00,1553.00,520.00,13,0,1
20150827083422341,-124.319530,48.264710,73.68,14.90, 0.70,223.70,19,19,223.90,15.00, 0.70, 0.01,-0.09, 0.00, 0.66, 0.00, 0.00, 0.00, 0.00, 0.00, 0.00,1174.00,1554.00,527.00,23,0,1
20150827083422541,-124.319570,48.264690,74.70,15.10, 0.30,223.80,19,19,224.40,15.00, 0.70, 0.00,-0.09, 0.00, 0.63, 0.00, 0.00, 0.00, 0.00, 0.00, 0.00,1168.00,1553.00,533.00,33,0,1
20150827083422746,-124.319610,48.264670,75.74,15.30, 0.00,223.90,19,19,224.80,15.00, 0.70, 0.00,-0.09, 0.00, 0.61, 0.00, 0.00, 0.00, 0.00, 0.00, 0.00,1162.00,1551.00,538.00,43,0,1
20150827083422942,-124.319655,48.264645,76.89,15.40,-0.40,223.90,19,19,225.30,14.20, 1.00, 0.00,-0.12, 0.00, 0.60, 0.00, 0.00, 0.00, 0.00, 0.00, 0.00,1156.00,1546.00,542.00,54,0,1
20150827083423142,-124.319700,48.264625,77.94,14.90,-0.80,223.80,19,19,225.80,13.30, 1.30, 0.00,-0.13, 0.01, 0.60, 0.00, 0.00, 0.00, 0.00, 0.00, 0.00,1153.00,1543.00,534.00,64,0,1
20150827083423341,-124.319740,48.264605,78.93,14.00,-1.00,223.80,19,19,226.20,12.50, 1.60, 0.00,-0.13, 0.01, 0.60, 0.00, 0.00, 0.00, 0.00, 0.00, 0.00,1157.00,1545.00,509.00,74,0,1
20150827083423541,-124.319785,48.264585,79.93,12.90,-1.10,223.70,19,19,226.70,11.70, 2.00, 0.00,-0.13, 0.02, 0.60, 0.00, 0.00, 0.00, 0.00, 0.00, 0.00,1166.00,1550.00,473.00,85,0,1
20150827083423741,-124.319820,48.264560,80.82,11.90,-1.10,223.70,19,19,227.20,11.20, 2.30, 0.00,-0.12, 0.02, 0.60, 0.00, 0.00, 0.00, 0.00, 0.00, 0.00,1177.00,1558.00,436.00,96,0,1
20150827083423941,-124.319865,48.264540,81.68,10.90,-1.00,223.70,19,19,227.70,10.70, 2.70, 0.00,-0.12, 0.02, 0.60, 0.00, 0.00, 0.00, 0.00, 0.00, 0.00,1189.00,1567.00,402.00,108,0,1
20150827083424141,-124.319905,48.264520,82.40,10.20,-1.00,223.60,19,19,228.20,10.30, 3.10, 0.00,-0.11, 0.02, 0.60, 0.00, 0.00, 0.00, 0.00, 0.00, 0.00,1200.00,1575.00,375.00,119,0,1
20150827083424341,-124.319950,48.264495,83.12, 9.50,-1.00,223.60,20,20,228.70, 9.90, 3.00, 0.00,-0.11, 0.01, 0.60, 0.00, 0.00, 0.00, 0.00, 0.00, 0.00,1213.00,1585.00,351.00,131,0,1
20150827083424542,-124.319995,48.264475,83.80, 8.90,-0.90,223.50,20,20,229.30, 9.40, 3.40, 0.00,-0.11, 0.03, 0.39, 0.00, 0.00, 0.00, 0.00, 0.00, 0.00,1227.00,1595.00,330.00,143,0,1
20150827083424741,-124.320035,48.264455,84.40, 8.40,-0.60,223.50,20,20,229.70, 9.10, 3.70, 0.00,-0.11, 0.03, 0.37, 0.00, 0.00, 0.00, 0.00, 0.00, 0.00,1237.00,1602.00,312.00,153,0,1
20150827083424941,-124.320080,48.264430,84.99, 7.90, 0.00,223.60,20,20,230.30, 8.80, 4.00, 0.00,-0.10, 0.03, 0.35, 0.00, 0.00, 0.00, 0.00, 0.00, 0.00,1243.00,1607.00,292.00,165,0,1
20150827083425141,-124.320125,48.264410,85.55, 7.50, 0.60,223.60,20,20,230.90, 8.50, 4.30, 0.02,-0.09, 0.03, 0.33, 0.00, 0.00, 0.00, 0.00, 0.00, 0.00,1246.00,1612.00,276.00,177,0,1
20150827083425341,-124.320175,48.264385,86.07, 7.30, 1.20,223.90,20,20,231.40, 8.20, 4.50, 0.05,-0.09, 0.03, 0.31, 0.00, 0.00, 0.00, 0.00, 0.00, 0.00,1247.00,1617.00,266.00,189,0,1
20150827083425541,-124.320210,48.264365,86.57, 7.10, 1.90,224.50,20,20,232.00, 7.90, 4.50, 0.08,-0.09, 0.02, 0.29, 0.00, 0.00, 0.00, 0.00, 0.00, 0.00,1244.00,1624.00,258.00,201,0,1
20150827083425741,-124.320255,48.264340,87.07, 6.90, 2.50,225.30,20,20,232.60, 7.60, 4.30, 0.10,-0.09, 0.01, 0.28, 0.00, 0.00, 0.00, 0.00, 0.00, 0.00,1237.00,1632.00,252.00,213,0,1
20150827083425941,-124.320300,48.264320,87.55, 6.80, 3.00,226.00,20,20,233.10, 7.30, 4.20, 0.12,-0.09, 0.00, 0.26, 0.00, 0.00, 0.00, 0.00, 0.00, 0.00,1226.00,1642.00,247.00,225,0,1
20150827083426141,-124.320350,48.264300,88.02, 6.70, 3.40,226.70,20,20,233.70, 7.00, 4.20, 0.14,-0.09, 0.00, 0.24, 0.00, 0.00, 0.00, 0.00, 0.00, 0.00,1211.00,1653.00,242.00,237,0,1
20150827083426341,-124.320395,48.264275,88.48, 6.60, 3.90,227.30,20,20,234.30, 6.70, 4.20, 0.16,-0.09, 0.00, 0.23, 0.00, 0.00, 0.00, 0.00, 0.00, 0.00,1196.00,1665.00,237.00,249,0,1
20150827083426540,-124.320440,48.264255,88.93, 6.40, 4.20,228.00,20,20,234.90, 6.40, 4.10, 0.17,-0.09, 0.00, 0.21, 0.00, 0.00, 0.00, 0.00, 0.00, 0.00,1179.00,1677.00,232.00,5,0,1
20150827083426740,-124.320485,48.264235,89.38, 6.30, 4.60,228.70,20,20,235.50, 6.20, 4.00, 0.17,-0.09, 0.00, 0.19, 0.00, 0.00, 0.00, 0.00, 0.00, 0.00,1161.00,1690.00,227.00,17,0,1
20150827083426940,-124.320530,48.264215,89.81, 6.10, 4.80,229.40,20,20,236.10, 5.90, 4.00, 0.16,-0.08, 0.00, 0.18, 0.00, 0.00, 0.00, 0.00, 0.00, 0.00,1141.00,1703.00,221.00,29,0,1
20150827083427141,-124.320575,48.264190,90.23, 6.00, 5.10,230.00,20,20,236.70, 5.90, 4.00, 0.17,-0.08, 0.00, 0.17, 0.00, 0.00, 0.00, 0.00, 0.00, 0.00,1120.00,1717.00,214.00,41,0,1
20150827083427341,-124.320625,48.264175,90.64, 5.80, 5.30,230.60,20,20,237.30, 6.00, 4.00, 0.17,-0.08, 0.00, 0.16, 0.00, 0.00, 0.00, 0.00, 0.00, 0.00,1100.00,1731.00,207.00,53,0,1
20150827083427540,-124.320670,48.264155,91.03, 5.80, 5.50,231.20,20,20,237.90, 6.20, 4.00, 0.17,-0.07, 0.00, 0.16, 0.00, 0.00, 0.00, 0.00, 0.00, 0.00,1079.00,1746.00,203.00,65,0,1
20150827083427740,-124.320715,48.264135,91.42, 5.90, 5.70,232.00,20,20,238.50, 6.30, 3.90, 0.16,-0.06, 0.00, 0.15, 0.00, 0.00, 0.00, 0.00, 0.00, 0.00,1057.00,1760.00,203.00,77,0,1
20150827083427940,-124.320770,48.264115,91.81, 6.10, 5.80,232.70,20,20,239.10, 6.40, 3.80, 0.16,-0.06,-0.01, 0.15, 0.00, 0.00, 0.00, 0.00, 0.00, 0.00,1033.00,1774.00,208.00,89,0,1
20150827083428140,-124.320815,48.264095,92.23, 6.40, 5.60,233.50,20,20,239.80, 6.40, 3.70, 0.15,-0.07,-0.01, 0.14, 0.00, 0.00, 0.00, 0.00, 0.00, 0.00,1007.00,1788.00,216.00,101,0,1
20150827083428344,-124.320860,48.264080,92.61, 6.60, 5.40,234.20,20,20,240.30, 6.50, 3.60, 0.15,-0.07,-0.02, 0.14, 0.00, 0.00, 0.00, 0.00, 0.00, 0.00,984.00,1798.00,222.00,112,0,1
20150827083428544,-124.320905,48.264060,93.05, 6.70, 5.10,234.90,20,20,240.90, 6.50, 3.60, 0.15,-0.07,-0.02, 0.13, 0.00, 0.00, 0.00, 0.00, 0.00, 0.00,960.00,1809.00,229.00,124,0,1
20150827083428744,-124.320960,48.264045,93.50, 6.90, 4.80,235.50,20,20,241.60, 6.50, 3.60, 0.15,-0.08,-0.01, 0.13, 0.00, 0.00, 0.00, 0.00, 0.00, 0.00,936.00,1818.00,233.00,136,0,1
20150827083428944,-124.321005,48.264030,93.95, 6.90, 4.50,236.10,20,20,242.20, 6.50, 3.60, 0.15,-0.08,-0.01, 0.12, 0.00, 0.00, 0.00, 0.00, 0.00, 0.00,914.00,1827.00,234.00,148,0,1
20150827083429140,-124.321060,48.264015,94.41, 6.80, 4.30,236.70,20,20,242.80, 6.40, 3.60, 0.15,-0.08,-0.01, 0.12, 0.00, 0.00, 0.00, 0.00, 0.00, 0.00,893.00,1835.00,231.00,160,0,1
20150827083429340,-124.321105,48.263995,94.85, 6.70, 4.00,237.30,20,20,243.40, 6.40, 3.60, 0.15,-0.08,-0.01, 0.11, 0.00, 0.00, 0.00, 0.00, 0.00, 0.00,873.00,1843.00,227.00,172,0,1
20150827083429540,-124.321155,48.263980,95.28, 6.40, 3.80,237.90,20,20,244.10, 6.40, 3.70, 0.15,-0.08,-0.01, 0.11, 0.00, 0.00, 0.00, 0.00, 0.00, 0.00,854.00,1851.00,218.00,184,0,1
20150827083429740,-124.321210,48.263965,95.71, 6.20, 3.60,238.50,20,20,244.80, 6.30, 3.70, 0.15,-0.08,-0.01, 0.11, 0.00, 0.00, 0.00, 0.00, 0.00, 0.00,836.00,1859.00,208.00,196,0,1
20150827083429940,-124.321255,48.263950,96.08, 5.90, 3.40,238.90,20,20,245.40, 6.20, 3.90, 0.14,-0.08,-0.01, 0.10, 0.00, 0.00, 0.00, 0.00, 0.00, 0.00,820.00,1867.00,199.00,207,0,1
20150827083430140,-124.321310,48.263935,96.46, 5.80, 3.30,239.40,20,20,246.10, 6.10, 4.00, 0.14,-0.07,-0.01, 0.09, 0.00, 0.00, 0.00, 0.00, 0.00, 0.00,804.00,1876.00,191.00,219,0,1
20150827083430339,-124.321355,48.263925,96.82, 5.70, 3.20,239.70,20,20,246.60, 6.00, 4.10, 0.13,-0.07, 0.00, 0.09, 0.00, 0.00, 0.00, 0.00, 0.00, 0.00,788.00,1884.00,186.00,231,0,1
20150827083430539,-124.321410,48.263910,97.18, 5.70, 3.20,240.10,20,20,247.40, 6.00, 4.30, 0.13,-0.07, 0.00, 0.08, 0.00, 0.00, 0.00, 0.00, 0.00, 0.00,774.00,1892.00,183.00,243,0,1
20150827083430740,-124.321460,48.263895,97.54, 5.70, 3.30,240.50,20,20,248.10, 5.80, 4.50, 0.14,-0.07, 0.00, 0.08, 0.00, 0.00, 0.00, 0.00, 0.00, 0.00,758.00,1899.00,183.00,255,0,1
20150827083430939,-124.321510,48.263885,97.88, 5.70, 3.60,241.10,20,20,248.70, 5.80, 4.50, 0.15,-0.07, 0.00, 0.07, 0.00, 0.00, 0.00, 0.00, 0.00, 0.00,743.00,1906.00,184.00,10,0,1
20150827083431139,-124.321560,48.263870,98.24, 5.70, 3.90,241.70,20,20,249.40, 5.60, 4.60, 0.16,-0.07, 0.00, 0.07, 0.00, 0.00, 0.00, 0.00, 0.00, 0.00,726.00,1913.00,184.00,22,0,1
20150827083431339,-124.321615,48.263855,98.59, 5.70, 4.20,242.50,20,20,250.10, 5.50, 4.50, 0.17,-0.07, 0.00, 0.06, 0.00, 0.00, 0.00, 0.00, 0.00, 0.00,707.00,1920.00,183.00,34,0,1
20150827083431539,-124.321670,48.263845,98.94, 5.50, 4.50,243.30,20,20,250.80, 5.30, 4.50, 0.18,-0.08, 0.00, 0.05, 0.00, 0.00, 0.00, 0.00, 0.00, 0.00,687.00,1928.00,179.00,46,0,1
20150827083431739,-124.321720,48.263830,99.29, 5.20, 4.80,244.10,20,20,251.50, 5.10, 4.40, 0.18,-0.08,-0.01, 0.05, 0.00, 0.00, 0.00, 0.00, 0.00, 0.00,664.00,1937.00,171.00,58,0,1
20150827083431939,-124.321765,48.263820,99.60, 5.00, 5.00,244.70,20,20,252.10, 5.00, 4.40, 0.18,-0.08,-0.01, 0.04, 0.00, 0.00, 0.00, 0.00, 0.00, 0.00,643.00,1947.00,162.00,69,0,1
20150827083432139,-124.321820,48.263810,99.90, 4.70, 5.10,245.40,20,20,252.80, 4.70, 4.40, 0.18,-0.08,-0.01, 0.04, 0.00, 0.00, 0.00, 0.00, 0.00, 0.00,620.00,1957.00,151.00,81,0,1
20150827083432339,-124.321875,48.263800,100.17, 4.40, 5.20,246.00,20,20,253.60, 4.70, 4.50, 0.19,-0.07,-0.01, 0.03, 0.00, 0.00, 0.00, 0.00, 0.00, 0.00,599.00,1967.00,140.00,92,0,1
20150827083432539,-124.321925,48.263790,100.43, 4.20, 5.10,246.70,20,20,254.30, 4.50, 4.50, 0.19,-0.07,-0.01, 0.02, 0.00, 0.00, 0.00, 0.00, 0.00, 0.00,577.00,1978.00,132.00,104,0,1
20150827083432744,-124.321980,48.263775,100.67, 4.10, 4.90,247.40,20,20,255.10, 4.40, 4.60, 0.19,-0.07,-0.01, 0.01, 0.00, 0.00, 0.00, 0.00, 0.00, 0.00,556.00,1988.00,127.00,115,0,1
20150827083432939,-124.322035,48.263770,100.91, 4.00, 4.70,248.20,20,20,255.80, 4.20, 4.50, 0.19,-0.07,-0.01, 0.01, 0.00, 0.00, 0.00, 0.00, 0.00, 0.00,533.00,1998.00,123.00,127,0,1
20150827083433139,-124.322095,48.263755,101.15, 4.00, 4.60,248.90,20,20,256.60, 4.00, 4.60, 0.19,-0.07,-0.01, 0.00, 0.00, 0.00, 0.00, 0.00, 0.00, 0.00,510.00,2007.00,120.00,139,0,1
20150827083433339,-124.322150,48.263750,101.37, 3.90, 4.60,249.50,20,20,257.30, 3.80, 4.60, 0.19,-0.07,-0.01, 0.00, 0.00, 0.00, 0.00, 0.00, 0.00, 0.00,488.00,2016.00,117.00,150,0,1
20150827083433539,-124.322200,48.263740,101.59, 3.80, 4.50,250.20,20,20,258.10, 3.70, 4.70, 0.19,-0.07,-0.01, 0.00, 0.00, 0.00, 0.00, 0.00, 0.00, 0.00,466.00,2024.00,115.00,162,0,1
20150827083433744,-124.322255,48.263735,101.79, 3.70, 4.40,250.70,20,20,258.80, 3.50, 4.80, 0.18,-0.07,-0.01,-0.01, 0.00, 0.00, 0.00, 0.00, 0.00, 0.00,446.00,2032.00,111.00,173,0,1
20150827083433940,-124.322310,48.263725,102.01, 3.40, 4.50,251.30,20,20,259.60, 3.20, 4.90, 0.19,-0.08, 0.00,-0.02, 0.00, 0.00, 0.00, 0.00, 0.00, 0.00,424.00,2040.00,104.00,185,0,1
20150827083434140,-124.322370,48.263720,102.19, 3.10, 4.70,252.00,20,20,260.40, 3.10, 5.00, 0.20,-0.08, 0.00,-0.03, 0.00, 0.00, 0.00, 0.00, 0.00, 0.00,404.00,2049.00,93.00,197,0,1
20150827083434340,-124.322425,48.263710,102.36, 2.80, 5.00,252.70,20,20,261.20, 2.90, 5.10, 0.21,-0.08, 0.00,-0.03, 0.00, 0.00, 0.00, 0.00, 0.00, 0.00,383.00,2059.00,82.00,209,0,1
20150827083434539,-124.322475,48.263705,102.50, 2.40, 5.20,253.50,20,20,262.00, 2.70, 5.10, 0.21,-0.07, 0.00,-0.04, 0.00, 0.00, 0.00, 0.00, 0.00, 0.00,361.00,2068.00,71.00,221,0,1
20150827083434739,-124.322530,48.263700,102.62, 2.20, 5.40,254.40,20,20,262.80, 2.50, 5.00, 0.21,-0.07,-0.01,-0.05, 0.00, 0.00, 0.00, 0.00, 0.00, 0.00,336.00,2078.00,61.00,233,0,1
20150827083434939,-124.322590,48.263690,102.72, 2.10, 5.50,255.20,20,20,263.70, 2.40, 5.10, 0.21,-0.06,-0.01,-0.06, 0.00, 0.00, 0.00, 0.00, 0.00, 0.00,311.00,2088.00,54.00,245,0,1
20150827083435140,-124.322645,48.263690,102.82, 2.00, 5.60,255.90,21,21,264.40, 2.20, 5.10, 0.21,-0.06,-0.01,-0.07, 0.00, 0.00, 0.00, 0.00, 0.00, 0.00,285.00,2097.00,50.00,1,0,1
20150827083435339,-124.322705,48.263680,102.90, 1.90, 5.60,256.70,21,21,265.40, 2.00, 5.20, 0.21,-0.06,-0.02,-0.08, 0.00, 0.00, 0.00, 0.00, 0.00, 0.00,259.00,2106.00,48.00,13,0,1
20150827083435539,-124.322760,48.263675,102.99, 1.90, 5.40,257.40,21,21,266.20, 1.90, 5.20, 0.22,-0.06,-0.02,-0.09, 0.00, 0.00, 0.00, 0.00, 0.00, 0.00,233.00,2114.00,46.00,25,0,1
20150827083435739,-124.322820,48.263675,103.07, 1.80, 5.20,258.30,21,21,267.10, 1.70, 5.20, 0.22,-0.07,-0.02,-0.10, 0.00, 0.00, 0.00, 0.00, 0.00, 0.00,207.00,2121.00,44.00,37,0,1
20150827083435939,-124.322875,48.263670,103.14, 1.70, 5.10,259.00,21,21,267.90, 1.50, 5.30, 0.21,-0.07,-0.01,-0.10, 0.00, 0.00, 0.00, 0.00, 0.00, 0.00,182.00,2128.00,41.00,49,0,1
20150827083436139,-124.322935,48.263670,103.21, 1.50, 5.10,259.70,21,21,268.80, 1.40, 5.40, 0.21,-0.07,-0.01,-0.11, 0.00, 0.00, 0.00, 0.00, 0.00, 0.00,156.00,2134.00,36.00,61,0,1
20150827083436339,-124.322990,48.263665,103.27, 1.30, 5.20,260.40,21,21,269.70, 1.20, 5.50, 0.22,-0.07, 0.00,-0.12, 0.00, 0.00, 0.00, 0.00, 0.00, 0.00,131.00,2140.00,29.00,73,0,1
20150827083436539,-124.323050,48.263660,103.31, 1.00, 5.40,261.00,21,21,270.60, 1.10, 5.70, 0.23,-0.07,-0.01,-0.13, 0.00, 0.00, 0.00, 0.00, 0.00, 0.00,107.00,2147.00,19.00,85,0,1
20150827083436739,-124.323100,48.263660,103.33, 0.80, 5.60,261.80,21,21,271.50, 0.90, 5.80, 0.23,-0.07, 0.00,-0.14, 0.00, 0.00, 0.00, 0.00, 0.00, 0.00,83.00,2153.00,11.00,96,0,1
20150827083436939,-124.323165,48.263660,103.33, 0.50, 5.90,262.70,21,21,272.40, 0.80, 5.80, 0.24,-0.06, 0.00,-0.15, 0.00, 0.00, 0.00, 0.00, 0.00, 0.00,56.00,2160.00, 1.00,108,0,1
20150827083437139,-124.323225,48.263660,103.31, 0.30, 6.10,263.70,21,21,273.40, 0.70, 5.80, 0.24,-0.06,-0.01,-0.16, 0.00, 0.00, 0.00, 0.00, 0.00, 0.00,27.00,2167.00, 6.00,120,0,1
20150827083437339,-124.323285,48.263660,103.29, 0.20, 6.30,264.60,21,21,274.40, 0.60, 5.80, 0.24,-0.06,-0.01,-0.17, 0.00, 0.00, 0.00, 0.00, 0.00, 0.00, 2.00,2172.00,10.00,132,0,1
20150827083437539,-124.323340,48.263660,103.25, 0.20, 6.40,265.50,21,21,275.30, 0.50, 5.80, 0.24,-0.06,-0.02,-0.18, 0.00, 0.00, 0.00, 0.00, 0.00, 0.00,33.00,2177.00,12.00,144,0,1
20150827083437739,-124.323400,48.263660,103.22, 0.20, 6.30,266.30,21,21,276.30, 0.30, 6.00, 0.25,-0.06,-0.02,-0.19, 0.00, 0.00, 0.00, 0.00, 0.00, 0.00,65.00,2181.00,13.00,156,0,1
20150827083437939,-124.323460,48.263660,103.19, 0.20, 6.20,267.20,21,21,277.30, 0.30, 6.00, 0.25,-0.06,-0.02,-0.20, 0.00, 0.00, 0.00, 0.00, 0.00, 0.00,95.00,2185.00,12.00,168,0,1
20150827083438139,-124.323515,48.263665,103.15, 0.20, 6.10,268.00,21,21,278.20, 0.10, 6.10, 0.25,-0.06,-0.02,-0.20, 0.00, 0.00, 0.00, 0.00, 0.00, 0.00,123.00,2187.00,12.00,179,0,1
20150827083438338,-124.323575,48.263665,103.12, 0.20, 6.10,269.00,21,21,279.30, 0.00, 6.10, 0.25,-0.06,-0.02,-0.21, 0.00, 0.00, 0.00, 0.00, 0.00, 0.00,155.00,2188.00,13.00,191,0,1
20150827083438538,-124.323635,48.263670,103.08, 0.10, 6.20,269.90,21,21,280.30, 0.00, 6.20, 0.26,-0.06,-0.02,-0.22, 0.00, 0.00, 0.00, 0.00, 0.00, 0.00,187.00,2189.00,15.00,203,0,1
20150827083438738,-124.323690,48.263675,103.04, 0.00, 6.20,270.70,21,21,281.20,-0.10, 6.30, 0.26,-0.06,-0.02,-0.23, 0.00, 0.00, 0.00, 0.00, 0.00, 0.00,216.00,2189.00,19.00,214,0,1
20150827083438938,-124.323750,48.263675,102.99,-0.20, 6.30,271.60,21,21,282.30,-0.10, 6.40, 0.26,-0.07,-0.01,-0.24, 0.00, 0.00, 0.00, 0.00, 0.00, 0.00,248.00,2189.00,26.00,226,0,1
20150827083439142,-124.323810,48.263685,102.92,-0.40, 6.50,272.40,21,21,283.40,-0.20, 6.60, 0.27,-0.06,-0.01,-0.25, 0.00, 0.00, 0.00, 0.00, 0.00, 0.00,276.00,2189.00,33.00,237,0,1
20150827083439338,-124.323875,48.263690,102.84,-0.50, 6.70,273.40,22,22,284.50,-0.30, 6.60, 0.28,-0.06,-0.01,-0.26, 0.00, 0.00, 0.00, 0.00, 0.00, 0.00,310.00,2189.00,41.00,250,0,1
20150827083439538,-124.323935,48.263695,102.74,-0.70, 6.90,274.40,22,22,285.60,-0.30, 6.70, 0.28,-0.06,-0.02,-0.27, 0.00, 0.00, 0.00, 0.00, 0.00, 0.00,343.00,2188.00,45.00,6,0,1
20150827083439738,-124.323985,48.263700,102.65,-0.70, 7.00,275.30,22,22,286.60,-0.40, 6.70, 0.28,-0.05,-0.02,-0.28, 0.00, 0.00, 0.00, 0.00, 0.00, 0.00,374.00,2186.00,48.00,17,0,1
20150827083439938,-124.324050,48.263710,102.54,-0.70, 7.20,276.40,22,22,287.80,-0.40, 6.80, 0.28,-0.05,-0.03,-0.29, 0.00, 0.00, 0.00, 0.00, 0.00, 0.00,410.00,2183.00,49.00,29,0,1
20150827083440138,-124.324110,48.263715,102.44,-0.60, 7.10,277.40,22,22,288.90,-0.40, 6.90, 0.29,-0.05,-0.03,-0.29, 0.00, 0.00, 0.00, 0.00, 0.00, 0.00,446.00,2179.00,48.00,41,0,1
20150827083440338,-124.324170,48.263725,102.34,-0.60, 7.10,278.40,22,22,290.10,-0.50, 7.00, 0.29,-0.05,-0.02,-0.30, 0.00, 0.00, 0.00, 0.00, 0.00, 0.00,480.00,2174.00,46.00,53,0,1
20150827083440538,-124.324225,48.263735,102.24,-0.50, 7.00,279.40,22,22,291.10,-0.50, 7.00, 0.29,-0.05,-0.02,-0.31, 0.00, 0.00, 0.00, 0.00, 0.00, 0.00,515.00,2168.00,44.00,65,0,1
20150827083440738,-124.324285,48.263745,102.15,-0.40, 7.00,280.40,22,22,292.30,-0.50, 7.10, 0.29,-0.05,-0.02,-0.32, 0.00, 0.00, 0.00, 0.00, 0.00, 0.00,550.00,2160.00,41.00,77,0,1
20150827083440938,-124.324340,48.263755,102.07,-0.30, 7.10,281.40,22,22,293.40,-0.60, 7.20, 0.29,-0.05,-0.02,-0.33, 0.00, 0.00, 0.00, 0.00, 0.00, 0.00,584.00,2152.00,38.00,89,0,1
20150827083441138,-124.324400,48.263765,101.99,-0.40, 7.20,282.40,22,22,294.70,-0.60, 7.30, 0.30,-0.06,-0.02,-0.33, 0.00, 0.00, 0.00, 0.00, 0.00, 0.00,617.00,2143.00,38.00,101,0,1
20150827083441338,-124.324460,48.263775,101.91,-0.50, 7.40,283.40,22,22,295.90,-0.70, 7.50, 0.30,-0.06,-0.02,-0.34, 0.00, 0.00, 0.00, 0.00, 0.00, 0.00,651.00,2133.00,42.00,113,0,1
20150827083441538,-124.324515,48.263790,101.81,-0.70, 7.60,284.40,22,22,297.00,-0.70, 7.50, 0.31,-0.06,-0.02,-0.35, 0.00, 0.00, 0.00, 0.00, 0.00, 0.00,684.00,2123.00,48.00,125,0,1
20150827083441738,-124.324575,48.263805,101.71,-0.90, 7.80,285.50,22,22,298.30,-0.70, 7.60, 0.32,-0.05,-0.02,-0.36, 0.00, 0.00, 0.00, 0.00, 0.00, 0.00,719.00,2113.00,54.00,137,0,1
20150827083441938,-124.324630,48.263815,101.59,-1.00, 8.00,286.60,22,22,299.50,-0.60, 7.70, 0.32,-0.05,-0.03,-0.36, 0.00, 0.00, 0.00, 0.00, 0.00, 0.00,753.00,2102.00,59.00,149,0,1
20150827083442137,-124.324680,48.263830,101.47,-1.00, 8.00,287.80,22,22,300.70,-0.60, 7.70, 0.32,-0.04,-0.03,-0.37, 0.00, 0.00, 0.00, 0.00, 0.00, 0.00,791.00,2089.00,62.00,162,0,1
20150827083442337,-124.324745,48.263845,101.34,-1.00, 8.00,288.90,22,22,302.00,-0.60, 7.80, 0.33,-0.04,-0.03,-0.38, 0.00, 0.00, 0.00, 0.00, 0.00, 0.00,826.00,2076.00,62.00,174,0,1
20150827083442538,-124.324795,48.263860,101.21,-0.90, 8.00,290.00,22,22,303.20,-0.60, 7.90, 0.33,-0.04,-0.03,-0.39, 0.00, 0.00, 0.00, 0.00, 0.00, 0.00,863.00,2062.00,60.00,187,0,1
20150827083442737,-124.324850,48.263875,101.10,-0.80, 8.00,291.10,22,22,304.50,-0.60, 8.00, 0.33,-0.04,-0.03,-0.40, 0.00, 0.00, 0.00, 0.00, 0.00, 0.00,898.00,2047.00,59.00,199,0,1
20150827083442937,-124.324910,48.263890,100.98,-0.70, 8.00,292.30,22,22,305.90,-0.50, 8.10, 0.33,-0.03,-0.03,-0.40, 0.00, 0.00, 0.00, 0.00, 0.00, 0.00,934.00,2030.00,55.00,212,0,1
20150827083443137,-124.324965,48.263910,100.88,-0.50, 8.10,293.50,22,22,307.20,-0.50, 8.20, 0.33,-0.03,-0.02,-0.41, 0.00, 0.00, 0.00, 0.00, 0.00, 0.00,970.00,2011.00,50.00,225,0,1
20150827083443337,-124.325015,48.263925,100.78,-0.40, 8.30,294.60,22,22,308.50,-0.40, 8.30, 0.34,-0.03,-0.02,-0.42, 0.00, 0.00, 0.00, 0.00, 0.00, 0.00,1005.00,1992.00,45.00,238,0,1
20150827083443537,-124.325070,48.263945,100.70,-0.20, 8.40,295.80,22,22,309.80,-0.50, 8.30, 0.35,-0.04,-0.03,-0.42, 0.00, 0.00,10.00, 0.00, 0.00,10.00,1040.00,1971.00,40.00,251,0,1
20150827083443737,-124.325125,48.263965,100.62,-0.20, 8.50,297.00,22,22,311.20,-0.40, 8.50, 0.35,-0.04,-0.03,-0.43, 0.00, 0.00,10.00, 0.00, 0.00,10.00,1074.00,1949.00,38.00,8,0,1
20150827083443937,-124.325170,48.263980,100.55,-0.20, 8.60,298.20,22,22,312.30,-0.40, 8.40, 0.35,-0.04,-0.03,-0.43, 0.00, 0.00,10.00, 0.00, 0.00,10.00,1108.00,1927.00,38.00,21,0,1
20150827083444137,-124.325225,48.264005,100.47,-0.20, 8.70,299.40,22,22,313.80,-0.40, 8.60, 0.36,-0.04,-0.03,-0.44, 0.00, 0.00,10.00, 0.00, 0.00,10.00,1142.00,1903.00,39.00,34,0,1
20150827083444337,-124.325275,48.264025,100.39,-0.30, 8.80,300.70,22,22,315.20,-0.40, 8.60, 0.36,-0.04,-0.03,-0.45, 0.00, 0.00,10.00, 0.00, 0.00,10.00,1176.00,1879.00,41.00,47,0,1
20150827083444537,-124.325330,48.264045,100.31,-0.40, 8.80,301.90,22,22,316.60,-0.40, 8.80, 0.37,-0.04,-0.03,-0.45, 0.00, 0.00,10.00, 0.00, 0.00,10.00,1209.00,1854.00,43.00,60,0,1
20150827083444737,-124.325375,48.264070,100.22,-0.50, 8.90,303.10,22,22,317.90,-0.40, 8.80, 0.37,-0.04,-0.03,-0.46, 0.00, 0.00,10.00, 0.00, 0.00,10.00,1241.00,1830.00,47.00,73,0,1
20150827083444937,-124.325420,48.264095,100.13,-0.60, 8.90,304.40,22,22,319.30,-0.40, 8.90, 0.37,-0.04,-0.03,-0.46, 0.00, 0.00,10.00, 0.00, 0.00,10.00,1274.00,1804.00,51.00,86,0,1
20150827083445137,-124.325475,48.264115,100.03,-0.70, 9.00,305.60,22,22,320.80,-0.40, 9.10, 0.37,-0.04,-0.03,-0.47, 0.00, 0.00,10.00, 0.00, 0.00,10.00,1306.00,1778.00,56.00,99,0,1
20150827083445337,-124.325520,48.264140,99.91,-0.90, 9.10,306.90,22,22,322.20,-0.40, 9.10, 0.38,-0.02,-0.03,-0.47, 0.00, 0.00,10.00, 0.00, 0.00,10.00,1338.00,1751.00,61.00,112,0,1
20150827083445537,-124.325565,48.264165,99.78,-1.00, 9.30,308.20,22,22,323.60,-0.40, 9.20, 0.38,-0.02,-0.03,-0.48, 0.00, 0.00,10.00, 0.00, 0.00,10.00,1371.00,1723.00,66.00,125,0,1
20150827083445741,-124.325610,48.264190,99.66,-0.90, 9.40,309.40,22,22,325.00,-0.40, 9.30, 0.39,-0.02,-0.04,-0.49, 0.00, 0.00,10.00, 0.00, 0.00,10.00,1401.00,1697.00,67.00,137,0,1
20150827083445936,-124.325660,48.264215,99.53,-0.80, 9.50,310.80,21,21,326.50, 0.10, 9.40, 0.39, 0.00,-0.03,-0.49, 0.00, 0.00,10.00, 0.00, 0.00,10.00,1435.00,1666.00,66.00,150,0,1
20150827083446137,-124.325705,48.264240,99.41,-0.60, 9.60,312.30,21,21,328.00, 0.20, 9.40, 0.39, 0.00,-0.04,-0.50, 0.00, 0.00,10.00, 0.00, 0.00,10.00,1467.00,1633.00,61.00,163,0,1
20150827083446337,-124.325740,48.264265,99.31,-0.20, 9.60,313.60,21,21,329.30, 0.30, 9.40, 0.39,-0.01,-0.04,-0.50, 0.00, 0.00,10.00, 0.00, 0.00,10.00,1497.00,1601.00,52.00,175,0,1
20150827083446537,-124.325790,48.264295,99.22, 0.00, 9.50,315.10,21,21,330.90, 0.30, 9.40, 0.39, 0.00,-0.04,-0.51, 0.00, 0.00,10.00, 0.00, 0.00,10.00,1529.00,1564.00,43.00,188,0,1
20150827083446736,-124.325825,48.264320,99.15, 0.30, 9.50,316.40,21,21,332.30, 0.40, 9.50, 0.39, 0.00,-0.04,-0.51, 0.00, 0.00,10.00, 0.00, 0.00,10.00,1556.00,1529.00,34.00,200,0,1
20150827083446936,-124.325870,48.264350,99.10, 0.50, 9.50,317.80,21,21,333.90, 0.50, 9.60, 0.39, 0.00,-0.04,-0.52, 0.00, 0.00,10.00, 0.00, 0.00,10.00,1583.00,1492.00,26.00,212,0,1
20150827083447136,-124.325910,48.264375,99.06, 0.80, 9.50,319.10,21,21,335.30, 0.50, 9.70, 0.39, 0.00,-0.04,-0.52, 0.00, 0.00,10.00, 0.00, 0.00,10.00,1608.00,1454.00,19.00,224,0,1
20150827083447336,-124.325950,48.264405,99.04, 1.00, 9.70,320.50,21,21,336.80, 0.50, 9.70, 0.41,-0.01,-0.03,-0.52, 0.00, 0.00,10.00, 0.00, 0.00,10.00,1632.00,1415.00,13.00,236,0,1
20150827083447536,-124.325985,48.264435,99.02, 1.10, 9.80,321.90,21,21,338.30, 0.50, 9.80, 0.41,-0.02,-0.03,-0.52, 0.00, 0.00,10.00, 0.00, 0.00,10.00,1655.00,1375.00, 9.00,248,0,1
20150827083447736,-124.326025,48.264465,99.02, 1.00, 9.90,323.30,21,21,339.90, 0.50, 9.90, 0.41,-0.02,-0.03,-0.53, 0.00, 0.00,10.00, 0.00, 0.00,10.00,1677.00,1335.00, 9.00,4,0,1
20150827083447936,-124.326055,48.264495,99.00, 0.80,10.10,324.80,21,21,341.30, 0.50, 9.80, 0.41,-0.02,-0.04,-0.53, 0.00, 0.00,10.00, 0.00, 0.00,10.00,1699.00,1295.00,13.00,16,0,1
20150827083448136,-124.326095,48.264530,98.98, 0.60,10.20,326.20,21,21,342.90, 0.60,10.00, 0.41,-0.01,-0.04,-0.53, 0.00, 0.00,10.00, 0.00, 0.00,10.00,1720.00,1255.00,20.00,28,0,1
20150827083448336,-124.326125,48.264560,98.94, 0.40,10.20,327.70,21,21,344.40, 0.70,10.00, 0.41,-0.01,-0.04,-0.53, 0.00, 0.00,10.00, 0.00, 0.00,10.00,1741.00,1214.00,27.00,40,0,1
20150827083448536,-124.326155,48.264590,98.89, 0.30,10.20,329.10,21,21,345.90, 0.80,10.00, 0.42, 0.00,-0.05,-0.54, 0.00, 0.00,10.00, 0.00, 0.00,10.00,1762.00,1174.00,33.00,52,0,1
20150827083448736,-124.326190,48.264625,98.83, 0.20,10.10,330.60,21,21,347.60, 0.80,10.10, 0.42, 0.00,-0.05,-0.54, 0.00, 0.00,10.00, 0.00, 0.00,10.00,1782.00,1133.00,38.00,64,0,1
20150827083448936,-124.326225,48.264655,98.76, 0.30,10.10,332.10,21,21,349.10, 0.90,10.10, 0.42, 0.00,-0.04,-0.54, 0.00, 0.00,10.00, 0.00, 0.00,10.00,1802.00,1091.00,40.00,76,0,1
20150827083449136,-124.326245,48.264690,98.69, 0.30,10.20,333.60,20,20,350.60, 1.00,10.10, 0.42, 0.00,-0.04,-0.55, 0.00, 0.00,10.00, 0.00, 0.00,10.00,1821.00,1048.00,40.00,88,0,1
20150827083449336,-124.326275,48.264720,98.63, 0.50,10.20,335.00,20,20,352.10, 1.10,10.20, 0.42, 0.00,-0.04,-0.55, 0.00, 0.00,10.00, 0.00, 0.00,10.00,1837.00,1008.00,38.00,99,0,1
20150827083449536,-124.326300,48.264755,98.57, 0.60,10.30,336.60,20,20,353.70, 1.20,10.20, 0.42, 0.01,-0.05,-0.55, 0.00, 0.00,10.00, 0.00, 0.00,10.00,1854.00,962.00,34.00,111,0,1
