timestamp,lon,lat,alt,pitch,roll,yaw,dyaw,airspeed,groundspeed, yawcmd,pitchcmd,rollcmd,tyaw,tpitch,troll,throttle,rvx,rvy,rvz,accx,accy,accz,speN,speE,speD,gpsSta,nStNum,insSta
20150827082936436,-124.319500,48.266685,-0.02, 0.10, 0.00,155.70,0,0, 0.00, 0.00, 0.00, 0.00, 0.00, 0.00,-1.00, 0.00, 0.00, 0.00, 0.00, 0.00, 0.00, 0.00, 0.00, 0.00,176,0,1
20150827082936532,-124.319500,48.266685,-0.02, 0.10, 0.00,155.70,0,0, 0.00, 0.00, 0.00, 0.00, 0.00, 0.00,-1.00, 0.00, 0.00, 0.00, 0.00, 0.00, 0.00, 0.00, 0.00, 0.00,185,0,1
20150827082936732,-124.319500,48.266685,-0.02, 0.10, 0.00,155.70,0,0, 0.00, 0.00, 0.00, 0.00, 0.00, 0.00,-1.00, 0.00, 0.00, 0.00, 0.00, 0.00, 0.00, 0.00, 0.00, 0.00,194,0,1
20150827082936932,-124.319500,48.266685,-0.02, 0.00, 0.00,155.70,0,0, 0.00, 0.00, 0.00, 0.00, 0.00, 0.00,-1.00, 0.00, 0.00, 0.00, 0.00, 0.00, 0.00, 0.00, 0.00, 0.00,204,0,1
20150827082937132,-124.319500,48.266685,-0.02, 0.00, 0.00,155.70,0,0, 0.00, 0.00, 0.00, 0.00, 0.00, 0.00,-1.00, 0.00, 0.00, 0.00, 0.00, 0.00, 0.00, 0.00, 0.00, 0.00,213,0,1
20150827082937331,-124.319500,48.266685,-0.02, 0.00, 0.00,155.70,0,0, 0.00, 0.00, 0.00, 0.00, 0.00, 0.00, 0.00, 0.00, 0.00, 0.00, 0.00, 0.00, 0.00, 0.00, 0.00, 0.00,223,0,1
20150827082937531,-124.319500,48.266685,-0.02, 0.00,-0.10,155.70,0,0, 0.00, 0.00, 0.00, 0.00, 0.00, 0.00, 0.00, 0.00, 0.00, 0.00, 0.00, 0.00, 0.00, 0.00, 0.00, 0.00,232,0,1
20150827082937731,-124.319500,48.266685,-0.02, 0.10,-0.10,155.70,0,0, 0.00, 0.00, 0.00, 0.00, 0.00, 0.00, 0.00, 0.00, 0.00, 0.00, 0.00, 0.00, 0.00, 0.00, 0.00, 0.00,241,0,1
20150827082937932,-124.319500,48.266685,-0.02, 0.30,-0.20,155.70,0,0, 0.00, 0.00, 0.00, 0.00, 0.00, 0.00, 0.00, 0.00, 0.00, 0.00, 0.00, 0.00, 0.00, 0.00, 0.00, 0.00,251,0,1
20150827082938131,-124.319500,48.266685,-0.02, 0.50,-0.20,155.70,0,0, 0.00, 0.00, 0.00, 0.00,-0.01, 0.00, 0.00, 0.00, 0.00, 0.00, 0.00, 0.00, 0.00, 0.00, 0.00, 0.00,4,0,1
20150827082938332,-124.319500,48.266685,-0.02, 0.60,-0.20,155.70,0,0, 0.00, 0.00, 0.00, 0.00,-0.01, 0.00, 0.00, 0.00, 0.00, 0.00, 0.00, 0.00, 0.00, 0.00, 0.00, 0.00,14,0,1
20150827082938532,-124.319500,48.266685,-0.02, 0.70,-0.20,155.70,0,0, 0.00, 0.00, 0.00, 0.00,-0.02, 0.00, 0.00, 0.00, 0.00, 0.00, 0.00, 0.00, 0.00, 0.00, 0.00, 0.00,23,0,1
20150827082938731,-124.319500,48.266685,-0.02, 0.70,-0.20,155.70,0,0, 0.00, 0.00, 0.00, 0.00,-0.02, 0.00, 0.00, 0.00, 0.00, 0.00, 0.00, 0.00, 0.00, 0.00, 0.00, 0.00,32,0,1
20150827082938932,-124.319500,48.266685,-0.02, 0.70,-0.20,155.70,0,0, 0.00, 0.00, 0.00, 0.00,-0.03, 0.00, 0.00, 0.00, 0.00, 0.00, 0.00, 0.00, 0.00, 0.00, 0.00, 0.00,42,0,1
20150827082939131,-124.319500,48.266685,-0.02, 0.70,-0.20,155.70,0,0, 0.00, 0.00, 0.00, 0.00,-0.03, 0.00, 0.00, 0.00, 0.00, 0.00, 0.00, 0.00, 0.00, 0.00, 0.00, 0.00,51,0,1
20150827082939332,-124.319500,48.266685,-0.02, 0.70,-0.10,155.70,0,0, 0.00, 0.00, 0.00, 0.00,-0.03, 0.00, 0.00, 0.00, 0.00, 0.00, 0.00, 0.00, 0.00, 0.00, 0.00, 0.00,61,0,1
20150827082939531,-124.319500,48.266685,-0.02, 0.70,-0.10,155.70,0,0, 0.00, 0.00, 0.00, 0.00,-0.04, 0.00, 0.00, 0.00, 0.00, 0.00, 0.00, 0.00, 0.00, 0.00, 0.00, 0.00,70,0,1
20150827082939731,-124.319500,48.266685,-0.02, 0.70,-0.10,155.70,0,0, 0.00, 0.00, 0.00, 0.00,-0.04, 0.00, 0.00, 0.00, 0.00, 0.00, 0.00, 0.00, 0.00, 0.00, 0.00, 0.00,80,0,1
20150827082939931,-124.319500,48.266685,-0.02, 0.60,-0.10,155.70,0,0, 0.00, 0.00, 0.00, 0.00,-0.05, 0.00, 0.00, 0.00, 0.00, 0.00, 0.00, 0.00, 0.00, 0.00, 0.00, 0.00,89,0,1
20150827082940131,-124.319500,48.266685,-0.02, 0.60,-0.10,155.70,0,0, 0.00, 0.00, 0.00, 0.00,-0.05, 0.00, 0.00, 0.00, 0.00, 0.00, 0.00, 0.00, 0.00, 0.00, 0.00, 0.00,98,0,1
20150827082940331,-124.319500,48.266685,-0.02, 0.60,-0.10,155.70,0,0, 0.00, 0.00, 0.00, 0.00,-0.06, 0.00, 0.00, 0.00, 0.00, 0.00, 0.00, 0.00, 0.00, 0.00, 0.00, 0.00,108,0,1
20150827082940531,-124.319500,48.266685,-0.02, 0.60,-0.10,155.70,0,0, 0.00,10.00, 0.00, 0.00,-0.02, 0.00, 0.00, 0.00, 0.00, 0.00, 0.00, 0.00, 0.00, 0.00, 0.00, 0.00,117,0,1
20150827082940730,-124.319500,48.266685,-0.02, 0.70,-0.10,155.70,0,0, 0.00,10.00, 0.00, 0.00, 0.07, 0.00, 0.00, 0.00, 0.00, 0.00, 0.00, 0.00, 0.00, 0.00, 0.00, 0.00,126,0,1
20150827082940930,-124.319500,48.266685,-0.02, 1.40,-0.10,155.70,0,0, 0.00,10.00, 0.00, 0.00, 0.15, 0.00, 0.00, 0.00, 0.00, 0.00, 0.00, 0.00, 0.00, 0.00, 0.00, 0.00,136,0,1
20150827082941131,-124.319500,48.266685,-0.02, 2.10,-0.10,155.70,0,0, 0.00,10.00, 0.00, 0.00, 0.15, 0.00, 0.00, 0.00, 0.00, 0.00, 0.00, 0.00, 0.00, 0.00, 0.00, 0.00,145,0,1
20150827082941331,-124.319500,48.266685,-0.02, 2.40,-0.10,155.70,0,0, 0.00,10.00, 0.00, 0.00, 0.15, 0.00, 0.00, 0.00, 0.00, 0.00, 0.00, 0.00, 0.00, 0.00, 0.00, 0.00,154,0,1
20150827082941530,-124.319500,48.266685,-0.02, 2.40,-0.10,155.70,0,0, 0.00,10.00, 0.00, 0.00, 0.16, 0.00, 0.00, 0.00, 0.00, 0.00, 0.00, 0.00, 0.00, 0.00, 0.00, 0.00,162,0,1
20150827082941730,-124.319500,48.266685,-0.02, 2.30,-0.10,155.70,0,0, 0.00,10.00, 0.00, 0.00, 0.18, 0.00, 0.00, 0.00, 0.00, 0.00, 0.00, 0.00, 0.00, 0.00, 0.00, 0.00,171,0,1
20150827082941930,-124.319500,48.266685,-0.02, 2.30,-0.10,155.70,0,0, 0.00,10.00, 0.00, 0.00, 0.18, 0.00, 0.00, 0.00, 0.00, 0.00, 0.00, 0.00, 0.00, 0.00, 0.00, 0.00,180,0,1
20150827082942130,-124.319500,48.266685,-0.02, 2.40,-0.10,155.70,0,0, 0.00,10.00, 0.00, 0.00, 0.19, 0.00, 0.00, 0.00, 0.00, 0.00, 0.00, 0.00, 0.00, 0.00, 0.00, 0.00,189,0,1
20150827082942330,-124.319500,48.266685,-0.02, 2.50,-0.10,155.70,0,0, 0.00,10.00, 0.00, 0.00, 0.20, 0.00, 0.00, 0.00, 0.00, 0.00, 0.00, 0.00, 0.00, 0.00, 0.00, 0.00,198,0,1
20150827082942531,-124.319500,48.266685,-0.02, 2.50, 0.00,155.50,0,0, 0.00,10.00, 0.00, 0.00, 0.21, 0.00, 0.00, 0.00, 0.00, 0.00, 0.00, 0.00, 0.00,41.00,16.00, 0.00,208,0,1
20150827082942730,-124.319500,48.266685,-0.03, 2.50, 0.10,154.20,1,1, 0.00,10.00, 0.00, 0.00, 0.22, 0.00, 0.00, 0.00, 0.00,-10.00, 0.00, 0.00,-10.00,106.00,48.00, 0.00,217,0,1
20150827082942930,-124.319495,48.266680,-0.03, 2.60, 0.20,152.20,1,1, 0.00,10.00, 0.00, 0.00, 0.23, 0.00, 0.00, 0.00, 0.00,-20.00, 0.00, 0.00,-20.00,166.00,85.00, 0.00,226,0,1
20150827082943130,-124.319495,48.266675,-0.03, 2.90, 0.10,149.60,2,2, 0.00,10.00, 0.00, 0.00, 0.24, 0.00, 0.00, 0.00, 0.00,-20.00, 0.00, 0.00,-20.00,221.00,126.00, 0.00,235,0,1
20150827082943330,-124.319495,48.266670,-0.03, 3.50, 0.10,146.60,3,3, 0.00,10.00, 0.00, 0.00, 0.23, 0.00, 0.00, 0.00, 0.00,-20.00, 0.00, 0.00,-20.00,272.00,173.00, 6.00,244,0,1
20150827082943530,-124.319485,48.266665,-0.01, 4.70,-1.40,143.50,3,3, 0.00,10.00, 0.00, 0.00, 0.21, 0.03, 0.00,10.00, 0.00,-20.00,10.00, 0.00,-20.00,311.00,217.00,10.00,253,0,1
20150827082943730,-124.319480,48.266660, 0.00, 5.30, 0.10,140.60,4,4, 0.00,10.00, 0.00, 0.00, 0.21, 0.03, 0.00,10.00, 0.00,-20.00,10.00, 0.00,-20.00,344.00,259.00, 3.00,6,0,1
20150827082943930,-124.319470,48.266650, 0.00, 5.70, 0.70,138.20,4,4, 0.00,10.00, 0.00, 0.00, 0.21, 0.03, 0.00, 0.00, 0.00,-10.00, 0.00, 0.00,-10.00,369.00,302.00, 1.00,15,0,1
20150827082944130,-124.319465,48.266645, 0.00, 6.10, 0.30,136.50,5,5, 0.00,10.00, 0.00, 0.00, 0.21, 0.03, 0.00, 0.00, 0.00,-10.00, 0.00, 0.00,-10.00,391.00,346.00, 2.00,24,0,1
20150827082944330,-124.319455,48.266635, 0.00, 6.70,-0.30,135.50,5,5, 0.00,10.00, 0.00, 0.00, 0.21, 0.03, 0.00, 0.00, 0.00, 0.00, 0.00, 0.00, 0.00,413.00,386.00, 2.00,33,0,1
20150827082944530,-124.319440,48.266630, 0.00, 7.60, 0.10,134.90,6,6, 0.00,10.00, 0.00, 0.00, 0.20, 0.03, 0.00, 0.00, 0.00, 0.00, 0.00, 0.00, 0.00,440.00,427.00, 2.00,43,0,1
20150827082944729,-124.319425,48.266620, 0.00, 8.70, 0.90,134.70,6,6, 0.00,10.00, 0.00, 0.00, 0.19, 0.03, 0.00, 0.00,10.00, 0.00, 0.00,10.00, 0.00,464.00,460.00, 3.00,52,0,1
20150827082944929,-124.319415,48.266615, 0.00,10.20, 1.20,134.80,6,6, 0.00,10.00, 0.00, 0.00, 0.17, 0.00, 0.00,10.00,10.00, 0.00,10.00,10.00, 0.00,490.00,490.00, 1.00,61,0,1
20150827082945129,-124.319400,48.266605, 0.00,11.70, 1.30,135.00,7,7, 0.00,10.00, 0.00, 0.00, 0.13, 0.00, 0.00, 0.00,10.00, 0.00, 0.00,10.00, 0.00,515.00,516.00, 3.00,70,0,1
20150827082945329,-124.319385,48.266595, 0.00,12.30, 0.80,135.50,7,7, 0.00,10.00, 0.00, 0.00, 0.13, 0.00, 0.00, 0.00, 0.00, 0.00, 0.00, 0.00, 0.00,537.00,537.00,17.00,79,0,1
20150827082945529,-124.319370,48.266590, 0.05,12.40, 0.40,136.10,7,7, 0.00,10.00, 0.00, 0.00, 0.14, 0.00, 0.00, 0.00, 0.00, 0.00, 0.00, 0.00, 0.00,558.00,557.00,33.00,88,0,1
20150827082945729,-124.319355,48.266575, 0.14,12.80, 0.10,136.60,8,8, 0.00,10.00, 0.00, 0.00, 0.13, 0.00, 0.00, 0.00, 0.00, 0.00, 0.00, 0.00, 0.00,576.00,574.00,49.00,97,0,1
20150827082945929,-124.319340,48.266565, 0.26,13.60,-0.10,136.90,8,8, 0.00,10.00, 0.00, 0.00, 0.11, 0.00, 0.00, 0.00, 0.00, 0.00, 0.00, 0.00, 0.00,592.00,589.00,70.00,106,0,1
20150827082946129,-124.319325,48.266555, 0.41,14.40,-0.40,136.90,8,8, 0.00,10.00, 0.00, 0.00, 0.09, 0.00, 0.00, 0.00, 0.00, 0.00, 0.00, 0.00, 0.00,602.00,599.00,92.00,114,0,1
20150827082946330,-124.319310,48.266545, 0.61,15.10,-0.80,136.70,8,8, 0.00,10.00, 0.00, 0.00, 0.07, 0.00, 0.00, 0.00, 0.00, 0.00, 0.00, 0.00, 0.00,609.00,607.00,114.00,122,0,1
20150827082946529,-124.319295,48.266535, 0.88,15.60,-1.20,136.30,8,8, 0.00,10.00, 0.00, 0.00, 0.05, 0.03, 0.00, 0.00, 0.00, 0.00, 0.00, 0.00, 0.00,612.00,616.00,135.00,131,0,1
20150827082946729,-124.319280,48.266525, 1.14,15.90,-1.50,135.80,8,8, 0.00,10.00, 0.00, 0.00, 0.05, 0.04, 0.00, 0.00, 0.00, 0.00, 0.00, 0.00, 0.00,613.00,624.00,148.00,138,0,1
20150827082946929,-124.319255,48.266510, 1.47,16.00,-1.70,135.20,8,8, 0.00,10.00, 0.00, 0.00, 0.04, 0.05, 0.00, 0.00, 0.00, 0.00, 0.00, 0.00, 0.00,612.00,633.00,158.00,147,0,1
20150827082947134,-124.319240,48.266500, 1.75,16.10,-1.80,134.70,8,8, 0.00,10.00, 0.00, 0.00, 0.04, 0.05, 0.00, 0.00, 0.00, 0.00, 0.00, 0.00, 0.00,611.00,641.00,164.00,154,0,1
20150827082947329,-124.319225,48.266490, 2.08,16.10,-1.80,134.20,9,9, 0.00,10.00, 0.00, 0.00, 0.04, 0.06, 0.00, 0.00, 0.00, 0.00, 0.00, 0.00, 0.00,609.00,651.00,168.00,162,0,1
20150827082947529,-124.319210,48.266475, 2.43,16.10,-1.70,133.70,9,9, 0.00,10.00, 0.00, 0.00, 0.04, 0.06, 0.00, 0.00, 0.00, 0.00, 0.00, 0.00, 0.00,606.00,661.00,171.00,170,0,1
20150827082947729,-124.319190,48.266465, 2.79,16.10,-1.50,133.30,9,9, 0.00,10.00, 0.00, 0.00, 0.04, 0.07, 0.00, 0.00, 0.00, 0.00, 0.00, 0.00, 0.00,604.00,670.00,174.00,178,0,1
20150827082947929,-124.319175,48.266455, 3.14,16.10,-1.20,133.00,9,9, 0.00,10.00, 0.00, 0.00, 0.04, 0.06, 0.00, 0.00, 0.00, 0.00, 0.00, 0.00, 0.00,603.00,678.00,177.00,186,0,1
20150827082948129,-124.319150,48.266445, 3.52,16.20,-0.90,132.80,9,9, 0.00,10.00, 0.00, 0.00, 0.04, 0.06, 0.00, 0.00, 0.00, 0.00, 0.00, 0.00, 0.00,601.00,686.00,180.00,195,0,1
20150827082948329,-124.319135,48.266435, 3.86,16.20,-0.60,132.60,9,9, 0.00,10.00, 0.00, 0.00, 0.03, 0.06, 0.00, 0.00, 0.00, 0.00, 0.00, 0.00, 0.00,600.00,692.00,182.00,203,0,1
20150827082948529,-124.319110,48.266425, 4.24,16.10,-0.20,132.40,9,9, 0.00,10.00, 0.00, 0.00, 0.02, 0.06, 0.00, 0.00, 0.00, 0.00, 0.00, 0.00, 0.00,600.00,698.00,184.00,212,0,1
20150827082948728,-124.319095,48.266410, 4.59,15.90, 0.00,132.30,9,9, 0.00,10.00, 0.00, 0.00, 0.01, 0.06, 0.00, 0.00, 0.00, 0.00, 0.00, 0.00, 0.00,602.00,703.00,183.00,220,0,1
20150827082948934,-124.319080,48.266400, 4.93,15.60, 0.40,132.30,9,9, 0.00,10.00, 0.00, 0.00, 0.01, 0.06, 0.00, 0.00, 0.00, 0.00, 0.00, 0.00, 0.00,604.00,708.00,181.00,228,0,1
20150827082949128,-124.319060,48.266390, 5.31,15.10, 0.90,132.30,9,9, 0.00,10.00, 0.00, 0.00, 0.01, 0.06, 0.00, 0.00, 0.00, 0.00, 0.00, 0.00, 0.00,609.00,714.00,176.00,237,0,1
20150827082949328,-124.319045,48.266380, 5.64,14.70, 1.20,132.30,9,9, 0.00,10.00, 0.00, 0.00, 0.01, 0.05, 0.00, 0.00, 0.00, 0.00, 0.00, 0.00, 0.00,616.00,719.00,170.00,245,0,1
20150827082949528,-124.319020,48.266365, 5.99,14.20, 1.40,132.50,9,9, 0.00,10.00, 0.00, 0.00, 0.01, 0.04, 0.00, 0.00, 0.00, 0.00, 0.00, 0.00, 0.00,624.00,725.00,163.00,254,0,1
20150827082949729,-124.319000,48.266355, 6.32,13.70, 1.60,132.80,9,9, 0.00,10.00, 0.00, 0.00, 0.01, 0.03, 0.00, 0.00, 0.00, 0.00, 0.00, 0.00, 0.00,633.00,731.00,157.00,7,0,1
20150827082950235,-124.318980,48.266345, 6.60,13.40, 1.70,133.10,9,9, 0.00,10.00, 0.00, 0.00, 0.01, 0.03, 0.00, 0.00, 0.00, 0.00, 0.00, 0.00, 0.00,643.00,736.00,153.00,15,0,1
20150827082950741,-124.318960,48.266330, 6.91,12.90, 1.70,133.40,9,9, 0.00,10.00, 0.00, 0.00, 0.01, 0.02, 0.00, 0.00, 0.00, 0.00, 0.00, 0.00, 0.00,654.00,742.00,148.00,24,0,1
20150827082950748,-124.318935,48.266320, 7.21,12.50, 1.70,133.80,10,10, 0.00,10.00, 0.00, 0.00, 0.01, 0.01, 0.00, 0.00, 0.00, 0.00, 0.00, 0.00, 0.00,666.00,748.00,143.00,33,0,1
20150827082951253,-124.318920,48.266310, 7.49,12.10, 1.60,134.10,10,10, 0.00,10.00, 0.00, 0.00, 0.01, 0.01, 0.00, 0.00, 0.00, 0.00, 0.00, 0.00, 0.00,679.00,755.00,139.00,42,0,1
20150827082951259,-124.318900,48.266300, 7.74,11.70, 1.40,134.30,10,10, 0.00,10.00, 0.00, 0.00, 0.01, 0.01, 0.00, 0.00, 0.00, 0.00, 0.00, 0.00, 0.00,690.00,761.00,136.00,50,0,1
20150827082951264,-124.318885,48.266285, 8.02,11.40, 1.20,134.50,10,10, 0.00,10.00, 0.00, 0.00, 0.00, 0.01, 0.00, 0.00, 0.00, 0.00, 0.00, 0.00, 0.00,703.00,769.00,132.00,59,0,1
20150827082951769,-124.318860,48.266270, 8.28,11.00, 0.90,134.70,10,10, 0.00,10.00, 0.00, 0.00, 0.00, 0.01, 0.00, 0.00, 0.00, 0.00, 0.00, 0.00, 0.00,716.00,777.00,129.00,68,0,1
20150827082951776,-124.318840,48.266260, 8.51,10.60, 0.70,134.80,10,10, 0.00,10.00, 0.00, 0.00, 0.00, 0.01, 0.00, 0.00, 0.00, 0.00, 0.00, 0.00, 0.00,727.00,786.00,126.00,76,0,1
20150827082952281,-124.318815,48.266245, 8.77,10.30, 0.40,134.90,10,10, 0.00,10.00, 0.00, 0.00, 0.00, 0.01, 0.00, 0.00, 0.00, 0.00, 0.00, 0.00, 0.00,739.00,796.00,123.00,85,0,1
20150827082952287,-124.318790,48.266235, 9.01, 9.90, 0.10,135.00,11,11, 0.00,10.00, 0.00, 0.00, 0.00, 0.01, 0.00, 0.00, 0.00, 0.00, 0.00, 0.00, 0.00,751.00,807.00,120.00,94,0,1
20150827082952292,-124.318770,48.266220, 9.26, 9.60, 0.00,135.00,11,11, 0.00,10.00, 0.00, 0.00, 0.00, 0.01, 0.00, 0.00, 0.00, 0.00, 0.00, 0.00, 0.00,763.00,819.00,117.00,103,0,1
20150827082952300,-124.318755,48.266205, 9.47, 9.30,-0.30,135.00,11,11, 0.00,10.00, 0.00, 0.00, 0.00, 0.01, 0.00, 0.00, 0.00, 0.00, 0.00, 0.00, 0.00,773.00,830.00,115.00,111,0,1
20150827082952328,-124.318730,48.266190, 9.70, 9.00,-0.60,135.00,11,11, 0.00,10.00, 0.00, 0.00, 0.00, 0.01, 0.00, 0.00, 0.00, 0.00, 0.00, 0.00, 0.00,783.00,843.00,113.00,120,0,1
20150827082952528,-124.318710,48.266175, 9.93, 8.70,-0.90,134.90,11,11, 0.00,10.00, 0.00, 0.00, 0.00, 0.01, 0.00, 0.00, 0.00, 0.00, 0.00, 0.00, 0.00,794.00,857.00,111.00,129,0,1
20150827082952730,-124.318685,48.266160,10.13, 8.40,-1.10,134.80,11,11, 0.00,10.00, 0.00, 0.00, 0.00, 0.02, 0.00, 0.00, 0.00, 0.00, 0.00, 0.00, 0.00,802.00,871.00,108.00,137,0,1
20150827082952930,-124.318660,48.266150,10.32, 8.10,-1.20,134.70,12,12, 0.00,10.00, 0.00, 0.00, 0.00, 0.03, 0.00, 0.00, 0.00, 0.00, 0.00, 0.00, 0.00,811.00,884.00,106.00,144,0,1
20150827082953128,-124.318630,48.266135,10.56, 7.80,-1.20,134.50,12,12, 0.00,10.00, 0.00, 0.00,-0.01, 0.03, 0.00, 0.00, 0.00, 0.00, 0.00, 0.00, 0.00,821.00,902.00,103.00,153,0,1
20150827082953327,-124.318610,48.266120,10.75, 7.60,-1.10,134.30,12,12, 0.00,10.00, 0.00, 0.00,-0.01, 0.03, 0.00, 0.00, 0.00, 0.00, 0.00, 0.00, 0.00,830.00,916.00,101.00,161,0,1
20150827082953528,-124.318585,48.266105,10.96, 7.30,-0.90,134.10,12,12, 0.00,10.00, 0.00, 0.00,-0.01, 0.03, 0.00, 0.00, 0.00, 0.00, 0.00, 0.00, 0.00,839.00,932.00,99.00,170,0,1
20150827082953733,-124.318565,48.266090,11.14, 7.10,-0.80,134.00,12,12, 0.00,10.00, 0.00, 0.00,-0.01, 0.03, 0.00, 0.00, 0.00, 0.00, 0.00, 0.00, 0.00,848.00,946.00,97.00,178,0,1
20150827082953930,-124.318530,48.266075,11.33, 7.00,-0.50,134.00,12,12, 0.00,10.00, 0.00, 0.00,-0.01, 0.03, 0.00, 0.00, 0.00, 0.00, 0.00, 0.00, 0.00,857.00,961.00,96.00,186,0,1
20150827082954128,-124.318510,48.266055,11.50, 6.80,-0.30,134.00,13,13, 0.00,10.00, 0.00, 0.00, 0.00, 0.03, 0.00, 0.00, 0.00, 0.00, 0.00, 0.00, 0.00,866.00,973.00,96.00,193,0,1
20150827082954335,-124.318485,48.266040,11.70, 6.90,-0.10,134.00,13,13, 0.00,10.00, 0.00, 0.00, 0.00, 0.03, 0.00, 0.00, 0.00, 0.00, 0.00, 0.00, 0.00,877.00,986.00,97.00,201,0,1
20150827082954528,-124.318455,48.266025,11.91, 7.10, 0.10,134.00,13,13, 0.00,10.00, 0.00, 0.00, 0.00, 0.03, 0.00, 0.00, 0.00, 0.00, 0.00, 0.00, 0.00,887.00,997.00,104.00,210,0,1
20150827082954728,-124.318425,48.266010,12.11, 7.40, 0.40,134.10,13,13, 0.00,10.00, 0.00, 0.00, 0.00, 0.03, 0.00, 0.00, 0.00, 0.00, 0.00, 0.00, 0.00,896.00,1005.00,113.00,218,0,1
20150827082954928,-124.318405,48.265995,12.36, 7.70, 0.70,134.20,13,13, 0.00,10.00, 0.00, 0.00, 0.00, 0.03, 0.00, 0.00, 0.00, 0.00, 0.00, 0.00, 0.00,905.00,1012.00,124.00,227,0,1
20150827082955128,-124.318370,48.265975,12.61, 8.00, 1.00,134.30,13,13, 0.00,10.00, 0.00, 0.00, 0.00, 0.02, 0.00, 0.00, 0.00, 0.00, 0.00, 0.00, 0.00,913.00,1017.00,136.00,235,0,1
20150827082955328,-124.318340,48.265960,12.90, 8.40, 1.00,134.50,13,13, 0.00,10.00, 0.00, 0.00, 0.00, 0.01, 0.00, 0.00, 0.00, 0.00, 0.00, 0.00, 0.00,921.00,1020.00,149.00,244,0,1
20150827082955528,-124.318320,48.265945,13.19, 8.80, 0.90,134.70,13,13, 0.00,10.00, 0.00, 0.00, 0.00, 0.01, 0.00, 0.00, 0.00, 0.00, 0.00, 0.00, 0.00,927.00,1021.00,161.00,252,0,1
20150827082955728,-124.318290,48.265930,13.54, 9.20, 0.80,134.90,13,13, 0.00,10.00, 0.00, 0.00, 0.00, 0.01, 0.00, 0.00, 0.00, 0.00, 0.00, 0.00, 0.00,933.00,1021.00,174.00,5,0,1
20150827082955928,-124.318265,48.265910,13.91, 9.60, 0.70,135.10,13,13, 0.00,10.00, 0.00, 0.00, 0.00, 0.01, 0.00, 0.00, 0.00, 0.00, 0.00, 0.00, 0.00,937.00,1021.00,186.00,14,0,1
20150827082956128,-124.318235,48.265895,14.27, 9.90, 0.60,135.20,13,13, 0.00,10.00, 0.00, 0.00, 0.00, 0.01, 0.00, 0.00, 0.00, 0.00, 0.00, 0.00, 0.00,940.00,1020.00,196.00,22,0,1
20150827082956328,-124.318205,48.265875,14.69,10.20, 0.50,135.30,14,14, 0.00,10.00, 0.00, 0.00, 0.00, 0.01, 0.00, 0.00, 0.00, 0.00, 0.00, 0.00, 0.00,943.00,1018.00,206.00,31,0,1
20150827082956528,-124.318180,48.265860,15.08,10.50, 0.40,135.30,14,14, 0.00,10.00, 0.00, 0.00,-0.01, 0.01, 0.00, 0.00, 0.00, 0.00, 0.00, 0.00, 0.00,944.00,1016.00,216.00,39,0,1
20150827082956727,-124.318150,48.265840,15.56,10.90, 0.20,135.40,14,14, 0.00,10.00, 0.00, 0.00,-0.01, 0.01, 0.00, 0.00, 0.00, 0.00, 0.00, 0.00, 0.00,944.00,1014.00,226.00,48,0,1
20150827082956928,-124.318130,48.265825,15.99,11.10, 0.10,135.40,14,14, 0.00,10.00, 0.00, 0.00,-0.01, 0.01, 0.00, 0.00, 0.00, 0.00, 0.00, 0.00, 0.00,943.00,1011.00,233.00,56,0,1
20150827082957127,-124.318095,48.265805,16.49,11.40, 0.00,135.50,13,13, 0.00,10.00, 0.00, 0.00,-0.01, 0.01, 0.00, 0.00, 0.00, 0.00, 0.00, 0.00, 0.00,941.00,1009.00,240.00,65,0,1
20150827082957344,-124.318075,48.265790,16.95,11.60,-0.10,135.50,13,13, 0.00,10.00, 0.00, 0.00,-0.02, 0.01, 0.00, 0.00, 0.00, 0.00, 0.00, 0.00, 0.00,939.00,1006.00,246.00,73,0,1
20150827082957527,-124.318045,48.265775,17.42,11.70,-0.20,135.50,13,13, 0.00,10.00, 0.00, 0.00,-0.03, 0.01, 0.00, 0.00, 0.00, 0.00, 0.00, 0.00, 0.00,936.00,1004.00,250.00,81,0,1
20150827082957727,-124.318015,48.265755,17.95,11.60,-0.40,135.40,13,13, 0.00,10.00, 0.00, 0.00,-0.03, 0.01, 0.00, 0.00, 0.00, 0.00, 0.00, 0.00, 0.00,934.00,1002.00,251.00,90,0,1
20150827082957927,-124.317990,48.265740,18.41,11.50,-0.60,135.40,13,13, 0.00,10.00, 0.00, 0.00,-0.03, 0.01, 0.00, 0.00, 0.00, 0.00, 0.00, 0.00, 0.00,932.00,1002.00,249.00,98,0,1
20150827082958127,-124.317960,48.265720,18.93,11.30,-0.80,135.30,13,13, 0.00,10.00, 0.00, 0.00,-0.03, 0.01, 0.00, 0.00, 0.00, 0.00, 0.00, 0.00, 0.00,930.00,1003.00,243.00,107,0,1
20150827082958327,-124.317935,48.265705,19.38,11.00,-0.90,135.20,13,13, 0.00,10.00, 0.00, 0.00,-0.03, 0.01, 0.00, 0.00, 0.00, 0.00, 0.00, 0.00, 0.00,929.00,1005.00,237.00,115,0,1
20150827082958527,-124.317905,48.265685,19.87,10.70,-0.80,135.10,13,13, 0.00,10.00, 0.00, 0.00,-0.03, 0.04, 0.00, 0.00, 0.00, 0.00, 0.00, 0.00, 0.00,928.00,1008.00,230.00,124,0,1
20150827082958727,-124.317885,48.265670,20.30,10.50,-0.50,135.00,13,13, 0.00,10.00, 0.00, 0.00,-0.03, 0.04, 0.00, 0.00, 0.00, 0.00, 0.00, 0.00, 0.00,928.00,1011.00,223.00,132,0,1
20150827082958927,-124.317855,48.265655,20.76,10.30,-0.20,134.80,13,13, 0.00,10.00, 0.00, 0.00,-0.03, 0.04, 0.00, 0.00, 0.00, 0.00, 0.00, 0.00, 0.00,929.00,1014.00,216.00,141,0,1
20150827082959127,-124.317830,48.265640,21.15,10.00, 0.00,134.80,13,13, 0.00,10.00, 0.00, 0.00,-0.03, 0.04, 0.00, 0.00, 0.00, 0.00, 0.00, 0.00, 0.00,931.00,1017.00,210.00,149,0,1
20150827082959328,-124.317800,48.265625,21.59, 9.80, 0.30,134.80,13,13,209.60, 2.40,20.00, 0.00,-0.04, 0.06, 0.55, 0.00, 0.00, 0.00, 0.00, 0.00, 0.00,934.00,1020.00,204.00,158,0,1
20150827082959527,-124.317775,48.265605,21.97, 9.40, 1.70,134.80,14,14,209.80, 9.20,20.00, 0.06,-0.10, 0.26, 0.56,20.00, 0.00, 0.00,20.00, 0.00, 0.00,943.00,1026.00,199.00,166,0,1
20150827082959727,-124.317745,48.265590,22.34, 8.30, 6.60,135.00,14,14,210.10,15.00,20.00, 0.27,-0.08, 0.35, 0.56,50.00,-10.00, 0.00,50.00,-10.00, 0.00,968.00,1040.00,187.00,174,0,1
20150827082959927,-124.317715,48.265570,22.70, 7.00,13.80,136.70,14,14,210.30,15.00,20.00, 0.56, 0.00, 0.21, 0.55,50.00, 0.00,20.00,50.00, 0.00,20.00,1014.00,1057.00,156.00,183,0,1
20150827083000127,-124.317695,48.265555,22.97, 6.50,18.70,141.00,15,15,210.50,15.00,20.00, 0.74, 0.11, 0.09, 0.54,30.00,10.00,40.00,30.00,10.00,40.00,1071.00,1052.00,143.00,191,0,1
20150827083000327,-124.317665,48.265530,23.30, 7.30,23.30,148.50,15,15,210.80,15.00,20.00, 0.76, 0.13, 0.00, 0.55,20.00,30.00,50.00,20.00,30.00,50.00,1153.00,988.00,179.00,200,0,1
20150827083000527,-124.317640,48.265515,23.60, 8.50,25.90,154.20,15,15,210.90,15.00,20.00, 0.74, 0.11,-0.06, 0.56,10.00,40.00,50.00,10.00,40.00,50.00,1217.00,899.00,233.00,205,0,1
20150827083000727,-124.317625,48.265495,24.13,10.20,28.30,160.60,14,14,211.20,15.00,20.00, 0.74, 0.08,-0.11, 0.57, 0.00,30.00,30.00, 0.00,30.00,30.00,1291.00,747.00,308.00,211,0,1
20150827083000927,-124.317600,48.265470,24.80,11.90,29.40,165.60,14,14,211.50,15.00,20.00, 0.74, 0.04,-0.14, 0.59, 0.00,30.00,20.00, 0.00,30.00,20.00,1346.00,583.00,365.00,217,0,1
20150827083001127,-124.317585,48.265445,25.61,13.30,29.40,169.90,14,14,211.80,15.00,20.00, 0.75, 0.02,-0.14, 0.60,-10.00,20.00,20.00,-10.00,20.00,20.00,1386.00,420.00,403.00,223,0,1
20150827083001327,-124.317580,48.265415,26.46,14.10,28.90,173.90,14,14,212.10,15.00,20.00, 0.75, 0.01,-0.14, 0.61,-10.00,20.00,20.00,-10.00,20.00,20.00,1411.00,277.00,423.00,229,0,1
20150827083001527,-124.317570,48.265390,27.44,14.40,28.50,179.00,14,14,212.40,15.00,20.00, 0.74, 0.01,-0.14, 0.62,-10.00,10.00,30.00,-10.00,10.00,30.00,1428.00,129.00,432.00,237,0,1
20150827083001727,-124.317570,48.265360,28.37,14.30,28.50,184.30,14,14,212.80,15.00,18.70, 0.71, 0.02,-0.16, 0.63,-10.00,10.00,30.00,-10.00,10.00,30.00,1432.00, 8.00,434.00,246,0,1
20150827083001927,-124.317580,48.265335,29.17,14.40,27.80,188.90,14,14,213.10,15.00,15.30, 0.60, 0.02,-0.25, 0.64,-20.00,20.00,30.00,-20.00,20.00,30.00,1425.00,131.00,435.00,254,0,1
20150827083002127,-124.317580,48.265310,30.08,15.20,25.20,193.50,14,14,213.40,15.00,11.90, 0.49, 0.01,-0.28, 0.65,-30.00,20.00,20.00,-30.00,20.00,20.00,1406.00,264.00,440.00,7,0,1
20150827083002326,-124.317585,48.265285,30.91,16.40,22.00,196.60,14,14,213.70,15.00,10.20, 0.42, 0.00,-0.26, 0.65,-30.00,20.00,10.00,-30.00,20.00,10.00,1381.00,372.00,452.00,15,0,1
20150827083002527,-124.317600,48.265260,31.88,17.80,18.20,199.10,15,15,214.00,15.00, 8.90, 0.37,-0.03,-0.21, 0.66,-30.00,10.00,10.00,-30.00,10.00,10.00,1348.00,473.00,472.00,24,0,1
20150827083002727,-124.317615,48.265235,32.77,18.70,15.20,200.50,15,15,214.30,15.00, 8.20, 0.34,-0.04,-0.16, 0.67,-20.00,10.00, 0.00,-20.00,10.00, 0.00,1319.00,543.00,490.00,32,0,1
20150827083002931,-124.317630,48.265215,33.72,19.30,12.70,201.60,15,15,214.60,15.00, 7.80, 0.32,-0.05,-0.12, 0.68,-20.00, 0.00, 0.00,-20.00, 0.00, 0.00,1296.00,599.00,504.00,40,0,1
20150827083003126,-124.317645,48.265190,34.78,19.60,10.60,202.90,15,15,214.90,15.00, 7.10, 0.30,-0.07,-0.10, 0.68,-10.00, 0.00,10.00,-10.00, 0.00,10.00,1276.00,647.00,512.00,49,0,1
20150827083003327,-124.317670,48.265165,35.85,19.50, 9.00,204.30,15,15,215.20,15.00, 6.50, 0.27,-0.07,-0.09, 0.69,-10.00, 0.00,10.00,-10.00, 0.00,10.00,1261.00,688.00,514.00,58,0,1
20150827083003526,-124.317685,48.265145,36.80,19.30, 7.80,205.50,15,15,215.50,15.00, 5.90, 0.24,-0.07,-0.09, 0.70,-10.00, 0.00,10.00,-10.00, 0.00,10.00,1251.00,722.00,510.00,66,0,1
20150827083003727,-124.317710,48.265125,37.85,19.10, 6.50,206.60,15,15,215.70,15.00, 5.40, 0.23,-0.07,-0.08, 0.70,-10.00, 0.00, 0.00,-10.00, 0.00, 0.00,1242.00,756.00,505.00,75,0,1
20150827083003926,-124.317725,48.265100,38.77,18.90, 5.30,207.30,15,15,216.00,15.00, 5.20, 0.22,-0.08,-0.07, 0.71,-10.00, 0.00, 0.00,-10.00, 0.00, 0.00,1237.00,783.00,500.00,83,0,1
20150827083004126,-124.317745,48.265075,39.80,18.60, 4.10,207.80,15,15,216.30,15.00, 5.10, 0.17,-0.08,-0.05, 0.72,-10.00, 0.00, 0.00,-10.00, 0.00, 0.00,1234.00,809.00,494.00,92,0,1
20150827083004326,-124.317770,48.265060,40.71,18.40, 3.10,208.00,15,15,216.60,15.00, 5.10, 0.13,-0.08,-0.03, 0.72, 0.00, 0.00, 0.00, 0.00, 0.00, 0.00,1234.00,830.00,489.00,100,0,1
20150827083004526,-124.317790,48.265030,41.71,18.00, 2.20,207.90,15,15,216.90,15.00, 5.40, 0.09,-0.08,-0.02, 0.73, 0.00, 0.00, 0.00, 0.00, 0.00, 0.00,1237.00,849.00,484.00,109,0,1
20150827083004730,-124.317815,48.265010,42.60,17.70, 1.40,207.50,15,15,217.20,15.00, 5.80, 0.05,-0.08, 0.00, 0.73, 0.00, 0.00, 0.00, 0.00, 0.00, 0.00,1244.00,863.00,480.00,117,0,1
20150827083004926,-124.317840,48.264990,43.59,17.40, 0.80,207.10,15,15,217.50,15.00, 6.20, 0.03,-0.08, 0.01, 0.73, 0.00, 0.00, 0.00, 0.00, 0.00, 0.00,1254.00,875.00,474.00,126,0,1
20150827083005126,-124.317870,48.264965,44.56,17.00, 0.40,206.80,16,16,217.80,15.00, 6.60, 0.01,-0.08, 0.02, 0.74, 0.00, 0.00, 0.00, 0.00, 0.00, 0.00,1267.00,883.00,468.00,135,0,1
20150827083005326,-124.317890,48.264945,45.41,16.70, 0.20,206.70,16,16,218.10,15.00, 6.80, 0.00,-0.08, 0.02, 0.74, 0.00, 0.00, 0.00, 0.00, 0.00, 0.00,1280.00,889.00,464.00,143,0,1
20150827083005526,-124.317915,48.264920,46.36,16.40, 0.00,206.70,16,16,218.40,15.00, 7.00, 0.00,-0.09, 0.02, 0.74, 0.00, 0.00, 0.00, 0.00, 0.00, 0.00,1294.00,895.00,459.00,152,0,1
20150827083005730,-124.317935,48.264900,47.19,16.10, 0.00,206.70,16,16,218.70,15.00, 7.20, 0.00,-0.09, 0.02, 0.75, 0.00, 0.00, 0.00, 0.00, 0.00, 0.00,1308.00,901.00,455.00,160,0,1
20150827083005926,-124.317960,48.264870,48.13,15.70, 0.00,206.80,16,16,219.10,15.00, 7.30, 0.00,-0.09, 0.03, 0.75, 0.00, 0.00, 0.00, 0.00, 0.00, 0.00,1323.00,908.00,450.00,169,0,1
20150827083006126,-124.317990,48.264850,49.06,15.40, 0.00,206.80,16,16,219.40,15.00, 7.50, 0.00,-0.09, 0.04, 0.75, 0.00, 0.00, 0.00, 0.00, 0.00, 0.00,1338.00,916.00,445.00,178,0,1
20150827083006326,-124.318015,48.264825,49.86,15.10, 0.40,206.80,16,16,219.70,15.00, 7.70, 0.01,-0.09, 0.04, 0.75, 0.00, 0.00, 0.00, 0.00, 0.00, 0.00,1352.00,923.00,441.00,186,0,1
20150827083006526,-124.318035,48.264800,50.77,14.80, 0.90,206.90,16,16,220.10,15.00, 7.90, 0.03,-0.09, 0.04, 0.75, 0.00, 0.00, 0.00, 0.00, 0.00, 0.00,1367.00,932.00,436.00,195,0,1
20150827083006725,-124.318060,48.264775,51.56,14.50, 1.50,207.20,17,17,220.40,15.00, 7.90, 0.06,-0.09, 0.04, 0.75, 0.00, 0.00, 0.00, 0.00, 0.00, 0.00,1381.00,941.00,432.00,203,0,1
20150827083006926,-124.318090,48.264750,52.45,14.20, 2.10,207.90,17,17,220.80,15.00, 7.70, 0.08,-0.09, 0.02, 0.75, 0.00, 0.00, 0.00, 0.00, 0.00, 0.00,1394.00,955.00,428.00,212,0,1
20150827083007126,-124.318115,48.264725,53.23,13.90, 2.60,208.60,17,17,221.10,15.00, 7.50, 0.10,-0.09, 0.02, 0.75, 0.00, 0.00, 0.00, 0.00, 0.00, 0.00,1404.00,970.00,424.00,220,0,1
20150827083007325,-124.318145,48.264700,54.10,13.60, 3.20,209.50,17,17,221.50,15.00, 7.20, 0.13,-0.09, 0.01, 0.74, 0.00, 0.00, 0.00, 0.00, 0.00, 0.00,1412.00,991.00,421.00,229,0,1
20150827083007529,-124.318165,48.264675,54.88,13.40, 3.50,210.30,17,17,221.80,15.00, 6.90, 0.14,-0.09, 0.00, 0.74, 0.00, 0.00, 0.00, 0.00, 0.00, 0.00,1418.00,1012.00,417.00,237,0,1
20150827083007725,-124.318195,48.264650,55.73,13.20, 3.80,211.00,18,18,222.20,15.00, 6.70, 0.16,-0.09, 0.00, 0.74, 0.00, 0.00, 0.00, 0.00, 0.00, 0.00,1422.00,1036.00,414.00,246,0,1
20150827083007930,-124.318220,48.264625,56.49,13.00, 4.00,211.60,18,18,222.60,15.00, 6.60, 0.16,-0.08, 0.00, 0.74, 0.00, 0.00, 0.00, 0.00, 0.00, 0.00,1424.00,1058.00,412.00,254,0,1
20150827083008125,-124.318250,48.264595,57.34,13.00, 4.30,212.30,18,18,223.00,15.00, 6.40, 0.18,-0.07, 0.00, 0.74, 0.00, 0.00, 0.00, 0.00, 0.00, 0.00,1425.00,1083.00,413.00,7,0,1
20150827083008325,-124.318280,48.264570,58.20,13.10, 4.60,213.20,18,18,223.40,15.00, 6.10, 0.19,-0.07, 0.00, 0.74, 0.00, 0.00, 0.00, 0.00, 0.00, 0.00,1422.00,1109.00,419.00,16,0,1
20150827083008525,-124.318310,48.264545,58.98,13.40, 4.90,214.00,18,18,223.80,15.00, 5.80, 0.20,-0.07, 0.00, 0.74, 0.00, 0.00, 0.00, 0.00, 0.00, 0.00,1417.00,1131.00,429.00,24,0,1
20150827083008726,-124.318340,48.264520,59.88,13.60, 5.20,215.10,18,18,224.20,15.00, 5.40, 0.22,-0.07,-0.01, 0.74, 0.00, 0.00, 0.00, 0.00, 0.00, 0.00,1407.00,1157.00,441.00,33,0,1
20150827083008925,-124.318370,48.264495,60.71,13.90, 5.30,216.00,18,18,224.50,15.00, 5.10, 0.21,-0.07,-0.01, 0.74, 0.00, 0.00, 0.00, 0.00, 0.00, 0.00,1395.00,1180.00,452.00,41,0,1
20150827083009126,-124.318410,48.264470,61.66,14.20, 5.40,216.90,18,18,224.90,15.00, 4.80, 0.20,-0.07,-0.01, 0.74, 0.00, 0.00, 0.00, 0.00, 0.00, 0.00,1380.00,1207.00,464.00,50,0,1
20150827083009325,-124.318440,48.264450,62.53,14.50, 5.50,217.60,18,18,225.30,15.00, 4.60, 0.19,-0.08,-0.01, 0.75, 0.00, 0.00, 0.00, 0.00, 0.00, 0.00,1365.00,1230.00,474.00,58,0,1
20150827083009525,-124.318480,48.264420,63.52,14.80, 5.50,218.20,18,18,225.70,15.00, 4.50, 0.19,-0.07, 0.00, 0.75, 0.00, 0.00, 0.00, 0.00, 0.00, 0.00,1349.00,1254.00,486.00,67,0,1
20150827083009725,-124.318510,48.264400,64.44,15.00, 5.60,218.70,19,19,226.10,15.00, 4.40, 0.18,-0.07, 0.00, 0.75, 0.00, 0.00, 0.00, 0.00, 0.00, 0.00,1334.00,1274.00,496.00,75,0,1
20150827083009925,-124.318550,48.264375,65.48,15.30, 5.80,219.50,19,19,226.50,15.00, 4.20, 0.17,-0.07, 0.00, 0.76, 0.00, 0.00, 0.00, 0.00, 0.00, 0.00,1317.00,1297.00,507.00,84,0,1
20150827083010125,-124.318580,48.264350,66.43,15.60, 5.90,220.30,19,19,226.90,15.00, 3.90, 0.16,-0.08, 0.00, 0.76, 0.00, 0.00, 0.00, 0.00, 0.00, 0.00,1300.00,1316.00,518.00,92,0,1
20150827083010325,-124.318615,48.264325,67.52,15.80, 6.00,221.10,19,19,227.30,15.00, 3.70, 0.15,-0.08, 0.00, 0.76, 0.00, 0.00, 0.00, 0.00, 0.00, 0.00,1281.00,1339.00,526.00,101,0,1
20150827083010524,-124.318655,48.264305,68.51,16.00, 6.00,221.80,19,19,227.60,15.00, 3.40, 0.14,-0.09,-0.01, 0.77, 0.00, 0.00, 0.00, 0.00, 0.00, 0.00,1264.00,1359.00,533.00,109,0,1
20150827083010725,-124.318695,48.264285,69.62,16.10, 6.00,222.50,19,19,228.00,15.00, 3.30, 0.14,-0.09, 0.00, 0.77, 0.00, 0.00, 0.00, 0.00, 0.00, 0.00,1246.00,1380.00,538.00,118,0,1
20150827083010924,-124.318725,48.264260,70.63,16.00, 5.90,223.10,19,19,228.40,15.00, 3.10, 0.13,-0.09,-0.01, 0.76, 0.00, 0.00, 0.00, 0.00, 0.00, 0.00,1231.00,1399.00,540.00,126,0,1
20150827083011124,-124.318770,48.264240,71.75,15.90, 5.60,223.80,19,19,228.90,15.00, 3.00, 0.12,-0.10,-0.01, 0.73, 0.00, 0.00, 0.00, 0.00, 0.00, 0.00,1216.00,1420.00,537.00,135,0,1
20150827083011324,-124.318800,48.264220,72.74,15.70, 5.30,224.40,19,19,229.20,15.00, 2.90, 0.12,-0.10,-0.01, 0.71, 0.00, 0.00, 0.00, 0.00, 0.00, 0.00,1203.00,1438.00,532.00,143,0,1
20150827083011525,-124.318845,48.264195,73.84,15.50, 4.90,225.10,19,19,229.60,15.00, 2.70, 0.11,-0.10,-0.01, 0.68, 0.00, 0.00, 0.00, 0.00, 0.00, 0.00,1188.00,1457.00,525.00,152,0,1
20150827083011725,-124.318885,48.264175,74.81,15.30, 4.50,225.60,19,19,230.00,15.00, 2.70, 0.11,-0.10,-0.01, 0.65, 0.00, 0.00, 0.00, 0.00, 0.00, 0.00,1176.00,1472.00,518.00,160,0,1
20150827083011926,-124.318920,48.264155,75.88,15.10, 4.10,226.20,19,19,230.40,15.00, 2.60, 0.10,-0.10,-0.01, 0.62, 0.00, 0.00, 0.00, 0.00, 0.00, 0.00,1162.00,1487.00,510.00,169,0,1
20150827083012125,-124.318960,48.264130,76.82,14.80, 3.80,226.60,19,19,230.80,14.20, 2.70, 0.10,-0.11,-0.01, 0.60, 0.00, 0.00, 0.00, 0.00, 0.00, 0.00,1151.00,1499.00,502.00,177,0,1
20150827083012326,-124.319005,48.264110,77.85,14.20, 3.50,227.10,19,19,231.20,13.40, 2.70, 0.10,-0.12, 0.00, 0.60, 0.00, 0.00, 0.00, 0.00, 0.00, 0.00,1140.00,1512.00,487.00,186,0,1
20150827083012525,-124.319045,48.264095,78.74,13.40, 3.20,227.50,19,19,231.60,12.70, 2.70, 0.10,-0.12, 0.00, 0.60, 0.00, 0.00, 0.00, 0.00, 0.00, 0.00,1134.00,1526.00,463.00,194,0,1
20150827083012729,-124.319080,48.264075,79.56,12.40, 2.90,227.90,19,19,232.00,12.10, 2.70, 0.10,-0.12, 0.00, 0.60, 0.00, 0.00, 0.00, 0.00, 0.00, 0.00,1131.00,1542.00,434.00,202,0,1
20150827083012925,-124.319125,48.264050,80.43,11.40, 2.70,228.30,19,19,232.50,11.50, 2.80, 0.10,-0.11, 0.00, 0.60, 0.00, 0.00, 0.00, 0.00, 0.00, 0.00,1131.00,1561.00,399.00,211,0,1
20150827083013129,-124.319165,48.264030,81.13,10.60, 2.50,228.70,19,19,232.80,11.00, 2.80, 0.09,-0.11,-0.01, 0.60, 0.00, 0.00, 0.00, 0.00, 0.00, 0.00,1131.00,1579.00,371.00,219,0,1
20150827083013325,-124.319210,48.264010,81.87, 9.90, 2.20,228.90,19,19,233.30,10.60, 3.00, 0.08,-0.11, 0.00, 0.60, 0.00, 0.00, 0.00, 0.00, 0.00, 0.00,1133.00,1600.00,345.00,228,0,1
20150827083013529,-124.319255,48.263990,82.48, 9.40, 2.00,229.10,19,19,233.70,10.30, 3.20, 0.07,-0.10, 0.00, 0.60, 0.00, 0.00, 0.00, 0.00, 0.00, 0.00,1135.00,1618.00,326.00,236,0,1
20150827083013725,-124.319305,48.263970,83.14, 9.00, 1.90,229.20,20,20,234.20, 9.90, 3.00, 0.08,-0.09, 0.00, 0.60, 0.00, 0.00, 0.00, 0.00, 0.00, 0.00,1139.00,1638.00,313.00,245,0,1
20150827083013930,-124.319340,48.263950,83.70, 8.80, 1.70,229.50,20,20,234.60, 9.50, 3.00, 0.07,-0.09, 0.00, 0.39, 0.00, 0.00, 0.00, 0.00, 0.00, 0.00,1142.00,1655.00,306.00,253,0,1
20150827083014125,-124.319395,48.263930,84.33, 8.60, 1.80,229.90,20,20,235.10, 9.20, 3.10, 0.07,-0.09, 0.01, 0.37, 0.00, 0.00, 0.00, 0.00, 0.00, 0.00,1142.00,1669.00,301.00,6,0,1
20150827083014329,-124.319435,48.263910,84.87, 8.40, 2.10,230.30,20,20,235.50, 8.90, 3.10, 0.08,-0.09, 0.01, 0.35, 0.00, 0.00, 0.00, 0.00, 0.00, 0.00,1137.00,1678.00,295.00,14,0,1
20150827083014524,-124.319480,48.263885,85.47, 8.20, 2.40,230.80,20,20,236.00, 8.50, 3.10, 0.10,-0.09, 0.01, 0.33, 0.00, 0.00, 0.00, 0.00, 0.00, 0.00,1129.00,1688.00,288.00,23,0,1
20150827083014729,-124.319525,48.263870,85.99, 8.00, 2.80,231.30,20,20,236.50, 8.20, 3.10, 0.11,-0.09, 0.01, 0.31, 0.00, 0.00, 0.00, 0.00, 0.00, 0.00,1120.00,1696.00,282.00,31,0,1
20150827083014924,-124.319570,48.263850,86.56, 7.80, 3.10,231.90,20,20,236.90, 7.90, 3.00, 0.12,-0.09, 0.00, 0.29, 0.00, 0.00, 0.00, 0.00, 0.00, 0.00,1109.00,1706.00,274.00,40,0,1
20150827083015125,-124.319625,48.263825,87.11, 7.60, 3.30,232.50,20,20,237.50, 7.50, 3.00, 0.12,-0.09, 0.00, 0.27, 0.00, 0.00, 0.00, 0.00, 0.00, 0.00,1095.00,1717.00,267.00,49,0,1
20150827083015324,-124.319670,48.263810,87.58, 7.40, 3.40,233.00,20,20,237.90, 7.30, 2.90, 0.12,-0.09, 0.00, 0.26, 0.00, 0.00, 0.00, 0.00, 0.00, 0.00,1082.00,1727.00,260.00,57,0,1
20150827083015524,-124.319715,48.263790,88.11, 7.20, 3.60,233.50,20,20,238.40, 6.90, 3.00, 0.12,-0.09, 0.00, 0.24, 0.00, 0.00, 0.00, 0.00, 0.00, 0.00,1067.00,1738.00,251.00,66,0,1
20150827083015724,-124.319760,48.263770,88.55, 6.90, 3.70,233.80,20,20,238.80, 6.70, 3.00, 0.12,-0.09, 0.00, 0.22, 0.00, 0.00, 0.00, 0.00, 0.00, 0.00,1054.00,1749.00,241.00,74,0,1
20150827083015925,-124.319805,48.263750,89.03, 6.50, 3.80,234.30,20,20,239.30, 6.40, 3.00, 0.12,-0.09, 0.00, 0.21, 0.00, 0.00, 0.00, 0.00, 0.00, 0.00,1041.00,1761.00,227.00,83,0,1
20150827083016124,-124.319850,48.263735,89.42, 6.10, 3.80,234.90,20,20,239.80, 6.10, 2.90, 0.12,-0.09,-0.02, 0.19, 0.00, 0.00, 0.00, 0.00, 0.00, 0.00,1029.00,1772.00,213.00,91,0,1
20150827083016325,-124.319905,48.263715,89.84, 5.60, 3.50,235.50,20,20,240.30, 5.90, 2.90, 0.12,-0.09,-0.01, 0.17, 0.00, 0.00, 0.00, 0.00, 0.00, 0.00,1015.00,1785.00,197.00,100,0,1
20150827083016524,-124.319950,48.263695,90.18, 5.30, 3.20,236.00,20,20,240.80, 6.00, 2.90, 0.12,-0.08,-0.01, 0.16, 0.00, 0.00, 0.00, 0.00, 0.00, 0.00,1003.00,1797.00,184.00,108,0,1
20150827083016724,-124.319995,48.263680,90.50, 5.20, 3.00,236.40,20,20,241.20, 6.10, 3.00, 0.12,-0.07, 0.00, 0.15, 0.00, 0.00, 0.00, 0.00, 0.00, 0.00,991.00,1807.00,175.00,116,0,1
20150827083016925,-124.320050,48.263660,90.86, 5.40, 2.90,236.80,20,20,241.80, 6.30, 3.00, 0.12,-0.06,-0.01, 0.15, 0.00, 0.00, 0.00, 0.00, 0.00, 0.00,978.00,1818.00,176.00,124,0,1
20150827083017124,-124.320105,48.263645,91.23, 5.70, 2.80,237.30,20,20,242.30, 6.40, 3.00, 0.12,-0.06, 0.00, 0.14, 0.00, 0.00, 0.00, 0.00, 0.00, 0.00,963.00,1827.00,186.00,133,0,1
20150827083017324,-124.320150,48.263625,91.58, 6.00, 2.70,237.70,20,20,242.80, 6.60, 3.00, 0.11,-0.06, 0.00, 0.14, 0.00, 0.00, 0.00, 0.00, 0.00, 0.00,949.00,1833.00,196.00,141,0,1
20150827083017529,-124.320195,48.263610,91.95, 6.30, 2.70,238.10,20,20,243.30, 6.70, 3.10, 0.11,-0.06, 0.00, 0.13, 0.00, 0.00, 0.00, 0.00, 0.00, 0.00,935.00,1838.00,206.00,149,0,1
20150827083017724,-124.320250,48.263595,92.38, 6.70, 2.80,238.50,20,20,243.80, 6.70, 3.10, 0.12,-0.06, 0.00, 0.13, 0.00, 0.00, 0.00, 0.00, 0.00, 0.00,919.00,1843.00,218.00,158,0,1
20150827083017924,-124.320300,48.263580,92.83, 6.90, 2.90,238.90,20,20,244.30, 6.70, 3.20, 0.12,-0.07, 0.00, 0.12, 0.00, 0.00, 0.00, 0.00, 0.00, 0.00,902.00,1847.00,228.00,167,0,1
20150827083018124,-124.320350,48.263565,93.25, 7.10, 3.10,239.40,20,20,244.80, 6.70, 3.20, 0.13,-0.07, 0.00, 0.12, 0.00, 0.00, 0.00, 0.00, 0.00, 0.00,886.00,1850.00,235.00,175,0,1
20150827083018323,-124.320400,48.263545,93.73, 7.20, 3.30,240.00,20,20,245.40, 6.70, 3.20, 0.13,-0.07, 0.00, 0.11, 0.00, 0.00, 0.00, 0.00, 0.00, 0.00,868.00,1854.00,239.00,184,0,1
20150827083018524,-124.320445,48.263530,94.17, 7.30, 3.50,240.50,20,20,245.80, 6.70, 3.10, 0.13,-0.08, 0.00, 0.11, 0.00, 0.00, 0.00, 0.00, 0.00, 0.00,851.00,1857.00,241.00,192,0,1
20150827083018723,-124.320500,48.263515,94.66, 7.20, 3.50,241.10,20,20,246.40, 6.60, 3.10, 0.13,-0.08, 0.00, 0.11, 0.00, 0.00, 0.00, 0.00, 0.00, 0.00,831.00,1862.00,239.00,201,0,1
20150827083018923,-124.320545,48.263500,95.09, 7.00, 3.50,241.50,20,20,246.90, 6.60, 3.20, 0.13,-0.08, 0.00, 0.10, 0.00, 0.00, 0.00, 0.00, 0.00, 0.00,814.00,1866.00,234.00,209,0,1
20150827083019123,-124.320600,48.263485,95.56, 6.80, 3.50,242.00,20,20,247.40, 6.50, 3.20, 0.13,-0.08,-0.01, 0.10, 0.00, 0.00, 0.00, 0.00, 0.00, 0.00,796.00,1872.00,225.00,218,0,1
20150827083019327,-124.320645,48.263470,95.96, 6.50, 3.30,242.50,20,20,248.00, 6.40, 3.30, 0.13,-0.08, 0.00, 0.09, 0.00, 0.00, 0.00, 0.00, 0.00, 0.00,781.00,1878.00,217.00,226,0,1
20150827083019523,-124.320700,48.263460,96.39, 6.20, 3.30,243.00,20,20,248.50, 6.30, 3.30, 0.13,-0.08,-0.01, 0.09, 0.00, 0.00, 0.00, 0.00, 0.00, 0.00,765.00,1885.00,205.00,235,0,1
20150827083019728,-124.320745,48.263445,96.75, 6.00, 3.20,243.50,20,20,249.00, 6.20, 3.30, 0.13,-0.08, 0.00, 0.08, 0.00, 0.00, 0.00, 0.00, 0.00, 0.00,751.00,1891.00,195.00,243,0,1
20150827083019924,-124.320805,48.263435,97.13, 5.70, 3.20,244.00,20,20,249.60, 6.10, 3.30, 0.13,-0.07, 0.00, 0.08, 0.00, 0.00, 0.00, 0.00, 0.00, 0.00,735.00,1899.00,185.00,252,0,1
20150827083020124,-124.320860,48.263420,97.49, 5.50, 3.20,244.40,20,20,250.20, 6.00, 3.40, 0.13,-0.07, 0.00, 0.07, 0.00, 0.00, 0.00, 0.00, 0.00, 0.00,719.00,1907.00,177.00,5,0,1
20150827083020323,-124.320905,48.263405,97.81, 5.50, 3.30,244.80,20,20,250.60, 5.90, 3.40, 0.14,-0.07, 0.00, 0.07, 0.00, 0.00, 0.00, 0.00, 0.00, 0.00,705.00,1914.00,173.00,13,0,1
20150827083020523,-124.320960,48.263390,98.16, 5.50, 3.50,245.40,20,20,251.20, 5.80, 3.40, 0.14,-0.07, 0.00, 0.06, 0.00, 0.00, 0.00, 0.00, 0.00, 0.00,688.00,1921.00,173.00,22,0,1
20150827083020723,-124.321005,48.263380,98.47, 5.60, 3.60,245.90,20,20,251.70, 5.70, 3.40, 0.14,-0.07, 0.00, 0.05, 0.00, 0.00, 0.00, 0.00, 0.00, 0.00,673.00,1927.00,174.00,30,0,1
20150827083020923,-124.321065,48.263370,98.82, 5.50, 3.70,246.60,20,20,252.30, 5.50, 3.40, 0.14,-0.07, 0.00, 0.05, 0.00, 0.00, 0.00, 0.00, 0.00, 0.00,654.00,1934.00,173.00,39,0,1
20150827083021127,-124.321110,48.263355,99.13, 5.50, 3.80,247.10,20,20,252.80, 5.30, 3.40, 0.14,-0.07, 0.00, 0.04, 0.00, 0.00, 0.00, 0.00, 0.00, 0.00,636.00,1940.00,172.00,47,0,1
20150827083021323,-124.321165,48.263345,99.48, 5.40, 3.90,247.60,20,20,253.40, 5.20, 3.40, 0.14,-0.07, 0.00, 0.04, 0.00, 0.00, 0.00, 0.00, 0.00, 0.00,617.00,1947.00,170.00,56,0,1
20150827083021527,-124.321220,48.263335,99.78, 5.30, 4.00,248.10,20,20,253.90, 5.00, 3.40, 0.14,-0.08,-0.02, 0.03, 0.00, 0.00, 0.00, 0.00, 0.00, 0.00,600.00,1953.00,166.00,64,0,1
20150827083021723,-124.321270,48.263325,100.11, 5.00, 3.80,248.70,20,20,254.50, 4.80, 3.40, 0.14,-0.08,-0.01, 0.03, 0.00, 0.00, 0.00, 0.00, 0.00, 0.00,582.00,1960.00,158.00,73,0,1
20150827083021923,-124.321325,48.263315,100.42, 4.70, 3.60,249.30,20,20,255.10, 4.70, 3.40, 0.14,-0.08,-0.01, 0.02, 0.00, 0.00, 0.00, 0.00, 0.00, 0.00,564.00,1968.00,147.00,82,0,1
20150827083022123,-124.321380,48.263305,100.67, 4.40, 3.50,249.80,20,20,255.70, 4.50, 3.50, 0.15,-0.08,-0.01, 0.01, 0.00, 0.00, 0.00, 0.00, 0.00, 0.00,548.00,1975.00,138.00,90,0,1
20150827083022323,-124.321430,48.263295,100.94, 4.20, 3.40,250.30,20,20,256.30, 4.30, 3.60, 0.14,-0.07,-0.01, 0.01, 0.00, 0.00, 0.00, 0.00, 0.00, 0.00,531.00,1983.00,128.00,99,0,1
20150827083022522,-124.321485,48.263285,101.16, 4.00, 3.30,250.80,20,20,256.90, 4.20, 3.60, 0.14,-0.07, 0.00, 0.00, 0.00, 0.00, 0.00, 0.00, 0.00, 0.00,516.00,1990.00,119.00,107,0,1
20150827083022723,-124.321540,48.263275,101.39, 3.80, 3.40,251.20,20,20,257.40, 4.00, 3.70, 0.14,-0.07, 0.00, 0.00, 0.00, 0.00, 0.00, 0.00, 0.00, 0.00,500.00,1999.00,112.00,116,0,1
20150827083022922,-124.321590,48.263270,101.58, 3.70, 3.50,251.60,20,20,258.00, 3.80, 3.80, 0.15,-0.07, 0.00, 0.00, 0.00, 0.00, 0.00, 0.00, 0.00, 0.00,485.00,2006.00,107.00,124,0,1
20150827083023122,-124.321655,48.263255,101.79, 3.60, 3.70,252.20,20,20,258.70, 3.60, 3.90, 0.15,-0.07, 0.00,-0.01, 0.00, 0.00, 0.00, 0.00, 0.00, 0.00,468.00,2014.00,103.00,133,0,1
20150827083023322,-124.321700,48.263250,101.97, 3.50, 3.90,252.90,20,20,259.20, 3.40, 3.70, 0.16,-0.07, 0.00,-0.02, 0.00, 0.00, 0.00, 0.00, 0.00, 0.00,452.00,2022.00,100.00,141,0,1
20150827083023523,-124.321760,48.263240,102.17, 3.30, 4.10,253.60,20,20,259.90, 3.20, 3.70, 0.16,-0.07,-0.01,-0.03, 0.00, 0.00, 0.00, 0.00, 0.00, 0.00,432.00,2030.00,96.00,150,0,1
20150827083023722,-124.321815,48.263235,102.33, 3.20, 4.10,254.20,20,20,260.50, 3.00, 3.70, 0.16,-0.08,-0.01,-0.03, 0.00, 0.00, 0.00, 0.00, 0.00, 0.00,413.00,2037.00,92.00,158,0,1
20150827083023927,-124.321865,48.263230,102.49, 2.90, 4.00,254.70,20,20,261.10, 2.90, 3.80, 0.16,-0.08,-0.01,-0.04, 0.00, 0.00, 0.00, 0.00, 0.00, 0.00,395.00,2044.00,85.00,166,0,1
20150827083024123,-124.321920,48.263225,102.65, 2.70, 3.90,255.20,20,20,261.70, 2.70, 3.90, 0.16,-0.08,-0.01,-0.05, 0.00, 0.00, 0.00, 0.00, 0.00, 0.00,375.00,2052.00,76.00,175,0,1
20150827083024322,-124.321980,48.263215,102.79, 2.40, 3.90,255.80,20,20,262.40, 2.50, 3.90, 0.16,-0.07,-0.01,-0.06, 0.00, 0.00, 0.00, 0.00, 0.00, 0.00,356.00,2060.00,65.00,184,0,1
20150827083024522,-124.322035,48.263210,102.89, 2.10, 3.90,256.40,20,20,263.00, 2.30, 3.90, 0.16,-0.07,-0.01,-0.07, 0.00, 0.00, 0.00, 0.00, 0.00, 0.00,339.00,2068.00,56.00,192,0,1
20150827083024727,-124.322090,48.263205,102.98, 1.90, 3.90,256.90,20,20,263.60, 2.20, 4.00, 0.16,-0.07, 0.00,-0.07, 0.00, 0.00, 0.00, 0.00, 0.00, 0.00,322.00,2075.00,48.00,200,0,1
20150827083024922,-124.322150,48.263195,103.06, 1.80, 4.00,257.60,21,21,264.30, 2.00, 4.00, 0.17,-0.07, 0.00,-0.08, 0.00, 0.00, 0.00, 0.00, 0.00, 0.00,301.00,2084.00,42.00,209,0,1
20150827083025126,-124.322200,48.263195,103.13, 1.70, 4.10,258.10,21,21,264.90, 1.80, 4.00, 0.17,-0.06, 0.00,-0.09, 0.00, 0.00, 0.00, 0.00, 0.00, 0.00,283.00,2091.00,39.00,217,0,1
20150827083025322,-124.322255,48.263190,103.20, 1.70, 4.20,258.80,21,21,265.50, 1.60, 4.00, 0.17,-0.07,-0.01,-0.10, 0.00, 0.00, 0.00, 0.00, 0.00, 0.00,262.00,2098.00,37.00,226,0,1
20150827083025526,-124.322310,48.263185,103.26, 1.60, 4.20,259.30,21,21,266.20, 1.50, 4.10, 0.17,-0.07,-0.01,-0.11, 0.00, 0.00, 0.00, 0.00, 0.00, 0.00,243.00,2104.00,35.00,234,0,1
20150827083025721,-124.322370,48.263180,103.32, 1.50, 4.20,260.00,21,21,266.90, 1.30, 4.10, 0.17,-0.07,-0.01,-0.12, 0.00, 0.00, 0.00, 0.00, 0.00, 0.00,221.00,2111.00,32.00,243,0,1
20150827083025922,-124.322425,48.263175,103.36, 1.30, 4.20,260.60,21,21,267.50, 1.20, 4.10, 0.17,-0.07,-0.01,-0.12, 0.00, 0.00, 0.00, 0.00, 0.00, 0.00,201.00,2116.00,28.00,251,0,1
20150827083026122,-124.322485,48.263175,103.40, 1.00, 4.10,261.20,21,21,268.20, 1.00, 4.20, 0.17,-0.07,-0.01,-0.13, 0.00, 0.00, 0.00, 0.00, 0.00, 0.00,179.00,2122.00,20.00,4,0,1
20150827083026321,-124.322540,48.263170,103.42, 0.80, 4.20,261.80,21,21,268.90, 0.90, 4.20, 0.17,-0.07,-0.01,-0.14, 0.00, 0.00, 0.00, 0.00, 0.00, 0.00,160.00,2128.00,11.00,12,0,1
20150827083026521,-124.322600,48.263165,103.43, 0.50, 4.20,262.40,21,21,269.60, 0.70, 4.30, 0.17,-0.07, 0.00,-0.15, 0.00, 0.00, 0.00, 0.00, 0.00, 0.00,139.00,2134.00, 2.00,21,0,1
20150827083026721,-124.322660,48.263165,103.41, 0.30, 4.30,263.00,21,21,270.40, 0.60, 4.40, 0.18,-0.07, 0.00,-0.16, 0.00, 0.00, 0.00, 0.00, 0.00, 0.00,119.00,2140.00, 5.00,29,0,1
20150827083026921,-124.322720,48.263160,103.38, 0.20, 4.50,263.70,21,21,271.10, 0.50, 4.40, 0.18,-0.06,-0.01,-0.17, 0.00, 0.00, 0.00, 0.00, 0.00, 0.00,97.00,2147.00,12.00,38,0,1
20150827083027121,-124.322775,48.263160,103.34, 0.10, 4.60,264.30,21,21,271.80, 0.40, 4.50, 0.18,-0.06,-0.01,-0.18, 0.00, 0.00, 0.00, 0.00, 0.00, 0.00,76.00,2152.00,16.00,46,0,1
20150827083027322,-124.322835,48.263160,103.30, 0.10, 4.60,265.10,21,21,272.50, 0.30, 4.40, 0.18,-0.06,-0.01,-0.18, 0.00, 0.00, 0.00, 0.00, 0.00, 0.00,51.00,2157.00,16.00,55,0,1
20150827083027521,-124.322890,48.263160,103.26, 0.10, 4.60,265.70,21,21,273.20, 0.20, 4.50, 0.19,-0.06,-0.01,-0.19, 0.00, 0.00, 0.00, 0.00, 0.00, 0.00,29.00,2161.00,16.00,63,0,1
20150827083027721,-124.322950,48.263160,103.22, 0.20, 4.60,266.40,21,21,274.00, 0.10, 4.50, 0.19,-0.06,-0.01,-0.20, 0.00, 0.00, 0.00, 0.00, 0.00, 0.00, 4.00,2164.00,15.00,72,0,1
20150827083027921,-124.323005,48.263160,103.18, 0.20, 4.60,267.00,21,21,274.70, 0.00, 4.60, 0.19,-0.07,-0.01,-0.21, 0.00, 0.00, 0.00, 0.00, 0.00, 0.00,17.00,2167.00,14.00,80,0,1
20150827083028121,-124.323070,48.263160,103.14, 0.00, 4.50,267.70,21,21,275.50, 0.00, 4.60, 0.19,-0.07,-0.01,-0.22, 0.00, 0.00, 0.00, 0.00, 0.00, 0.00,42.00,2169.00,17.00,89,0,1
20150827083028321,-124.323125,48.263160,103.09, 0.00, 4.60,268.30,21,21,276.20,-0.10, 4.70, 0.19,-0.07,-0.01,-0.22, 0.00, 0.00, 0.00, 0.00, 0.00, 0.00,64.00,2171.00,21.00,97,0,1
20150827083028521,-124.323185,48.263160,103.03,-0.20, 4.70,269.00,21,21,277.00,-0.20, 4.80, 0.19,-0.07,-0.01,-0.23, 0.00, 0.00, 0.00, 0.00, 0.00, 0.00,88.00,2173.00,27.00,106,0,1
20150827083028721,-124.323240,48.263165,102.96,-0.40, 4.80,269.60,21,21,277.70,-0.30, 4.80, 0.20,-0.06,-0.01,-0.24, 0.00, 0.00, 0.00, 0.00, 0.00, 0.00,110.00,2174.00,34.00,114,0,1
20150827083028922,-124.323300,48.263165,102.87,-0.60, 5.00,270.40,21,21,278.50,-0.30, 4.80, 0.20,-0.06,-0.01,-0.25, 0.00, 0.00, 0.00, 0.00, 0.00, 0.00,136.00,2176.00,42.00,123,0,1
20150827083029122,-124.323360,48.263170,102.78,-0.70, 5.10,271.10,21,21,279.30,-0.40, 4.90, 0.20,-0.06,-0.01,-0.26, 0.00, 0.00, 0.00, 0.00, 0.00, 0.00,159.00,2177.00,47.00,131,0,1
20150827083029322,-124.323425,48.263175,102.67,-0.70, 5.10,271.90,21,21,280.10,-0.40, 4.90, 0.20,-0.06,-0.01,-0.27, 0.00, 0.00, 0.00, 0.00, 0.00, 0.00,186.00,2178.00,50.00,140,0,1
20150827083029522,-124.323475,48.263175,102.57,-0.70, 5.10,272.60,21,21,280.90,-0.40, 4.90, 0.20,-0.05,-0.02,-0.27, 0.00, 0.00, 0.00, 0.00, 0.00, 0.00,211.00,2178.00,51.00,148,0,1
20150827083029722,-124.323535,48.263180,102.45,-0.70, 5.10,273.30,21,21,281.70,-0.50, 5.00, 0.21,-0.05,-0.02,-0.28, 0.00, 0.00, 0.00, 0.00, 0.00, 0.00,238.00,2178.00,50.00,157,0,1
20150827083029922,-124.323590,48.263185,102.35,-0.60, 5.00,274.00,21,21,282.40,-0.50, 5.00, 0.21,-0.05,-0.01,-0.29, 0.00, 0.00, 0.00, 0.00, 0.00, 0.00,262.00,2177.00,48.00,165,0,1
20150827083030122,-124.323660,48.263195,102.24,-0.50, 5.10,274.80,21,21,283.40,-0.50, 5.10, 0.21,-0.05,-0.01,-0.30, 0.00, 0.00, 0.00, 0.00, 0.00, 0.00,290.00,2174.00,45.00,174,0,1
20150827083030322,-124.323715,48.263195,102.16,-0.50, 5.10,275.40,21,21,284.10,-0.60, 5.20, 0.21,-0.06,-0.01,-0.30, 0.00, 0.00, 0.00, 0.00, 0.00, 0.00,314.00,2171.00,43.00,182,0,1
20150827083030522,-124.323775,48.263205,102.06,-0.40, 5.20,276.20,21,21,285.00,-0.60, 5.20, 0.22,-0.06,-0.01,-0.31, 0.00, 0.00, 0.00, 0.00, 0.00, 0.00,342.00,2167.00,41.00,191,0,1
20150827083030722,-124.323825,48.263210,101.98,-0.50, 5.30,276.90,21,21,285.80,-0.60, 5.30, 0.22,-0.06,-0.01,-0.32, 0.00, 0.00, 0.00, 0.00, 0.00, 0.00,366.00,2163.00,42.00,199,0,1
20150827083030922,-124.323890,48.263215,101.88,-0.60, 5.50,277.80,21,21,286.60,-0.60, 5.20, 0.22,-0.06,-0.02,-0.33, 0.00, 0.00, 0.00, 0.00, 0.00, 0.00,394.00,2158.00,46.00,208,0,1
20150827083031121,-124.323940,48.263225,101.78,-0.80, 5.60,278.50,21,21,287.40,-0.60, 5.30, 0.22,-0.05,-0.02,-0.33, 0.00, 0.00, 0.00, 0.00, 0.00, 0.00,419.00,2154.00,50.00,216,0,1
20150827083031321,-124.324005,48.263230,101.66,-0.90, 5.50,279.30,21,21,288.30,-0.60, 5.40, 0.22,-0.05,-0.02,-0.34, 0.00, 0.00, 0.00, 0.00, 0.00, 0.00,447.00,2148.00,55.00,225,0,1
20150827083031521,-124.324065,48.263240,101.55,-0.90, 5.50,280.00,21,21,289.20,-0.60, 5.50, 0.23,-0.05,-0.02,-0.35, 0.00, 0.00, 0.00, 0.00, 0.00, 0.00,472.00,2143.00,59.00,233,0,1
20150827083031721,-124.324115,48.263250,101.42,-0.90, 5.50,280.90,21,21,290.00,-0.60, 5.40, 0.23,-0.05,-0.02,-0.35, 0.00, 0.00, 0.00, 0.00, 0.00, 0.00,500.00,2137.00,59.00,242,0,1
20150827083031921,-124.324180,48.263255,101.30,-0.80, 5.40,281.60,21,21,291.00,-0.60, 5.60, 0.22,-0.04,-0.01,-0.36, 0.00, 0.00, 0.00, 0.00, 0.00, 0.00,526.00,2130.00,58.00,250,0,1
20150827083032121,-124.324215,48.263265,101.22,-0.70, 5.50,282.10,21,21,291.50,-0.60, 5.60, 0.23,-0.04,-0.01,-0.37, 0.00, 0.00, 0.00, 0.00, 0.00, 0.00,545.00,2125.00,55.00,0,0,1
20150827083032321,-124.324255,48.263275,101.14,-0.60, 5.50,282.70,21,21,292.10,-0.60, 5.60, 0.23,-0.04,-0.01,-0.37, 0.00, 0.00, 0.00, 0.00, 0.00, 0.00,563.00,2120.00,52.00,5,0,1
20150827083032521,-124.324315,48.263285,101.03,-0.40, 5.70,283.50,21,21,293.10,-0.60, 5.70, 0.24,-0.04,-0.01,-0.38, 0.00, 0.00, 0.00, 0.00, 0.00, 0.00,593.00,2110.00,46.00,14,0,1
20150827083032721,-124.324375,48.263295,100.94,-0.30, 5.90,284.30,21,21,294.00,-0.60, 5.80, 0.24,-0.04,-0.01,-0.39, 0.00, 0.00, 0.00, 0.00, 0.00, 0.00,619.00,2100.00,41.00,22,0,1
20150827083032921,-124.324430,48.263305,100.87,-0.20, 6.00,285.20,21,21,294.90,-0.60, 5.80, 0.24,-0.05,-0.02,-0.39, 0.00, 0.00, 0.00, 0.00, 0.00, 0.00,646.00,2089.00,37.00,30,0,1
20150827083033125,-124.324485,48.263320,100.79,-0.20, 6.00,286.00,21,21,295.80,-0.50, 5.80, 0.24,-0.05,-0.02,-0.40, 0.00, 0.00, 0.00, 0.00, 0.00, 0.00,672.00,2077.00,36.00,38,0,1
20150827083033321,-124.324545,48.263330,100.71,-0.40, 6.00,287.00,21,21,296.80,-0.50, 5.80, 0.24,-0.06,-0.02,-0.40, 0.00, 0.00, 0.00, 0.00, 0.00, 0.00,702.00,2064.00,40.00,47,0,1
20150827083033521,-124.324600,48.263340,100.62,-0.60, 5.90,287.80,21,21,297.60,-0.50, 5.80, 0.24,-0.05,-0.02,-0.41, 0.00, 0.00, 0.00, 0.00, 0.00, 0.00,728.00,2052.00,46.00,55,0,1
20150827083033721,-124.324650,48.263355,100.52,-0.70, 6.00,288.50,21,21,298.50,-0.50, 6.00, 0.25,-0.05,-0.02,-0.41, 0.00, 0.00, 0.00, 0.00, 0.00, 0.00,754.00,2041.00,53.00,63,0,1
20150827083033921,-124.324705,48.263370,100.41,-0.80, 6.00,289.30,21,21,299.40,-0.50, 6.00, 0.25,-0.05,-0.02,-0.42, 0.00, 0.00, 0.00, 0.00, 0.00, 0.00,779.00,2029.00,58.00,71,0,1
20150827083034125,-124.324760,48.263385,100.29,-1.00, 6.10,290.10,21,21,300.40,-0.50, 6.10, 0.25,-0.04,-0.01,-0.43, 0.00, 0.00, 0.00, 0.00, 0.00, 0.00,805.00,2018.00,63.00,79,0,1
20150827083034321,-124.324820,48.263400,100.14,-1.00, 6.20,291.10,21,21,301.40,-0.50, 6.10, 0.26,-0.04,-0.02,-0.43, 0.00, 0.00, 0.00, 0.00, 0.00, 0.00,834.00,2005.00,68.00,88,0,1
20150827083034521,-124.324870,48.263415,100.01,-0.90, 6.30,292.00,21,21,302.40,-0.50, 6.20, 0.26,-0.03,-0.02,-0.44, 0.00, 0.00, 0.00, 0.00, 0.00, 0.00,861.00,1992.00,67.00,96,0,1
20150827083034720,-124.324925,48.263430,99.88,-0.80, 6.30,292.90,21,21,303.30,-0.50, 6.20, 0.26,-0.03,-0.02,-0.44, 0.00, 0.00, 0.00, 0.00, 0.00, 0.00,888.00,1979.00,63.00,104,0,1
20150827083034920,-124.324970,48.263445,99.76,-0.60, 6.30,293.80,21,21,304.10,-0.50, 6.10, 0.26,-0.03,-0.03,-0.45, 0.00, 0.00, 0.00, 0.00, 0.00, 0.00,915.00,1964.00,59.00,112,0,1
20150827083035121,-124.325035,48.263465,99.64,-0.50, 6.20,294.70,21,21,305.30,-0.50, 6.30, 0.26,-0.03,-0.02,-0.45, 0.00, 0.00, 0.00, 0.00, 0.00, 0.00,944.00,1946.00,53.00,121,0,1
20150827083035320,-124.325085,48.263480,99.54,-0.30, 6.30,295.60,21,21,306.30,-0.50, 6.40, 0.26,-0.03,-0.02,-0.46, 0.00, 0.00, 0.00, 0.00, 0.00, 0.00,970.00,1930.00,49.00,129,0,1
20150827083035520,-124.325130,48.263500,99.45,-0.20, 6.40,296.40,21,21,307.10,-0.50, 6.40, 0.27,-0.03,-0.02,-0.46, 0.00, 0.00, 0.00, 0.00, 0.00, 0.00,995.00,1913.00,46.00,137,0,1
20150827083035720,-124.325185,48.263515,99.36,-0.20, 6.40,297.30,21,21,308.20, 0.10, 6.50, 0.27,-0.03,-0.01,-0.47, 0.00, 0.00, 0.00, 0.00, 0.00, 0.00,1020.00,1896.00,43.00,145,0,1
20150827083035924,-124.325230,48.263535,99.28,-0.10, 6.50,298.20,21,21,309.10, 0.20, 6.50, 0.27,-0.02,-0.02,-0.47, 0.00, 0.00, 0.00, 0.00, 0.00, 0.00,1045.00,1877.00,41.00,153,0,1
20150827083036121,-124.325285,48.263555,99.20, 0.00, 6.60,299.30,21,21,310.10, 0.20, 6.40, 0.27,-0.02,-0.03,-0.48, 0.00, 0.00, 0.00, 0.00, 0.00, 0.00,1073.00,1856.00,36.00,162,0,1
20150827083036320,-124.325340,48.263575,99.14, 0.30, 6.60,300.20,21,21,311.20, 0.30, 6.60, 0.27,-0.02,-0.02,-0.48, 0.00, 0.00, 0.00, 0.00, 0.00, 0.00,1098.00,1835.00,30.00,170,0,1
20150827083036520,-124.325385,48.263595,99.09, 0.40, 6.60,301.20,21,21,312.10, 0.40, 6.50, 0.27,-0.02,-0.03,-0.48, 0.00, 0.00, 0.00, 0.00, 0.00, 0.00,1122.00,1814.00,25.00,178,0,1
20150827083036720,-124.325430,48.263615,99.04, 0.60, 6.60,302.10,21,21,313.10, 0.40, 6.60, 0.27,-0.03,-0.02,-0.49, 0.00, 0.00, 0.00, 0.00, 0.00, 0.00,1146.00,1792.00,19.00,186,0,1
20150827083036920,-124.325475,48.263635,99.01, 0.70, 6.70,303.00,21,21,314.10, 0.40, 6.60, 0.27,-0.03,-0.02,-0.49, 0.00, 0.00, 0.00, 0.00, 0.00, 0.00,1169.00,1769.00,16.00,194,0,1
20150827083037120,-124.325530,48.263660,98.98, 0.80, 6.60,304.00,21,21,315.20, 0.50, 6.70, 0.27,-0.03,-0.02,-0.49, 0.00, 0.00, 0.00, 0.00, 0.00, 0.00,1194.00,1744.00,13.00,203,0,1
20150827083037320,-124.325575,48.263680,98.96, 0.80, 6.70,305.00,21,21,316.20, 0.50, 6.70, 0.28,-0.03,-0.02,-0.50, 0.00, 0.00, 0.00, 0.00, 0.00, 0.00,1216.00,1721.00,13.00,211,0,1
20150827083037520,-124.325620,48.263700,98.94, 0.70, 6.70,305.90,21,21,317.20, 0.60, 6.70, 0.28,-0.03,-0.02,-0.50, 0.00, 0.00, 0.00, 0.00, 0.00, 0.00,1237.00,1698.00,15.00,219,0,1
20150827083037720,-124.325665,48.263725,98.91, 0.60, 6.80,306.80,20,20,318.30, 0.60, 6.90, 0.28,-0.03,-0.02,-0.50, 0.00, 0.00, 0.00, 0.00, 0.00, 0.00,1258.00,1676.00,19.00,227,0,1
20150827083037920,-124.325710,48.263745,98.87, 0.50, 6.90,307.70,20,20,319.30, 0.70, 6.90, 0.29,-0.03,-0.02,-0.51, 0.00, 0.00, 0.00, 0.00, 0.00, 0.00,1280.00,1653.00,24.00,235,0,1
20150827083038120,-124.325755,48.263770,98.82, 0.40, 7.00,308.80,20,20,320.40, 0.80, 6.90, 0.29,-0.02,-0.02,-0.51, 0.00, 0.00, 0.00, 0.00, 0.00, 0.00,1304.00,1627.00,28.00,244,0,1
20150827083038320,-124.325795,48.263795,98.76, 0.40, 7.10,309.80,20,20,321.40, 0.90, 6.90, 0.29,-0.01,-0.03,-0.51, 0.00, 0.00, 0.00, 0.00, 0.00, 0.00,1326.00,1604.00,31.00,252,0,1
20150827083038519,-124.325840,48.263820,98.71, 0.50, 7.10,310.80,20,20,322.40, 0.90, 6.90, 0.29,-0.01,-0.03,-0.52, 0.00, 0.00, 0.00, 0.00, 0.00, 0.00,1348.00,1580.00,31.00,4,0,1
20150827083038719,-124.325880,48.263840,98.65, 0.60, 7.00,311.80,20,20,323.40, 1.00, 6.90, 0.29,-0.01,-0.03,-0.52, 0.00, 0.00, 0.00, 0.00, 0.00, 0.00,1369.00,1555.00,28.00,12,0,1
20150827083038919,-124.325925,48.263870,98.60, 0.80, 7.00,313.00,20,20,324.60, 1.10, 6.90, 0.29,-0.01,-0.03,-0.52, 0.00, 0.00, 0.00, 0.00, 0.00, 0.00,1393.00,1526.00,23.00,21,0,1
20150827083039119,-124.325965,48.263895,98.57, 1.00, 6.90,314.00,20,20,325.60, 1.20, 6.90, 0.29,-0.01,-0.03,-0.52, 0.00, 0.00, 0.00, 0.00, 0.00, 0.00,1413.00,1500.00,18.00,29,0,1
20150827083039319,-124.326010,48.263915,98.55, 1.20, 6.90,315.00,20,20,326.70, 1.20, 7.00, 0.29,-0.01,-0.02,-0.53, 0.00, 0.00, 0.00, 0.00, 0.00, 0.00,1432.00,1473.00,13.00,37,0,1
20150827083039519,-124.326045,48.263945,98.53, 1.40, 7.00,315.90,20,20,327.80, 1.30, 7.10, 0.29,-0.01,-0.02,-0.53, 0.00, 0.00, 0.00, 0.00, 0.00, 0.00,1450.00,1445.00, 8.00,45,0,1
20150827083039719,-124.326080,48.263965,98.53, 1.60, 7.00,316.90,20,20,328.70, 1.40, 7.00, 0.29,-0.01,-0.02,-0.53, 0.00, 0.00, 0.00, 0.00, 0.00, 0.00,1468.00,1418.00, 4.00,53,0,1
20150827083039920,-124.326125,48.263995,98.53, 1.70, 7.10,318.00,20,20,330.00, 1.40, 7.20, 0.29,-0.01,-0.02,-0.53, 0.00, 0.00, 0.00, 0.00, 0.00, 0.00,1487.00,1386.00, 0.00,62,0,1
20150827083040119,-124.326160,48.264025,98.54, 1.70, 7.20,319.00,20,20,331.10, 1.50, 7.20, 0.30,-0.01,-0.02,-0.53, 0.00, 0.00, 0.00, 0.00, 0.00, 0.00,1503.00,1358.00, 0.00,70,0,1
20150827083040319,-124.326190,48.264050,98.55, 1.70, 7.30,320.10,20,20,332.10, 1.50, 7.20, 0.30,-0.01,-0.02,-0.54, 0.00, 0.00, 0.00, 0.00, 0.00, 0.00,1519.00,1329.00, 0.00,78,0,1
20150827083040519,-124.326230,48.264080,98.56, 1.60, 7.50,321.10,20,20,333.20, 1.60, 7.20, 0.30,-0.01,-0.02,-0.54, 0.00, 0.00, 0.00, 0.00, 0.00, 0.00,1536.00,1300.00, 1.00,86,0,1
20150827083040720,-124.326260,48.264105,98.56, 1.50, 7.60,322.20,20,20,334.20, 1.60, 7.20, 0.30,-0.01,-0.02,-0.54, 0.00, 0.00, 0.00, 0.00, 0.00, 0.00,1552.00,1271.00, 5.00,94,0,1
20150827083040919,-124.326300,48.264135,98.56, 1.40, 7.70,323.40,19,19,335.40, 1.70, 7.20, 0.30, 0.00,-0.03,-0.54, 0.00, 0.00, 0.00, 0.00, 0.00, 0.00,1570.00,1239.00,10.00,103,0,1
20150827083041119,-124.326330,48.264160,98.54, 1.40, 7.60,324.40,19,19,336.40, 1.70, 7.20, 0.30, 0.00,-0.03,-0.54, 0.00, 0.00, 0.00, 0.00, 0.00, 0.00,1586.00,1210.00,13.00,111,0,1
20150827083041319,-124.326360,48.264190,98.52, 1.40, 7.40,325.50,19,19,337.50, 1.80, 7.20, 0.30, 0.00,-0.03,-0.55, 0.00, 0.00, 0.00, 0.00, 0.00, 0.00,1602.00,1180.00,16.00,119,0,1
20150827083041524,-124.326390,48.264220,98.50, 1.40, 7.30,326.60,19,19,338.60, 1.90, 7.20, 0.30, 0.00,-0.03,-0.55, 0.00, 0.00, 0.00, 0.00, 0.00, 0.00,1617.00,1151.00,15.00,127,0,1
20150827083041719,-124.326430,48.264250,98.48, 1.60, 7.20,327.80,19,19,339.90, 2.00, 7.20, 0.30, 0.00,-0.04,-0.55, 0.00, 0.00, 0.00, 0.00, 0.00, 0.00,1633.00,1118.00,14.00,136,0,1
20150827083041919,-124.326450,48.264280,98.46, 1.80, 7.10,328.90,19,19,340.90, 2.00, 7.20, 0.29, 0.00,-0.04,-0.55, 0.00, 0.00, 0.00, 0.00, 0.00, 0.00,1646.00,1088.00,10.00,144,0,1
20150827083042119,-124.326480,48.264305,98.46, 1.90, 6.90,329.90,19,19,342.00, 2.10, 7.20, 0.29, 0.00,-0.03,-0.55, 0.00, 0.00, 0.00, 0.00, 0.00, 0.00,1658.00,1058.00, 6.00,152,0,1
20150827083042318,-124.326515,48.264335,98.46, 2.10, 7.00,330.80,19,19,343.20, 2.20, 7.40, 0.29, 0.00,-0.02,-0.55, 0.00, 0.00, 0.00, 0.00, 0.00, 0.00,1670.00,1027.00, 2.00,160,0,1
