timestamp,lon,lat,alt,pitch,roll,yaw,dyaw,airspeed,groundspeed, yawcmd,pitchcmd,rollcmd,tyaw,tpitch,troll,throttle,rvx,rvy,rvz,accx,accy,accz,speN,speE,speD,gpsSta,nStNum,insSta
20150826170725175,0.000000,0.000000, 0.00, 0.00, 0.00, 0.00,0,0, 0.00, 0.00, 0.00, 0.00, 0.00, 0.00,-1.00, 0.00, 0.00, 0.00, 0.00, 0.00, 0.00, 0.00, 0.00, 0.00,0,0,0
20150826170725274,0.000000,0.000000, 0.00, 0.00, 0.00, 0.00,0,0, 0.00, 0.00, 0.00, 0.00, 0.00, 0.00,-1.00, 0.00, 0.00, 0.00, 0.00, 0.00, 0.00, 0.00, 0.00, 0.00,0,0,0
20150826170725383,0.000000,0.000000, 0.00, 0.00, 0.00, 0.00,0,0, 0.00, 0.00, 0.00, 0.00, 0.00, 0.00,-1.00, 0.00, 0.00, 0.00, 0.00, 0.00, 0.00, 0.00, 0.00, 0.00,0,0,0
20150826170725582,0.000000,0.000000, 0.00, 0.00, 0.00, 0.00,0,0, 0.00, 0.00, 0.00, 0.00, 0.00, 0.00,-1.00, 0.00, 0.00, 0.00, 0.00, 0.00, 0.00, 0.00, 0.00, 0.00,0,0,0
20150826170725782,0.000000,0.000000, 0.00, 0.00, 0.00, 0.00,0,0, 0.00, 0.00, 0.00, 0.00, 0.00, 0.00,-1.00, 0.00, 0.00, 0.00, 0.00, 0.00, 0.00, 0.00, 0.00, 0.00,0,0,0
20150826170725982,0.000000,0.000000, 0.00, 0.00, 0.00, 0.00,0,0, 0.00, 0.00, 0.00, 0.00, 0.00, 0.00,-1.00, 0.00, 0.00, 0.00, 0.00, 0.00, 0.00, 0.00, 0.00, 0.00,0,0,0
20150826170726183,0.000000,0.000000, 0.00, 0.00, 0.00, 0.00,0,0, 0.00, 0.00, 0.00, 0.00, 0.00, 0.00,-1.00, 0.00, 0.00, 0.00, 0.00, 0.00, 0.00, 0.00, 0.00, 0.00,0,0,0
20150826170726383,0.000000,0.000000, 0.00, 0.00, 0.00, 0.00,0,0, 0.00, 0.00, 0.00, 0.00, 0.00, 0.00,-1.00, 0.00, 0.00, 0.00, 0.00, 0.00, 0.00, 0.00, 0.00, 0.00,0,0,0
20150826170726582,0.000000,0.000000, 0.00, 0.00, 0.00, 0.00,0,0, 0.00, 0.00, 0.00, 0.00, 0.00, 0.00,-1.00, 0.00, 0.00, 0.00, 0.00, 0.00, 0.00, 0.00, 0.00, 0.00,0,0,0
20150826170726783,0.000000,0.000000, 0.00, 0.00, 0.00, 0.00,0,0, 0.00, 0.00, 0.00, 0.00, 0.00, 0.00,-1.00, 0.00, 0.00, 0.00, 0.00, 0.00, 0.00, 0.00, 0.00, 0.00,0,0,0
20150826170726982,0.000000,0.000000, 0.00, 0.00, 0.00, 0.00,0,0, 0.00, 0.00, 0.00, 0.00, 0.00, 0.00,-1.00, 0.00, 0.00, 0.00, 0.00, 0.00, 0.00, 0.00, 0.00, 0.00,0,0,0
20150826170727182,0.000000,0.000000, 0.00, 0.00, 0.00, 0.00,0,0, 0.00, 0.00, 0.00, 0.00, 0.00, 0.00,-1.00, 0.00, 0.00, 0.00, 0.00, 0.00, 0.00, 0.00, 0.00, 0.00,0,0,0
20150826170727382,0.000000,0.000000, 0.00, 0.00, 0.00, 0.00,0,0, 0.00, 0.00, 0.00, 0.00, 0.00, 0.00, 0.00, 0.00, 0.00, 0.00, 0.00, 0.00, 0.00, 0.00, 0.00, 0.00,0,0,0
20150826170727582,0.000000,0.000000, 0.00, 0.00, 0.00, 0.00,0,0, 0.00, 0.00, 0.00, 0.00, 0.00, 0.00, 0.00, 0.00, 0.00, 0.00, 0.00, 0.00, 0.00, 0.00, 0.00, 0.00,0,0,0
20150826170727782,0.000000,0.000000, 0.00, 0.00, 0.00, 0.00,0,0, 0.00, 0.00, 0.00, 0.00, 0.00, 0.00, 0.00, 0.00, 0.00, 0.00, 0.00, 0.00, 0.00, 0.00, 0.00, 0.00,0,0,0
20150826170727982,0.000000,0.000000, 0.00, 0.00, 0.00, 0.00,0,0, 0.00, 0.00, 0.00, 0.00, 0.00, 0.00, 0.00, 0.00, 0.00, 0.00, 0.00, 0.00, 0.00, 0.00, 0.00, 0.00,0,0,0
20150826170728182,0.000000,0.000000, 0.00, 0.00, 0.00, 0.00,0,0, 0.00, 0.00, 0.00, 0.00, 0.00, 0.00, 0.00, 0.00, 0.00, 0.00, 0.00, 0.00, 0.00, 0.00, 0.00, 0.00,0,0,0
20150826170728382,0.000000,0.000000, 0.00, 0.00, 0.00, 0.00,0,0, 0.00, 0.00, 0.00, 0.00, 0.00, 0.00, 0.00, 0.00, 0.00, 0.00, 0.00, 0.00, 0.00, 0.00, 0.00, 0.00,0,0,0
20150826170728582,0.000000,0.000000, 0.00, 0.00, 0.00, 0.00,0,0, 0.00, 0.00, 0.00, 0.00, 0.00, 0.00, 0.00, 0.00, 0.00, 0.00, 0.00, 0.00, 0.00, 0.00, 0.00, 0.00,0,0,0
20150826170728781,0.000000,0.000000, 0.00, 0.00, 0.00, 0.00,0,0, 0.00, 0.00, 0.00, 0.00, 0.00, 0.00, 0.00, 0.00, 0.00, 0.00, 0.00, 0.00, 0.00, 0.00, 0.00, 0.00,0,0,0
20150826170728981,0.000000,0.000000, 0.00, 0.00, 0.00, 0.00,0,0, 0.00, 0.00, 0.00, 0.00, 0.00, 0.00, 0.00, 0.00, 0.00, 0.00, 0.00, 0.00, 0.00, 0.00, 0.00, 0.00,0,0,0
20150826170729182,0.000000,0.000000, 0.00, 0.00, 0.00, 0.00,0,0, 0.00, 0.00, 0.00, 0.00, 0.00, 0.00, 0.00, 0.00, 0.00, 0.00, 0.00, 0.00, 0.00, 0.00, 0.00, 0.00,0,0,0
20150826170729381,0.000000,0.000000, 0.00, 0.00, 0.00, 0.00,0,0, 0.00, 0.00, 0.00, 0.00, 0.00, 0.00, 0.00, 0.00, 0.00, 0.00, 0.00, 0.00, 0.00, 0.00, 0.00, 0.00,0,0,0
20150826170729582,0.000000,0.000000, 0.00, 0.00, 0.00, 0.00,0,0, 0.00, 0.00, 0.00, 0.00, 0.00, 0.00, 0.00, 0.00, 0.00, 0.00, 0.00, 0.00, 0.00, 0.00, 0.00, 0.00,0,0,0
20150826170729782,0.000000,0.000000, 0.00, 0.00, 0.00, 0.00,0,0, 0.00, 0.00, 0.00, 0.00, 0.00, 0.00, 0.00, 0.00, 0.00, 0.00, 0.00, 0.00, 0.00, 0.00, 0.00, 0.00,0,0,0
20150826170729981,0.000000,0.000000, 0.00, 0.00, 0.00, 0.00,0,0, 0.00, 0.00, 0.00, 0.00, 0.00, 0.00, 0.00, 0.00, 0.00, 0.00, 0.00, 0.00, 0.00, 0.00, 0.00, 0.00,0,0,0
20150826170730181,0.000000,0.000000, 0.00, 0.00, 0.00, 0.00,0,0, 0.00, 0.00, 0.00, 0.00, 0.00, 0.00, 0.00, 0.00, 0.00, 0.00, 0.00, 0.00, 0.00, 0.00, 0.00, 0.00,0,0,0
20150826170730381,0.000000,0.000000, 0.00, 0.00, 0.00, 0.00,0,0, 0.00, 0.00, 0.00, 0.00, 0.00, 0.00, 0.00, 0.00, 0.00, 0.00, 0.00, 0.00, 0.00, 0.00, 0.00, 0.00,0,0,0
20150826170730581,-124.313985,48.266085, 0.00, 0.00, 0.00, 0.00,0,0, 0.00, 0.00, 0.00, 0.00, 0.00, 0.00, 0.00, 0.00, 0.00, 0.00, 0.00, 0.00, 0.00, 0.00, 0.00, 0.00,8,0,1
20150826170730781,-124.313985,48.266085, 0.00, 0.00, 0.00, 0.00,0,0, 0.00, 0.00, 0.00, 0.00, 0.00, 0.00, 0.00, 0.00, 0.00, 0.00, 0.00, 0.00, 0.00, 0.00, 0.00, 0.00,19,0,1
20150826170730981,-124.313985,48.266085, 0.00, 0.00, 0.00, 0.00,0,0, 0.00, 0.00, 0.00, 0.00, 0.00, 0.00, 0.00, 0.00, 0.00, 0.00, 0.00, 0.00, 0.00, 0.00, 0.00, 0.00,31,0,1
20150826170731181,-124.313985,48.266085, 0.00, 0.00, 0.00, 0.00,0,0, 0.00, 0.00, 0.00, 0.00, 0.00, 0.00, 0.00, 0.00, 0.00, 0.00, 0.00, 0.00, 0.00, 0.00, 0.00, 0.00,42,0,1
20150826170731386,-124.313985,48.266085, 0.00, 0.00, 0.00, 0.00,0,0, 0.00, 0.00, 0.00, 0.00, 0.00, 0.00, 0.00, 0.00, 0.00, 0.00, 0.00, 0.00, 0.00, 0.00, 0.00, 0.00,53,0,1
20150826170731581,-124.313985,48.266085, 0.00, 0.00, 0.00, 0.00,0,0, 0.00, 0.00, 0.00, 0.00, 0.00, 0.00, 0.00, 0.00, 0.00, 0.00, 0.00, 0.00, 0.00, 0.00, 0.00, 0.00,65,0,1
20150826170731781,-124.313985,48.266085, 0.00, 0.00, 0.00, 0.00,0,0, 0.00, 0.00, 0.00, 0.00, 0.00, 0.00, 0.00, 0.00, 0.00, 0.00, 0.00, 0.00, 0.00, 0.00, 0.00, 0.00,77,0,1
20150826170731981,-124.313985,48.266085, 0.00, 0.00, 0.00, 0.00,0,0, 0.00,10.00, 0.00, 0.00, 0.04, 0.00, 0.00, 0.00, 0.00, 0.00, 0.00, 0.00, 0.00, 0.00, 0.00, 0.00,88,0,1
20150826170732181,-124.313985,48.266085, 0.00, 0.00, 0.00, 0.00,0,0, 0.00,10.00, 0.00, 0.00, 0.16, 0.00, 0.00, 0.00, 0.00, 0.00, 0.00, 0.00, 0.00, 0.00, 0.00, 0.00,100,0,1
20150826170732381,-124.313985,48.266085, 0.00, 0.00, 0.00, 0.00,0,0, 0.00,10.00, 0.00, 0.00, 0.24, 0.00, 0.00, 0.00, 0.00, 0.00, 0.00, 0.00, 0.00, 0.00, 0.00, 0.00,111,0,1
20150826170732581,-124.313985,48.266085, 0.00, 0.00, 0.00, 0.00,0,0, 0.00,10.00, 0.00, 0.00, 0.27, 0.00, 0.00, 0.00, 0.00, 0.00, 0.00, 0.00, 0.00, 0.00, 0.00, 0.00,123,0,1
20150826170732780,-124.313985,48.266085, 0.00, 0.00, 0.00, 0.00,0,0, 0.00,10.00, 0.00, 0.00, 0.27, 0.00, 0.00, 0.00, 0.00, 0.00, 0.00, 0.00, 0.00, 0.00, 0.00, 0.00,135,0,1
20150826170732980,-124.313985,48.266085, 0.00, 0.00, 0.00, 0.00,0,0, 0.00,10.00, 0.00, 0.00, 0.28, 0.00, 0.00, 0.00, 0.00, 0.00, 0.00, 0.00, 0.00, 0.00, 0.00, 0.00,146,0,1
20150826170733180,-124.313985,48.266085, 0.00, 0.00, 0.00, 0.00,0,0, 0.00,10.00, 0.00, 0.00, 0.29, 0.00, 0.00, 0.00, 0.00, 0.00, 0.00, 0.00, 0.00, 0.00, 0.00, 0.00,158,0,1
20150826170733380,-124.313985,48.266085, 0.00, 0.00, 0.00, 0.00,0,0, 0.00,10.00, 0.00, 0.00, 0.30, 0.00, 0.00, 0.00, 0.00, 0.00, 0.00, 0.00, 0.00, 0.00, 0.00, 0.00,170,0,1
20150826170733580,-124.313985,48.266085, 0.00, 0.00, 0.00, 0.00,0,0, 0.00,10.00, 0.00, 0.00, 0.32, 0.00, 0.00, 0.00, 0.00, 0.00, 0.00, 0.00, 0.00, 0.00, 0.00, 0.00,181,0,1
20150826170733780,-124.313985,48.266085, 0.00, 0.00, 0.00, 0.00,0,0, 0.00,10.00, 0.00, 0.00, 0.33, 0.00, 0.00, 0.00, 0.00, 0.00, 0.00, 0.00, 0.00, 0.00, 0.00, 0.00,193,0,1
20150826170733980,-124.313985,48.266085, 0.00, 0.00, 0.00, 0.00,0,0, 0.00,10.00, 0.00, 0.00, 0.34, 0.00, 0.00, 0.00, 0.00, 0.00, 0.00, 0.00, 0.00, 0.00, 0.00, 0.00,204,0,1
20150826170734180,-124.313985,48.266085, 0.00, 0.00, 0.00, 0.00,0,0, 0.00,10.00, 0.00, 0.00, 0.35, 0.00, 0.00, 0.00, 0.00, 0.00, 0.00, 0.00, 0.00, 0.00, 0.00, 0.00,216,0,1
20150826170734380,-124.313985,48.266085, 0.00, 0.00, 0.00, 0.00,0,0, 0.00,10.00, 0.00, 0.00, 0.36, 0.00, 0.00, 0.00, 0.00, 0.00, 0.00, 0.00, 0.00, 0.00, 0.00, 0.00,228,0,1
20150826170734580,-124.313985,48.266085, 0.00, 0.00, 0.00, 0.00,0,0, 0.00,10.00, 0.00, 0.00, 0.38, 0.00, 0.00, 0.00, 0.00, 0.00, 0.00, 0.00, 0.00, 0.00, 0.00, 0.00,240,0,1
20150826170734780,-124.313985,48.266085, 0.00, 0.00, 0.00, 0.00,0,0, 0.00,10.00, 0.00, 0.00, 0.39, 0.00, 0.00, 0.00, 0.00, 0.00, 0.00, 0.00, 0.00, 0.00, 0.00, 0.00,252,0,1
20150826170734980,-124.313985,48.266085, 0.00, 0.00, 0.00, 0.00,0,0, 0.00,10.00, 0.00, 0.00, 0.40, 0.00, 0.00, 0.00, 0.00, 0.00, 0.00, 0.00, 0.00, 0.00, 0.00, 0.00,8,0,1
20150826170735180,-124.313985,48.266085, 0.00, 0.00, 0.00, 0.00,0,0, 0.00,10.00, 0.00, 0.00, 0.41, 0.00, 0.00, 0.00, 0.00, 0.00, 0.00, 0.00, 0.00, 0.00, 0.00, 0.00,17,0,1
20150826170735380,-124.313985,48.266085, 0.00, 0.00, 0.00, 0.00,0,0, 0.00,10.00, 0.00, 0.00, 0.43, 0.00, 0.00, 0.00, 0.00, 0.00, 0.00, 0.00, 0.00, 0.00, 0.00, 0.00,17,0,1
20150826170735580,-124.313985,48.266085, 0.00, 0.00, 0.00, 0.00,0,0, 0.00,10.00, 0.00, 0.00, 0.44, 0.00, 0.00, 0.00, 0.00, 0.00, 0.00, 0.00, 0.00, 0.00, 0.00, 0.00,17,0,1
20150826170735780,-124.313985,48.266085, 0.00, 0.00, 0.00, 0.00,0,0, 0.00,10.00, 0.00, 0.00, 0.45, 0.00, 0.00, 0.00, 0.00, 0.00, 0.00, 0.00, 0.00, 0.00, 0.00, 0.00,17,0,1
20150826170735980,-124.313985,48.266085, 0.00, 0.00, 0.00, 0.00,0,0, 0.00,10.00, 0.00, 0.00, 0.45, 0.00, 0.00, 0.00, 0.00, 0.00, 0.00, 0.00, 0.00, 0.00, 0.00, 0.00,17,0,1
20150826170736180,-124.313985,48.266085, 0.00, 0.00, 0.00, 0.00,0,0, 0.00,10.00, 0.00, 0.00, 0.45, 0.00, 0.00, 0.00, 0.00, 0.00, 0.00, 0.00, 0.00, 0.00, 0.00, 0.00,17,0,1
20150826170736379,-124.313985,48.266085, 0.00, 0.00, 0.00, 0.00,0,0, 0.00,10.00, 0.00, 0.00, 0.45, 0.00, 0.00, 0.00, 0.00, 0.00, 0.00, 0.00, 0.00, 0.00, 0.00, 0.00,17,0,1
20150826170736579,-124.313985,48.266085, 0.00, 0.00, 0.00, 0.00,0,0, 0.00,10.00, 0.00, 0.00, 0.45, 0.00, 0.00, 0.00, 0.00, 0.00, 0.00, 0.00, 0.00, 0.00, 0.00, 0.00,17,0,1
20150826170736779,-124.313985,48.266085, 0.00, 0.00, 0.00, 0.00,0,0, 0.00,10.00, 0.00, 0.00, 0.45, 0.00, 0.00, 0.00, 0.00, 0.00, 0.00, 0.00, 0.00, 0.00, 0.00, 0.00,17,0,1
20150826170736979,-124.313985,48.266085, 0.00, 0.00, 0.00, 0.00,0,0, 0.00,10.00, 0.00, 0.00, 0.45, 0.00, 0.00, 0.00, 0.00, 0.00, 0.00, 0.00, 0.00, 0.00, 0.00, 0.00,17,0,1
20150826170737179,-124.313985,48.266085, 0.00, 0.00, 0.00, 0.00,0,0, 0.00,10.00, 0.00, 0.00, 0.45, 0.00, 0.00, 0.00, 0.00, 0.00, 0.00, 0.00, 0.00, 0.00, 0.00, 0.00,17,0,1
20150826170737379,-124.313985,48.266085, 0.00, 0.00, 0.00, 0.00,0,0, 0.00,10.00, 0.00, 0.00, 0.45, 0.00, 0.00, 0.00, 0.00, 0.00, 0.00, 0.00, 0.00, 0.00, 0.00, 0.00,17,0,1
20150826170737579,-124.313985,48.266085, 0.00, 0.00, 0.00, 0.00,0,0, 0.00,10.00, 0.00, 0.00, 0.45, 0.00, 0.00, 0.00, 0.00, 0.00, 0.00, 0.00, 0.00, 0.00, 0.00, 0.00,17,0,1
20150826170737779,-124.313985,48.266085, 0.00, 0.00, 0.00, 0.00,0,0, 0.00,10.00, 0.00, 0.00, 0.45, 0.00, 0.00, 0.00, 0.00, 0.00, 0.00, 0.00, 0.00, 0.00, 0.00, 0.00,17,0,1
20150826170737979,-124.313985,48.266085, 0.00, 0.00, 0.00, 0.00,0,0, 0.00,10.00, 0.00, 0.00, 0.45, 0.00, 0.00, 0.00, 0.00, 0.00, 0.00, 0.00, 0.00, 0.00, 0.00, 0.00,17,0,1
20150826170738179,-124.313985,48.266085, 0.00, 0.00, 0.00, 0.00,0,0, 0.00,10.00, 0.00, 0.00, 0.45, 0.00, 0.00, 0.00, 0.00, 0.00, 0.00, 0.00, 0.00, 0.00, 0.00, 0.00,17,0,1
20150826170738379,-124.313985,48.266085, 0.00, 0.00, 0.00, 0.00,0,0, 0.00,10.00, 0.00, 0.00, 0.45, 0.00, 0.00, 0.00, 0.00, 0.00, 0.00, 0.00, 0.00, 0.00, 0.00, 0.00,17,0,1
20150826170738579,-124.313985,48.266085, 0.00, 0.00, 0.00, 0.00,0,0, 0.00,10.00, 0.00, 0.00, 0.45, 0.00, 0.00, 0.00, 0.00, 0.00, 0.00, 0.00, 0.00, 0.00, 0.00, 0.00,17,0,1
20150826170738779,-124.313985,48.266085, 0.00, 0.00, 0.00, 0.00,0,0, 0.00,10.00, 0.00, 0.00, 0.45, 0.00, 0.00, 0.00, 0.00, 0.00, 0.00, 0.00, 0.00, 0.00, 0.00, 0.00,17,0,1
20150826170738980,-124.313985,48.266085, 0.00, 0.00, 0.00, 0.00,0,0, 0.00,10.00, 0.00, 0.00, 0.45, 0.00, 0.00, 0.00, 0.00, 0.00, 0.00, 0.00, 0.00, 0.00, 0.00, 0.00,17,0,1
20150826170739180,-124.313985,48.266085, 0.00, 0.00, 0.00, 0.00,0,0, 0.00,10.00, 0.00, 0.00, 0.45, 0.00, 0.00, 0.00, 0.00, 0.00, 0.00, 0.00, 0.00, 0.00, 0.00, 0.00,17,0,1
20150826170739380,-124.313985,48.266085, 0.00, 0.00, 0.00, 0.00,0,0, 0.00,10.00, 0.00, 0.00, 0.45, 0.00, 0.00, 0.00, 0.00, 0.00, 0.00, 0.00, 0.00, 0.00, 0.00, 0.00,17,0,1
20150826170739580,-124.313985,48.266085, 0.00, 0.00, 0.00, 0.00,0,0, 0.00,10.00, 0.00, 0.00, 0.45, 0.00, 0.00, 0.00, 0.00, 0.00, 0.00, 0.00, 0.00, 0.00, 0.00, 0.00,17,0,1
20150826170739780,-124.313985,48.266085, 0.00, 0.00, 0.00, 0.00,0,0, 0.00,10.00, 0.00, 0.00, 0.45, 0.00, 0.00, 0.00, 0.00, 0.00, 0.00, 0.00, 0.00, 0.00, 0.00, 0.00,17,0,1
20150826170739980,-124.313985,48.266085, 0.00, 0.00, 0.00, 0.00,0,0, 0.00,10.00, 0.00, 0.00, 0.45, 0.00, 0.00, 0.00, 0.00, 0.00, 0.00, 0.00, 0.00, 0.00, 0.00, 0.00,17,0,1
20150826170740180,-124.313985,48.266085, 0.00, 0.00, 0.00, 0.00,0,0, 0.00,10.00, 0.00, 0.00, 0.45, 0.00, 0.00, 0.00, 0.00, 0.00, 0.00, 0.00, 0.00, 0.00, 0.00, 0.00,17,0,1
20150826170740379,-124.313985,48.266085, 0.00, 0.00, 0.00, 0.00,0,0, 0.00,10.00, 0.00, 0.00, 0.45, 0.00, 0.00, 0.00, 0.00, 0.00, 0.00, 0.00, 0.00, 0.00, 0.00, 0.00,17,0,1
20150826170740580,-124.313985,48.266085, 0.00, 0.00, 0.00, 0.00,0,0, 0.00,10.00, 0.00, 0.00, 0.45, 0.00, 0.00, 0.00, 0.00, 0.00, 0.00, 0.00, 0.00, 0.00, 0.00, 0.00,17,0,1
20150826170740779,-124.313985,48.266085, 0.00, 0.00, 0.00, 0.00,0,0, 0.00,10.00, 0.00, 0.00, 0.45, 0.00, 0.00, 0.00, 0.00, 0.00, 0.00, 0.00, 0.00, 0.00, 0.00, 0.00,17,0,1
20150826170740979,-124.313985,48.266085, 0.00, 0.00, 0.00, 0.00,0,0, 0.00,10.00, 0.00, 0.00, 0.45, 0.00, 0.00, 0.00, 0.00, 0.00, 0.00, 0.00, 0.00, 0.00, 0.00, 0.00,17,0,1
20150826170741180,-124.313985,48.266085, 0.00, 0.00, 0.00, 0.00,0,0, 0.00,10.00, 0.00, 0.00, 0.45, 0.00, 0.00, 0.00, 0.00, 0.00, 0.00, 0.00, 0.00, 0.00, 0.00, 0.00,17,0,1
20150826170741380,-124.313985,48.266085, 0.00, 0.00, 0.00, 0.00,0,0, 0.00,10.00, 0.00, 0.00, 0.45, 0.00, 0.00, 0.00, 0.00, 0.00, 0.00, 0.00, 0.00, 0.00, 0.00, 0.00,17,0,1
20150826170741579,-124.313985,48.266085, 0.00, 0.00, 0.00, 0.00,0,0, 0.00,10.00, 0.00, 0.00, 0.45, 0.00, 0.00, 0.00, 0.00, 0.00, 0.00, 0.00, 0.00, 0.00, 0.00, 0.00,17,0,1
20150826170741779,-124.313985,48.266085, 0.00, 0.00, 0.00, 0.00,0,0, 0.00,10.00, 0.00, 0.00, 0.45, 0.00, 0.00, 0.00, 0.00, 0.00, 0.00, 0.00, 0.00, 0.00, 0.00, 0.00,17,0,1
20150826170741979,-124.313985,48.266085, 0.00, 0.00, 0.00, 0.00,0,0, 0.00,10.00, 0.00, 0.00, 0.45, 0.00, 0.00, 0.00, 0.00, 0.00, 0.00, 0.00, 0.00, 0.00, 0.00, 0.00,17,0,1
20150826170742179,-124.313985,48.266085, 0.00, 0.00, 0.00, 0.00,0,0, 0.00,10.00, 0.00, 0.00, 0.45, 0.00, 0.00, 0.00, 0.00, 0.00, 0.00, 0.00, 0.00, 0.00, 0.00, 0.00,17,0,1
20150826170742379,-124.313985,48.266085, 0.00, 0.00, 0.00, 0.00,0,0, 0.00,10.00, 0.00, 0.00, 0.45, 0.00, 0.00, 0.00, 0.00, 0.00, 0.00, 0.00, 0.00, 0.00, 0.00, 0.00,17,0,1
20150826170742579,-124.313985,48.266085, 0.00, 0.00, 0.00, 0.00,0,0, 0.00,10.00, 0.00, 0.00, 0.45, 0.00, 0.00, 0.00, 0.00, 0.00, 0.00, 0.00, 0.00, 0.00, 0.00, 0.00,17,0,1
20150826170742779,-124.313985,48.266085, 0.00, 0.00, 0.00, 0.00,0,0, 0.00,10.00, 0.00, 0.00, 0.45, 0.00, 0.00, 0.00, 0.00, 0.00, 0.00, 0.00, 0.00, 0.00, 0.00, 0.00,17,0,1
20150826170742979,-124.313985,48.266085, 0.00, 0.00, 0.00, 0.00,0,0, 0.00,10.00, 0.00, 0.00, 0.45, 0.00, 0.00, 0.00, 0.00, 0.00, 0.00, 0.00, 0.00, 0.00, 0.00, 0.00,17,0,1
20150826170743179,-124.313985,48.266085, 0.00, 0.00, 0.00, 0.00,0,0, 0.00,10.00, 0.00, 0.00, 0.45, 0.00, 0.00, 0.00, 0.00, 0.00, 0.00, 0.00, 0.00, 0.00, 0.00, 0.00,17,0,1
20150826170743379,-124.313985,48.266085, 0.00, 0.00, 0.00, 0.00,0,0, 0.00,10.00, 0.00, 0.00, 0.45, 0.00, 0.00, 0.00, 0.00, 0.00, 0.00, 0.00, 0.00, 0.00, 0.00, 0.00,17,0,1
20150826170743579,-124.313985,48.266085, 0.00, 0.00, 0.00, 0.00,0,0, 0.00,10.00, 0.00, 0.00, 0.45, 0.00, 0.00, 0.00, 0.00, 0.00, 0.00, 0.00, 0.00, 0.00, 0.00, 0.00,17,0,1
20150826170743779,-124.313985,48.266085, 0.00, 0.00, 0.00, 0.00,0,0, 0.00,10.00, 0.00, 0.00, 0.45, 0.00, 0.00, 0.00, 0.00, 0.00, 0.00, 0.00, 0.00, 0.00, 0.00, 0.00,17,0,1
20150826170743979,-124.313985,48.266085, 0.00, 0.00, 0.00, 0.00,0,0, 0.00,10.00, 0.00, 0.00, 0.45, 0.00, 0.00, 0.00, 0.00, 0.00, 0.00, 0.00, 0.00, 0.00, 0.00, 0.00,17,0,1
20150826170744179,-124.313985,48.266085, 0.00, 0.00, 0.00, 0.00,0,0, 0.00,10.00, 0.00, 0.00, 0.45, 0.00, 0.00, 0.00, 0.00, 0.00, 0.00, 0.00, 0.00, 0.00, 0.00, 0.00,17,0,1
20150826170744378,-124.313985,48.266085, 0.00, 0.00, 0.00, 0.00,0,0, 0.00,10.00, 0.00, 0.00, 0.45, 0.00, 0.00, 0.00, 0.00, 0.00, 0.00, 0.00, 0.00, 0.00, 0.00, 0.00,17,0,1
20150826170744578,-124.313985,48.266085, 0.00, 0.00, 0.00, 0.00,0,0, 0.00,10.00, 0.00, 0.00, 0.45, 0.00, 0.00, 0.00, 0.00, 0.00, 0.00, 0.00, 0.00, 0.00, 0.00, 0.00,17,0,1
20150826170744778,-124.313985,48.266085, 0.00, 0.00, 0.00, 0.00,0,0, 0.00,10.00, 0.00, 0.00, 0.45, 0.00, 0.00, 0.00, 0.00, 0.00, 0.00, 0.00, 0.00, 0.00, 0.00, 0.00,17,0,1
20150826170744978,-124.313985,48.266085, 0.00, 0.00, 0.00, 0.00,0,0, 0.00,10.00, 0.00, 0.00, 0.45, 0.00, 0.00, 0.00, 0.00, 0.00, 0.00, 0.00, 0.00, 0.00, 0.00, 0.00,17,0,1
20150826170745179,-124.313985,48.266085, 0.00, 0.00, 0.00, 0.00,0,0, 0.00,10.00, 0.00, 0.00, 0.45, 0.00, 0.00, 0.00, 0.00, 0.00, 0.00, 0.00, 0.00, 0.00, 0.00, 0.00,17,0,1
20150826170745379,-124.313985,48.266085, 0.00, 0.00, 0.00, 0.00,0,0, 0.00,10.00, 0.00, 0.00, 0.45, 0.00, 0.00, 0.00, 0.00, 0.00, 0.00, 0.00, 0.00, 0.00, 0.00, 0.00,17,0,1
20150826170745579,-124.313985,48.266085, 0.00, 0.00, 0.00, 0.00,0,0, 0.00,10.00, 0.00, 0.00, 0.45, 0.00, 0.00, 0.00, 0.00, 0.00, 0.00, 0.00, 0.00, 0.00, 0.00, 0.00,17,0,1
20150826170745779,-124.313985,48.266085, 0.00, 0.00, 0.00, 0.00,0,0, 0.00,10.00, 0.00, 0.00, 0.45, 0.00, 0.00, 0.00, 0.00, 0.00, 0.00, 0.00, 0.00, 0.00, 0.00, 0.00,17,0,1
20150826170745987,-124.313985,48.266085, 0.00, 0.00, 0.00, 0.00,0,0, 0.00,10.00, 0.00, 0.00, 0.45, 0.00, 0.00, 0.00, 0.00, 0.00, 0.00, 0.00, 0.00, 0.00, 0.00, 0.00,17,0,1
20150826170746178,-124.313985,48.266085, 0.00, 0.00, 0.00, 0.00,0,0, 0.00,10.00, 0.00, 0.00, 0.45, 0.00, 0.00, 0.00, 0.00, 0.00, 0.00, 0.00, 0.00, 0.00, 0.00, 0.00,17,0,1
20150826170746378,-124.313985,48.266085, 0.00, 0.00, 0.00, 0.00,0,0, 0.00,10.00, 0.00, 0.00, 0.45, 0.00, 0.00, 0.00, 0.00, 0.00, 0.00, 0.00, 0.00, 0.00, 0.00, 0.00,17,0,1
20150826170746578,-124.313985,48.266085, 0.00, 0.00, 0.00, 0.00,0,0, 0.00,10.00, 0.00, 0.00, 0.45, 0.00, 0.00, 0.00, 0.00, 0.00, 0.00, 0.00, 0.00, 0.00, 0.00, 0.00,17,0,1
20150826170746778,-124.313985,48.266085, 0.00, 0.00, 0.00, 0.00,0,0, 0.00,10.00, 0.00, 0.00, 0.45, 0.00, 0.00, 0.00, 0.00, 0.00, 0.00, 0.00, 0.00, 0.00, 0.00, 0.00,17,0,1
20150826170746978,-124.313985,48.266085, 0.00, 0.00, 0.00, 0.00,0,0, 0.00,10.00, 0.00, 0.00, 0.45, 0.00, 0.00, 0.00, 0.00, 0.00, 0.00, 0.00, 0.00, 0.00, 0.00, 0.00,17,0,1
20150826170747178,-124.313985,48.266085, 0.00, 0.00, 0.00, 0.00,0,0, 0.00,10.00, 0.00, 0.00, 0.45, 0.00, 0.00, 0.00, 0.00, 0.00, 0.00, 0.00, 0.00, 0.00, 0.00, 0.00,17,0,1
20150826170747378,-124.313985,48.266085, 0.00, 0.00, 0.00, 0.00,0,0, 0.00,10.00, 0.00, 0.00, 0.45, 0.00, 0.00, 0.00, 0.00, 0.00, 0.00, 0.00, 0.00, 0.00, 0.00, 0.00,17,0,1
20150826170747578,-124.313985,48.266085, 0.00, 0.00, 0.00, 0.00,0,0, 0.00,10.00, 0.00, 0.00, 0.45, 0.00, 0.00, 0.00, 0.00, 0.00, 0.00, 0.00, 0.00, 0.00, 0.00, 0.00,17,0,1
20150826170747778,-124.313985,48.266085, 0.00, 0.00, 0.00, 0.00,0,0, 0.00,10.00, 0.00, 0.00, 0.45, 0.00, 0.00, 0.00, 0.00, 0.00, 0.00, 0.00, 0.00, 0.00, 0.00, 0.00,17,0,1
20150826170747978,-124.313985,48.266085, 0.00, 0.00, 0.00, 0.00,0,0, 0.00,10.00, 0.00, 0.00, 0.45, 0.00, 0.00, 0.00, 0.00, 0.00, 0.00, 0.00, 0.00, 0.00, 0.00, 0.00,17,0,1
20150826170748177,-124.313985,48.266085, 0.00, 0.00, 0.00, 0.00,0,0, 0.00,10.00, 0.00, 0.00, 0.45, 0.00, 0.00, 0.00, 0.00, 0.00, 0.00, 0.00, 0.00, 0.00, 0.00, 0.00,17,0,1
20150826170748377,-124.313985,48.266085, 0.00, 0.00, 0.00, 0.00,0,0, 0.00,10.00, 0.00, 0.00, 0.45, 0.00, 0.00, 0.00, 0.00, 0.00, 0.00, 0.00, 0.00, 0.00, 0.00, 0.00,17,0,1
20150826170748577,-124.313985,48.266085, 0.00, 0.00, 0.00, 0.00,0,0, 0.00,10.00, 0.00, 0.00, 0.45, 0.00, 0.00, 0.00, 0.00, 0.00, 0.00, 0.00, 0.00, 0.00, 0.00, 0.00,17,0,1
20150826170748777,-124.313985,48.266085, 0.00, 0.00, 0.00, 0.00,0,0, 0.00,10.00, 0.00, 0.00, 0.45, 0.00, 0.00, 0.00, 0.00, 0.00, 0.00, 0.00, 0.00, 0.00, 0.00, 0.00,17,0,1
20150826170748977,-124.313985,48.266085, 0.00, 0.00, 0.00, 0.00,0,0, 0.00,10.00, 0.00, 0.00, 0.45, 0.00, 0.00, 0.00, 0.00, 0.00, 0.00, 0.00, 0.00, 0.00, 0.00, 0.00,17,0,1
20150826170749178,-124.313985,48.266085, 0.00, 0.00, 0.00, 0.00,0,0, 0.00,10.00, 0.00, 0.00, 0.45, 0.00, 0.00, 0.00, 0.00, 0.00, 0.00, 0.00, 0.00, 0.00, 0.00, 0.00,17,0,1
20150826170749377,-124.313985,48.266085, 0.00, 0.00, 0.00, 0.00,0,0, 0.00,10.00, 0.00, 0.00, 0.45, 0.00, 0.00, 0.00, 0.00, 0.00, 0.00, 0.00, 0.00, 0.00, 0.00, 0.00,17,0,1
20150826170749577,-124.313985,48.266085, 0.00, 0.00, 0.00, 0.00,0,0, 0.00,10.00, 0.00, 0.00, 0.45, 0.00, 0.00, 0.00, 0.00, 0.00, 0.00, 0.00, 0.00, 0.00, 0.00, 0.00,17,0,1
20150826170749777,-124.313985,48.266085, 0.00, 0.00, 0.00, 0.00,0,0, 0.00,10.00, 0.00, 0.00, 0.45, 0.00, 0.00, 0.00, 0.00, 0.00, 0.00, 0.00, 0.00, 0.00, 0.00, 0.00,17,0,1
20150826170749978,-124.313985,48.266085, 0.00, 0.00, 0.00, 0.00,0,0, 0.00,10.00, 0.00, 0.00, 0.45, 0.00, 0.00, 0.00, 0.00, 0.00, 0.00, 0.00, 0.00, 0.00, 0.00, 0.00,17,0,1
20150826170750177,-124.313985,48.266085, 0.00, 0.00, 0.00, 0.00,0,0, 0.00,10.00, 0.00, 0.00, 0.45, 0.00, 0.00, 0.00, 0.00, 0.00, 0.00, 0.00, 0.00, 0.00, 0.00, 0.00,17,0,1
20150826170750377,-124.313985,48.266085, 0.00, 0.00, 0.00, 0.00,0,0, 0.00,10.00, 0.00, 0.00, 0.45, 0.00, 0.00, 0.00, 0.00, 0.00, 0.00, 0.00, 0.00, 0.00, 0.00, 0.00,17,0,1
20150826170750578,-124.313985,48.266085, 0.00, 0.00, 0.00, 0.00,0,0, 0.00,10.00, 0.00, 0.00, 0.45, 0.00, 0.00, 0.00, 0.00, 0.00, 0.00, 0.00, 0.00, 0.00, 0.00, 0.00,17,0,1
20150826170750777,-124.313985,48.266085, 0.00, 0.00, 0.00, 0.00,0,0, 0.00,10.00, 0.00, 0.00, 0.45, 0.00, 0.00, 0.00, 0.00, 0.00, 0.00, 0.00, 0.00, 0.00, 0.00, 0.00,17,0,1
20150826170750977,-124.313985,48.266085, 0.00, 0.00, 0.00, 0.00,0,0, 0.00,10.00, 0.00, 0.00, 0.45, 0.00, 0.00, 0.00, 0.00, 0.00, 0.00, 0.00, 0.00, 0.00, 0.00, 0.00,17,0,1
20150826170751177,-124.313985,48.266085, 0.00, 0.00, 0.00, 0.00,0,0, 0.00,10.00, 0.00, 0.00, 0.45, 0.00, 0.00, 0.00, 0.00, 0.00, 0.00, 0.00, 0.00, 0.00, 0.00, 0.00,17,0,1
20150826170751377,-124.313985,48.266085, 0.00, 0.00, 0.00, 0.00,0,0, 0.00,10.00, 0.00, 0.00, 0.45, 0.00, 0.00, 0.00, 0.00, 0.00, 0.00, 0.00, 0.00, 0.00, 0.00, 0.00,17,0,1
20150826170751577,-124.313985,48.266085, 0.00, 0.00, 0.00, 0.00,0,0, 0.00,10.00, 0.00, 0.00, 0.45, 0.00, 0.00, 0.00, 0.00, 0.00, 0.00, 0.00, 0.00, 0.00, 0.00, 0.00,17,0,1
20150826170751777,-124.313985,48.266085, 0.00, 0.00, 0.00, 0.00,0,0, 0.00,10.00, 0.00, 0.00, 0.45, 0.00, 0.00, 0.00, 0.00, 0.00, 0.00, 0.00, 0.00, 0.00, 0.00, 0.00,17,0,1
20150826170751977,-124.313985,48.266085, 0.00, 0.00, 0.00, 0.00,0,0, 0.00,10.00, 0.00, 0.00, 0.45, 0.00, 0.00, 0.00, 0.00, 0.00, 0.00, 0.00, 0.00, 0.00, 0.00, 0.00,17,0,1
20150826170752176,-124.313985,48.266085, 0.00, 0.00, 0.00, 0.00,0,0, 0.00,10.00, 0.00, 0.00, 0.45, 0.00, 0.00, 0.00, 0.00, 0.00, 0.00, 0.00, 0.00, 0.00, 0.00, 0.00,17,0,1
20150826170752376,-124.313985,48.266085, 0.00, 0.00, 0.00, 0.00,0,0, 0.00,10.00, 0.00, 0.00, 0.45, 0.00, 0.00, 0.00, 0.00, 0.00, 0.00, 0.00, 0.00, 0.00, 0.00, 0.00,17,0,1
20150826170752576,-124.313985,48.266085, 0.00, 0.00, 0.00, 0.00,0,0, 0.00,10.00, 0.00, 0.00, 0.45, 0.00, 0.00, 0.00, 0.00, 0.00, 0.00, 0.00, 0.00, 0.00, 0.00, 0.00,17,0,1
20150826170752776,-124.313985,48.266085, 0.00, 0.00, 0.00, 0.00,0,0, 0.00,10.00, 0.00, 0.00, 0.45, 0.00, 0.00, 0.00, 0.00, 0.00, 0.00, 0.00, 0.00, 0.00, 0.00, 0.00,17,0,1
20150826170752976,-124.313985,48.266085, 0.00, 0.00, 0.00, 0.00,0,0, 0.00,10.00, 0.00, 0.00, 0.45, 0.00, 0.00, 0.00, 0.00, 0.00, 0.00, 0.00, 0.00, 0.00, 0.00, 0.00,17,0,1
20150826170753176,-124.313985,48.266085, 0.00, 0.00, 0.00, 0.00,0,0, 0.00,10.00, 0.00, 0.00, 0.45, 0.00, 0.00, 0.00, 0.00, 0.00, 0.00, 0.00, 0.00, 0.00, 0.00, 0.00,17,0,1
20150826170753376,-124.313985,48.266085, 0.00, 0.00, 0.00, 0.00,0,0, 0.00,10.00, 0.00, 0.00, 0.45, 0.00, 0.00, 0.00, 0.00, 0.00, 0.00, 0.00, 0.00, 0.00, 0.00, 0.00,17,0,1
20150826170753576,-124.313985,48.266085, 0.00, 0.00, 0.00, 0.00,0,0, 0.00,10.00, 0.00, 0.00, 0.45, 0.00, 0.00, 0.00, 0.00, 0.00, 0.00, 0.00, 0.00, 0.00, 0.00, 0.00,17,0,1
20150826170753776,-124.313985,48.266085, 0.00, 0.00, 0.00, 0.00,0,0, 0.00,10.00, 0.00, 0.00, 0.45, 0.00, 0.00, 0.00, 0.00, 0.00, 0.00, 0.00, 0.00, 0.00, 0.00, 0.00,17,0,1
20150826170753976,-124.313985,48.266085, 0.00, 0.00, 0.00, 0.00,0,0, 0.00,10.00, 0.00, 0.00, 0.45, 0.00, 0.00, 0.00, 0.00, 0.00, 0.00, 0.00, 0.00, 0.00, 0.00, 0.00,17,0,1
20150826170754176,-124.313985,48.266085, 0.00, 0.00, 0.00, 0.00,0,0, 0.00,10.00, 0.00, 0.00, 0.45, 0.00, 0.00, 0.00, 0.00, 0.00, 0.00, 0.00, 0.00, 0.00, 0.00, 0.00,17,0,1
20150826170754376,-124.313985,48.266085, 0.00, 0.00, 0.00, 0.00,0,0, 0.00,10.00, 0.00, 0.00, 0.45, 0.00, 0.00, 0.00, 0.00, 0.00, 0.00, 0.00, 0.00, 0.00, 0.00, 0.00,17,0,1
20150826170754576,-124.313985,48.266085, 0.00, 0.00, 0.00, 0.00,0,0, 0.00,10.00, 0.00, 0.00, 0.45, 0.00, 0.00, 0.00, 0.00, 0.00, 0.00, 0.00, 0.00, 0.00, 0.00, 0.00,17,0,1
20150826170754776,-124.313985,48.266085, 0.00, 0.00, 0.00, 0.00,0,0, 0.00,10.00, 0.00, 0.00, 0.45, 0.00, 0.00, 0.00, 0.00, 0.00, 0.00, 0.00, 0.00, 0.00, 0.00, 0.00,17,0,1
20150826170754976,-124.313985,48.266085, 0.00, 0.00, 0.00, 0.00,0,0, 0.00,10.00, 0.00, 0.00, 0.45, 0.00, 0.00, 0.00, 0.00, 0.00, 0.00, 0.00, 0.00, 0.00, 0.00, 0.00,17,0,1
20150826170755176,-124.313985,48.266085, 0.00, 0.00, 0.00, 0.00,0,0, 0.00,10.00, 0.00, 0.00, 0.45, 0.00, 0.00, 0.00, 0.00, 0.00, 0.00, 0.00, 0.00, 0.00, 0.00, 0.00,17,0,1
20150826170755376,-124.313985,48.266085, 0.00, 0.00, 0.00, 0.00,0,0, 0.00,10.00, 0.00, 0.00, 0.45, 0.00, 0.00, 0.00, 0.00, 0.00, 0.00, 0.00, 0.00, 0.00, 0.00, 0.00,17,0,1
20150826170755576,-124.313985,48.266085, 0.00, 0.00, 0.00, 0.00,0,0, 0.00,10.00, 0.00, 0.00, 0.45, 0.00, 0.00, 0.00, 0.00, 0.00, 0.00, 0.00, 0.00, 0.00, 0.00, 0.00,17,0,1
20150826170755776,-124.313985,48.266085, 0.00, 0.00, 0.00, 0.00,0,0, 0.00,10.00, 0.00, 0.00, 0.45, 0.00, 0.00, 0.00, 0.00, 0.00, 0.00, 0.00, 0.00, 0.00, 0.00, 0.00,17,0,1
20150826170755976,-124.313985,48.266085, 0.00, 0.00, 0.00, 0.00,0,0, 0.00,10.00, 0.00, 0.00, 0.45, 0.00, 0.00, 0.00, 0.00, 0.00, 0.00, 0.00, 0.00, 0.00, 0.00, 0.00,17,0,1
20150826170756175,-124.313985,48.266085, 0.00, 0.00, 0.00, 0.00,0,0, 0.00,10.00, 0.00, 0.00, 0.45, 0.00, 0.00, 0.00, 0.00, 0.00, 0.00, 0.00, 0.00, 0.00, 0.00, 0.00,17,0,1
20150826170756375,-124.313985,48.266085, 0.00, 0.00, 0.00, 0.00,0,0, 0.00,10.00, 0.00, 0.00, 0.45, 0.00, 0.00, 0.00, 0.00, 0.00, 0.00, 0.00, 0.00, 0.00, 0.00, 0.00,17,0,1
20150826170756576,-124.313985,48.266085, 0.00, 0.00, 0.00, 0.00,0,0, 0.00,10.00, 0.00, 0.00, 0.45, 0.00, 0.00, 0.00, 0.00, 0.00, 0.00, 0.00, 0.00, 0.00, 0.00, 0.00,17,0,1
20150826170756776,-124.313985,48.266085, 0.00, 0.00, 0.00, 0.00,0,0, 0.00,10.00, 0.00, 0.00, 0.45, 0.00, 0.00, 0.00, 0.00, 0.00, 0.00, 0.00, 0.00, 0.00, 0.00, 0.00,17,0,1
20150826170756976,-124.313985,48.266085, 0.00, 0.00, 0.00, 0.00,0,0, 0.00,10.00, 0.00, 0.00, 0.45, 0.00, 0.00, 0.00, 0.00, 0.00, 0.00, 0.00, 0.00, 0.00, 0.00, 0.00,17,0,1
20150826170757177,-124.313985,48.266085, 0.00, 0.00, 0.00, 0.00,0,0, 0.00,10.00, 0.00, 0.00, 0.45, 0.00, 0.00, 0.00, 0.00, 0.00, 0.00, 0.00, 0.00, 0.00, 0.00, 0.00,17,0,1
20150826170757377,-124.313985,48.266085, 0.00, 0.00, 0.00, 0.00,0,0, 0.00,10.00, 0.00, 0.00, 0.45, 0.00, 0.00, 0.00, 0.00, 0.00, 0.00, 0.00, 0.00, 0.00, 0.00, 0.00,17,0,1
20150826170757576,-124.313985,48.266085, 0.00, 0.00, 0.00, 0.00,0,0, 0.00,10.00, 0.00, 0.00, 0.45, 0.00, 0.00, 0.00, 0.00, 0.00, 0.00, 0.00, 0.00, 0.00, 0.00, 0.00,17,0,1
20150826170757776,-124.313985,48.266085, 0.00, 0.00, 0.00, 0.00,0,0, 0.00,10.00, 0.00, 0.00, 0.45, 0.00, 0.00, 0.00, 0.00, 0.00, 0.00, 0.00, 0.00, 0.00, 0.00, 0.00,17,0,1
20150826170757976,-124.313985,48.266085, 0.00, 0.00, 0.00, 0.00,0,0, 0.00,10.00, 0.00, 0.00, 0.45, 0.00, 0.00, 0.00, 0.00, 0.00, 0.00, 0.00, 0.00, 0.00, 0.00, 0.00,17,0,1
20150826170758176,-124.313985,48.266085, 0.00, 0.00, 0.00, 0.00,0,0, 0.00,10.00, 0.00, 0.00, 0.45, 0.00, 0.00, 0.00, 0.00, 0.00, 0.00, 0.00, 0.00, 0.00, 0.00, 0.00,17,0,1
20150826170758377,-124.313985,48.266085, 0.00, 0.00, 0.00, 0.00,0,0, 0.00,10.00, 0.00, 0.00, 0.45, 0.00, 0.00, 0.00, 0.00, 0.00, 0.00, 0.00, 0.00, 0.00, 0.00, 0.00,17,0,1
20150826170758576,-124.313985,48.266085, 0.00, 0.00, 0.00, 0.00,0,0, 0.00,10.00, 0.00, 0.00, 0.45, 0.00, 0.00, 0.00, 0.00, 0.00, 0.00, 0.00, 0.00, 0.00, 0.00, 0.00,17,0,1
20150826170758776,-124.313985,48.266085, 0.00, 0.00, 0.00, 0.00,0,0, 0.00,10.00, 0.00, 0.00, 0.45, 0.00, 0.00, 0.00, 0.00, 0.00, 0.00, 0.00, 0.00, 0.00, 0.00, 0.00,17,0,1
20150826170758976,-124.313985,48.266085, 0.00, 0.00, 0.00, 0.00,0,0, 0.00,10.00, 0.00, 0.00, 0.45, 0.00, 0.00, 0.00, 0.00, 0.00, 0.00, 0.00, 0.00, 0.00, 0.00, 0.00,17,0,1
20150826170759176,-124.308150,48.265355, 0.00, 2.40, 0.00,280.70,0,0, 0.00,10.00, 0.00, 0.00, 0.39, 0.00, 0.00, 0.00, 0.00, 0.00, 0.00, 0.00, 0.00, 0.00, 0.00,17.00,19,0,1
20150826170759376,-124.308150,48.265355, 0.00, 1.00, 0.10,280.70,0,0, 0.00,10.00, 0.00, 0.00, 0.42, 0.00, 0.00, 0.00,-10.00, 0.00, 0.00,-10.00, 0.00, 0.00, 0.00, 0.00,26,0,1
20150826170759576,-124.308150,48.265355, 0.00, 0.10, 0.00,280.70,0,0, 0.00,10.00, 0.00, 0.00, 0.44, 0.00, 0.00, 0.00, 0.00, 0.00, 0.00, 0.00, 0.00, 0.00, 0.00, 0.00,35,0,1
20150826170759776,-124.308150,48.265355, 0.00, 0.40, 0.00,280.70,0,0, 0.00,10.00, 0.00, 0.00, 0.44, 0.00, 0.00, 0.00, 0.00, 0.00, 0.00, 0.00, 0.00, 0.00, 0.00, 0.00,43,0,1
20150826170759976,-124.308150,48.265355, 0.00, 1.30, 0.00,280.70,0,0, 0.00,10.00, 0.00, 0.00, 0.41, 0.00, 0.00, 0.00, 0.00, 0.00, 0.00, 0.00, 0.00, 0.00, 0.00, 0.00,51,0,1
20150826170800176,-124.308150,48.265355, 0.00, 2.30, 0.00,280.70,0,0, 0.00,10.00, 0.00, 0.00, 0.39, 0.00, 0.00, 0.00, 0.00, 0.00, 0.00, 0.00, 0.00, 0.00, 0.00, 0.00,59,0,1
20150826170800375,-124.308150,48.265355, 0.00, 2.90, 0.00,280.70,0,0, 0.00,10.00, 0.00, 0.00, 0.37, 0.00, 0.00, 0.00, 0.00, 0.00, 0.00, 0.00, 0.00, 0.00, 0.00, 0.00,67,0,1
20150826170800575,-124.308150,48.265355, 0.00, 3.30, 0.00,280.70,0,0, 0.00,10.00, 0.00, 0.00, 0.36, 0.00, 0.00, 0.00, 0.00, 0.00, 0.00, 0.00, 0.00, 0.00, 0.00, 0.00,75,0,1
20150826170800775,-124.308150,48.265355, 0.00, 3.50, 0.00,280.70,0,0, 0.00,10.00, 0.00, 0.00, 0.36, 0.00, 0.00, 0.00, 0.00, 0.00, 0.00, 0.00, 0.00, 0.00, 0.00, 0.00,83,0,1
20150826170800975,-124.308150,48.265355, 0.00, 3.70, 0.00,280.70,0,0, 0.00,10.00, 0.00, 0.00, 0.35, 0.00, 0.00, 0.00, 0.00, 0.00, 0.00, 0.00, 0.00, 0.00, 0.00, 0.00,91,0,1
20150826170801175,-124.308150,48.265355, 0.00, 3.90, 0.00,280.70,0,0, 0.00,10.00, 0.00, 0.00, 0.35, 0.00, 0.00, 0.00, 0.00, 0.00, 0.00, 0.00, 0.00, 0.00, 0.00, 0.00,99,0,1
20150826170801375,-124.308150,48.265355, 0.00, 4.10, 0.00,280.70,0,0, 0.00,10.00, 0.00, 0.00, 0.34, 0.00, 0.00, 0.00, 0.00, 0.00, 0.00, 0.00, 0.00, 0.00, 0.00, 0.00,106,0,1
20150826170801575,-124.308150,48.265355, 0.00, 4.40, 0.00,280.70,0,0, 0.00,10.00, 0.00, 0.00, 0.34, 0.00, 0.00, 0.00, 0.00, 0.00, 0.00, 0.00, 0.00, 0.00, 0.00, 0.00,114,0,1
20150826170801775,-124.308150,48.265355, 0.00, 4.80, 0.00,280.70,0,0, 0.00,10.00, 0.00, 0.00, 0.33, 0.00, 0.00, 0.00, 0.00, 0.00, 0.00, 0.00, 0.00, 0.00, 0.00, 0.00,122,0,1
20150826170801975,-124.308150,48.265355, 0.00, 5.30, 0.00,280.70,0,0, 0.00,10.00, 0.00, 0.00, 0.31, 0.00, 0.00, 0.00, 0.00, 0.00, 0.00, 0.00, 0.00, 0.00, 0.00, 0.00,129,0,1
20150826170802176,-124.308150,48.265355, 0.00, 5.50, 0.00,280.70,0,0, 0.00,10.00, 0.00, 0.00, 0.31, 0.00, 0.00, 0.00, 0.00, 0.00, 0.00, 0.00, 0.00, 0.00, 0.00, 0.00,131,0,1
20150826170802375,-124.308150,48.265355, 0.00, 5.50, 0.00,280.70,0,0, 0.00,10.00, 0.00, 0.00, 0.31, 0.00, 0.00, 0.00, 0.00, 0.00, 0.00, 0.00, 0.00, 0.00, 0.00, 0.00,131,0,1
20150826170802575,-124.308150,48.265355, 0.00, 6.20, 0.00,280.70,0,0, 0.00,10.00, 0.00, 0.00, 0.29, 0.00, 0.00, 0.00, 0.00, 0.00, 0.00, 0.00, 0.00, 0.00, 0.00, 0.00,138,0,1
20150826170802775,-124.308150,48.265355, 0.00, 7.00, 0.00,280.70,0,0, 0.00,10.00, 0.00, 0.00, 0.27, 0.00, 0.00, 0.00, 0.00, 0.00, 0.00, 0.00, 0.00, 0.00, 0.00, 0.00,145,0,1
20150826170802975,-124.308150,48.265355, 0.00, 7.90, 0.00,280.70,0,0, 0.00,10.00, 0.00, 0.00, 0.25, 0.00, 0.00, 0.00, 0.00, 0.00, 0.00, 0.00, 0.00, 0.00, 0.00, 0.00,153,0,1
20150826170803175,-124.308150,48.265355, 0.00, 8.70, 0.00,280.70,0,0, 0.00,10.00, 0.00, 0.00, 0.23, 0.00, 0.00, 0.00, 0.00, 0.00, 0.00, 0.00, 0.00, 0.00, 0.00, 0.00,160,0,1
20150826170803375,-124.308150,48.265355, 0.00, 9.70, 0.00,280.70,0,0, 0.00,10.00, 0.00, 0.00, 0.21, 0.00, 0.00, 0.00, 0.00, 0.00, 0.00, 0.00, 0.00, 0.00, 0.00, 0.00,167,0,1
20150826170803575,-124.308150,48.265355, 0.00,10.90, 0.00,280.70,0,0, 0.00,10.00, 0.00, 0.00, 0.17, 0.00, 0.00, 0.00,10.00, 0.00, 0.00,10.00, 0.00, 0.00, 0.00, 0.00,175,0,1
20150826170803775,-124.308150,48.265355, 0.00,11.80, 0.00,280.70,0,0, 0.00,10.00, 0.00, 0.00, 0.15, 0.00, 0.00, 0.00, 0.00, 0.00, 0.00, 0.00, 0.00, 0.00, 0.00, 0.00,181,0,1
20150826170803975,-124.308150,48.265355, 0.01,12.10, 0.00,280.70,0,0, 0.00,10.00, 0.00, 0.00, 0.14, 0.00, 0.00, 0.00, 0.00, 0.00, 0.00, 0.00, 0.00, 0.00, 0.00, 0.00,188,0,1
20150826170804175,-124.308150,48.265355, 0.00,11.90, 0.00,280.70,0,0, 0.00,10.00, 0.00, 0.00, 0.15, 0.00, 0.00, 0.00, 0.00, 0.00, 0.00, 0.00, 0.00, 0.00, 0.00, 0.00,195,0,1
20150826170804374,-124.308150,48.265355, 0.00,11.90, 0.00,280.70,0,0, 0.00,10.00, 0.00, 0.00, 0.15, 0.00, 0.00, 0.00, 0.00, 0.00, 0.00, 0.00, 0.00, 0.00, 0.00, 0.00,202,0,1
20150826170804574,-124.308150,48.265355, 0.00,11.90, 0.00,280.70,0,0, 0.00,10.00, 0.00, 0.00, 0.15, 0.00, 0.00, 0.00, 0.00, 0.00, 0.00, 0.00, 0.00, 0.00, 0.00, 0.00,209,0,1
20150826170804774,-124.308150,48.265355, 0.00,11.90, 0.00,280.70,0,0, 0.00,10.00, 0.00, 0.00, 0.15, 0.00, 0.00, 0.00, 0.00, 0.00, 0.00, 0.00, 0.00, 0.00, 0.00, 0.00,217,0,1
20150826170804974,-124.308150,48.265355, 0.00,11.90, 0.00,280.70,0,0, 0.00,10.00, 0.00, 0.00, 0.15, 0.00, 0.00, 0.00, 0.00, 0.00, 0.00, 0.00, 0.00, 0.00, 0.00, 0.00,225,0,1
20150826170805180,-124.308150,48.265355, 0.00,11.90, 0.00,280.70,0,0, 0.00,10.00, 0.00, 0.00, 0.15, 0.00, 0.00, 0.00, 0.00, 0.00, 0.00, 0.00, 0.00, 0.00, 0.00, 0.00,232,0,1
20150826170805374,-124.308150,48.265355, 0.00,11.90, 0.00,280.70,0,0, 0.00,10.00, 0.00, 0.00, 0.15, 0.00, 0.00, 0.00, 0.00, 0.00, 0.00, 0.00, 0.00, 0.00, 0.00, 0.00,240,0,1
20150826170805574,-124.308150,48.265355, 0.00,11.90, 0.00,280.70,0,0, 0.00,10.00, 0.00, 0.00, 0.15, 0.00, 0.00, 0.00, 0.00, 0.00, 0.00, 0.00, 0.00, 0.00, 0.00, 0.00,248,0,1
20150826170805775,-124.308150,48.265355, 0.00,11.90, 0.00,280.70,0,0, 0.00,10.00, 0.00, 0.00, 0.15, 0.00, 0.00, 0.00, 0.00, 0.00, 0.00, 0.00, 0.00, 0.00, 0.00, 0.00,0,0,1
20150826170805974,-124.308150,48.265355, 0.00,11.90, 0.00,280.70,0,0, 0.00,10.00, 0.00, 0.00, 0.14, 0.00, 0.00, 0.00, 0.00, 0.00, 0.00, 0.00, 0.00, 0.00, 0.00, 0.00,8,0,1
20150826170806174,-124.308150,48.265355, 0.00,11.90, 0.00,280.70,0,0, 0.00,10.00, 0.00, 0.00, 0.13, 0.00, 0.00, 0.00, 0.00, 0.00, 0.00, 0.00, 0.00, 0.00, 0.00, 0.00,15,0,1
20150826170806374,-124.308150,48.265355, 0.00,11.90, 0.00,280.70,0,0, 0.00,10.00, 0.00, 0.00, 0.12, 0.00, 0.00, 0.00, 0.00, 0.00, 0.00, 0.00, 0.00, 0.00, 0.00, 0.00,23,0,1
20150826170806574,-124.308150,48.265355, 0.00,11.90, 0.00,280.70,0,0, 0.00,10.00, 0.00, 0.00, 0.11, 0.00, 0.00, 0.00, 0.00, 0.00, 0.00, 0.00, 0.00, 0.00, 0.00, 0.00,31,0,1
20150826170806779,-124.308150,48.265355, 0.00,11.90, 0.00,280.70,0,0, 0.00,10.00, 0.00, 0.00, 0.10, 0.00, 0.00, 0.00, 0.00, 0.00, 0.00, 0.00, 0.00, 0.00, 0.00, 0.00,39,0,1
20150826170806974,-124.308150,48.265355, 0.00,11.90, 0.00,280.70,0,0, 0.00,10.00, 0.00, 0.00, 0.09, 0.00, 0.00, 0.00, 0.00, 0.00, 0.00, 0.00, 0.00, 0.00, 0.00, 0.00,46,0,1
20150826170807174,-124.308150,48.265355, 0.00,11.80, 0.00,280.70,0,0, 0.00,10.00, 0.00, 0.00, 0.08, 0.00, 0.00, 0.00, 0.00, 0.00, 0.00, 0.00, 0.00, 0.00, 0.00, 0.00,54,0,1
20150826170807374,-124.308150,48.265355, 0.00,11.80, 0.00,280.70,0,0, 0.00,10.00, 0.00, 0.00, 0.07, 0.00, 0.00, 0.00, 0.00, 0.00, 0.00, 0.00, 0.00, 0.00, 0.00, 0.00,62,0,1
20150826170807574,-124.308150,48.265355, 0.00,11.70, 0.00,280.70,0,0, 0.00,10.00, 0.00, 0.00, 0.07, 0.00, 0.00, 0.00, 0.00, 0.00, 0.00, 0.00, 0.00, 0.00, 0.00, 0.00,69,0,1
20150826170807774,-124.308150,48.265355, 0.00,11.60, 0.00,280.70,0,0, 0.00,10.00, 0.00, 0.00, 0.06, 0.00, 0.00, 0.00, 0.00, 0.00, 0.00, 0.00, 0.00, 0.00, 0.00, 0.00,78,0,1
20150826170807973,-124.308150,48.265355, 0.00,11.50, 0.00,280.70,0,0, 0.00,10.00, 0.00, 0.00, 0.05, 0.00, 0.00, 0.00, 0.00, 0.00, 0.00, 0.00, 0.00, 0.00, 0.00, 0.00,85,0,1
20150826170808173,-124.308150,48.265355, 0.00,11.30, 0.00,280.70,0,0, 0.00,10.00, 0.00, 0.00, 0.05, 0.00, 0.00, 0.00, 0.00, 0.00, 0.00, 0.00, 0.00, 0.00, 0.00, 0.00,93,0,1
20150826170808373,-124.308150,48.265355, 0.00,11.10, 0.00,280.70,0,0, 0.00,10.00, 0.00, 0.00, 0.04, 0.00, 0.00, 0.00, 0.00, 0.00, 0.00, 0.00, 0.00, 0.00, 0.00, 0.00,101,0,1
20150826170808573,-124.308150,48.265355, 0.00,10.80, 0.00,280.70,0,0, 0.00,10.00, 0.00, 0.00, 0.04, 0.00, 0.00, 0.00, 0.00, 0.00, 0.00, 0.00, 0.00, 0.00, 0.00, 0.00,109,0,1
20150826170808774,-124.308150,48.265355, 0.00,10.30, 0.00,280.70,0,0, 0.00,10.00, 0.00, 0.00, 0.04, 0.00, 0.00, 0.00, 0.00, 0.00, 0.00, 0.00, 0.00, 0.00, 0.00, 0.00,117,0,1
20150826170808973,-124.308150,48.265355, 0.00, 9.70, 0.00,280.70,0,0, 0.00,10.00, 0.00, 0.00, 0.04, 0.00, 0.00, 0.00, 0.00, 0.00, 0.00, 0.00, 0.00, 0.00, 0.00, 0.00,126,0,1
20150826170809173,-124.308150,48.265355, 0.00, 9.10, 0.00,280.70,0,0, 0.00,10.00, 0.00, 0.00, 0.06, 0.00, 0.00, 0.00, 0.00, 0.00, 0.00, 0.00, 0.00, 0.00, 0.00, 0.00,134,0,1
20150826170809373,-124.308150,48.265355, 0.00, 8.30, 0.00,280.70,0,0, 0.00,10.00, 0.00, 0.00, 0.07, 0.00, 0.00, 0.00, 0.00, 0.00, 0.00, 0.00, 0.00, 0.00, 0.00, 0.00,142,0,1
20150826170809573,-124.308150,48.265355, 0.00, 7.40, 0.00,280.70,0,0, 0.00,10.00, 0.00, 0.00, 0.08, 0.00, 0.00, 0.00, 0.00, 0.00, 0.00, 0.00, 0.00, 0.00, 0.00, 0.00,151,0,1
20150826170809773,-124.308150,48.265355, 0.00, 6.30, 0.00,280.70,0,0, 0.00,10.00, 0.00, 0.00, 0.10, 0.00, 0.00, 0.00, 0.00, 0.00, 0.00, 0.00, 0.00, 0.00, 0.00, 0.00,160,0,1
20150826170809973,-124.308150,48.265355, 0.00, 5.10, 0.00,280.70,0,0, 0.00,10.00, 0.00, 0.00, 0.13, 0.00, 0.00, 0.00,-10.00, 0.00, 0.00,-10.00, 0.00, 0.00, 0.00, 0.00,169,0,1
20150826170810173,-124.308150,48.265355, 0.00, 3.80, 0.00,280.70,0,0, 0.00,10.00, 0.00, 0.00, 0.16, 0.00, 0.00, 0.00,-10.00, 0.00, 0.00,-10.00, 0.00, 0.00, 0.00, 0.00,178,0,1
20150826170810373,-124.308150,48.265355, 0.00, 2.80, 0.00,280.70,0,0, 0.00,10.00, 0.00, 0.00, 0.20, 0.00, 0.00, 0.00, 0.00, 0.00, 0.00, 0.00, 0.00, 0.00, 0.00, 0.00,187,0,1
20150826170810573,-124.308150,48.265355, 0.00, 2.70, 0.00,280.70,0,0, 0.00,10.00, 0.00, 0.00, 0.21, 0.00, 0.00, 0.00, 0.00, 0.00, 0.00, 0.00, 0.00, 0.00, 0.00, 0.00,197,0,1
20150826170810773,-124.308150,48.265355, 0.00, 3.10, 0.00,280.70,0,0, 0.00,10.00, 0.00, 0.00, 0.20, 0.00, 0.00, 0.00, 0.00, 0.00, 0.00, 0.00, 0.00, 0.00, 0.00, 0.00,206,0,1
20150826170810973,-124.308150,48.265355, 0.00, 3.40, 0.00,280.70,0,0, 0.00,10.00, 0.00, 0.00, 0.21, 0.00, 0.00, 0.00, 0.00, 0.00, 0.00, 0.00, 0.00, 0.00, 0.00, 0.00,215,0,1
20150826170811173,-124.308150,48.265355, 0.00, 3.50, 0.00,280.70,0,0, 0.00,10.00, 0.00, 0.00, 0.21, 0.00, 0.00, 0.00, 0.00, 0.00, 0.00, 0.00, 0.00, 0.00, 0.00, 0.00,224,0,1
20150826170811373,-124.308150,48.265355, 0.00, 3.40, 0.00,280.70,0,0, 0.00,10.00, 0.00, 0.00, 0.23, 0.00, 0.00, 0.00, 0.00, 0.00, 0.00, 0.00, 0.00, 0.00, 0.00, 0.00,234,0,1
20150826170811573,-124.308150,48.265355, 0.00, 3.40, 0.00,280.70,0,0, 0.00,10.00, 0.00, 0.00, 0.24, 0.00, 0.00, 0.00, 0.00, 0.00, 0.00, 0.00, 0.00, 0.00, 0.00, 0.00,243,0,1
20150826170811773,-124.308150,48.265355, 0.00, 3.50, 0.00,280.70,0,0, 0.00,10.00, 0.00, 0.00, 0.24, 0.00, 0.00, 0.00, 0.00, 0.00, 0.00, 0.00, 0.00, 0.00, 0.00, 0.00,252,0,1
20150826170811972,-124.308150,48.265355, 0.00, 3.50, 0.00,280.70,0,0, 0.00,10.00, 0.00, 0.00, 0.25, 0.00, 0.00, 0.00, 0.00, 0.00, 0.00, 0.00, 0.00, 2.00, 9.00, 0.00,6,0,1
20150826170812172,-124.308150,48.265355, 0.00, 3.50, 0.20,279.90,0,0, 0.00,10.00, 0.00, 0.00, 0.26, 0.00, 0.00, 0.00, 0.00,-10.00, 0.00, 0.00,-10.00,18.00,88.00, 0.00,15,0,1
20150826170812373,-124.308155,48.265355, 0.00, 3.60, 0.50,277.90,1,1, 0.00,10.00, 0.00, 0.00, 0.27, 0.00, 0.00, 0.00, 0.00,-10.00, 0.00, 0.00,-10.00,26.00,172.00, 0.00,25,0,1
20150826170812572,-124.308155,48.265355, 0.00, 3.80, 0.60,275.60,2,2, 0.00,10.00, 0.00, 0.00, 0.28, 0.00, 0.00, 0.00, 0.00,-20.00, 0.00, 0.00,-20.00,26.00,240.00, 0.00,33,0,1
20150826170812772,-124.308165,48.265355, 0.00, 4.10, 0.80,272.30,3,3, 0.00,10.00, 0.00, 0.00, 0.28, 0.00, 0.00, 0.00, 0.00,-30.00, 0.00, 0.00,-30.00,19.00,315.00, 1.00,42,0,1
20150826170812972,-124.308180,48.265355, 0.00, 4.90, 0.90,268.40,3,3, 0.00,10.00, 0.00, 0.00, 0.27, 0.00, 0.00, 0.00, 0.00,-30.00, 0.00, 0.00,-30.00, 0.00,389.00, 2.00,51,0,1
20150826170813172,-124.308185,48.265355, 0.01, 6.10, 1.10,264.70,4,4, 0.00,10.00, 0.00, 0.00, 0.26,-0.02, 0.00, 0.00,10.00,-30.00, 0.00,10.00,-30.00,25.00,453.00, 2.00,59,0,1
20150826170813372,-124.308200,48.265355, 0.01, 7.90, 1.10,260.80,5,5, 0.00,10.00, 0.00, 0.00, 0.22,-0.03, 0.00, 0.00,10.00,-30.00, 0.00,10.00,-30.00,60.00,513.00, 2.00,67,0,1
20150826170813572,-124.308215,48.265355, 0.01, 9.90, 1.10,257.30,5,5, 0.00,10.00, 0.00, 0.00, 0.20,-0.03, 0.00, 0.00,20.00,-30.00, 0.00,20.00,-30.00,95.00,561.00, 3.00,74,0,1
20150826170813773,-124.308235,48.265350, 0.01,12.50, 0.90,253.10,6,6, 0.00,10.00, 0.00, 0.00, 0.14,-0.03, 0.00, 0.00,20.00,-30.00, 0.00,20.00,-30.00,140.00,611.00, 4.00,82,0,1
20150826170813973,-124.308250,48.265350, 0.02,13.20, 0.50,250.00,6,6, 0.00,10.00, 0.00, 0.00, 0.12,-0.03, 0.00, 0.00, 0.00,-20.00, 0.00, 0.00,-20.00,172.00,641.00, 3.00,88,0,1
20150826170814173,-124.308265,48.265350, 0.02,12.70, 0.60,247.00,6,6, 0.00,10.00, 0.00, 0.00, 0.13,-0.03, 0.00, 0.00, 0.00,-20.00, 0.00, 0.00,-20.00,213.00,672.00, 3.00,94,0,1
20150826170814373,-124.308285,48.265345, 0.02,12.40, 0.50,244.30,7,7, 0.00,10.00, 0.00, 0.00, 0.14,-0.03, 0.00, 0.00, 0.00,-10.00, 0.00, 0.00,-10.00,258.00,704.00, 1.00,101,0,1
20150826170814573,-124.308300,48.265335, 0.02,12.30, 0.30,242.30,7,7, 0.00,10.00, 0.00, 0.00, 0.14,-0.03, 0.00, 0.00, 0.00,-10.00, 0.00, 0.00,-10.00,297.00,731.00, 1.00,108,0,1
20150826170814777,-124.308325,48.265335, 0.02,12.40, 0.10,240.90,8,8, 0.00,10.00, 0.00, 0.00, 0.14,-0.03, 0.00, 0.00, 0.00,-10.00, 0.00, 0.00,-10.00,332.00,758.00, 3.00,115,0,1
20150826170814973,-124.308345,48.265325, 0.02,12.50,-0.10,239.90,8,8, 0.00,10.00, 0.00, 0.00, 0.13,-0.03, 0.00, 0.00, 0.00, 0.00, 0.00, 0.00, 0.00,364.00,787.00, 4.00,123,0,1
20150826170815173,-124.308370,48.265315, 0.02,12.60,-0.60,239.30,8,8, 0.00,10.00, 0.00, 0.00, 0.13,-0.03, 0.00, 0.00, 0.00, 0.00, 0.00, 0.00, 0.00,386.00,813.00, 5.00,130,0,1
20150826170815373,-124.308385,48.265310, 0.03,12.50,-1.60,239.10,9,9, 0.00,10.00, 0.00, 0.00, 0.13, 0.00, 0.00, 0.00, 0.00, 0.00, 0.00, 0.00, 0.00,409.00,836.00,14.00,137,0,1
20150826170815572,-124.308410,48.265305, 0.07,12.60,-2.30,239.20,9,9, 0.00,10.00, 0.00, 0.00, 0.13, 0.01, 0.00, 0.00, 0.00, 0.00, 0.00, 0.00, 0.00,432.00,857.00,25.00,144,0,1
20150826170815772,-124.308430,48.265295, 0.12,12.90,-2.70,239.20,9,9, 0.00,10.00, 0.00, 0.00, 0.12, 0.03, 0.00, 0.00, 0.00, 0.00, 0.00, 0.00, 0.00,455.00,876.00,39.00,151,0,1
20150826170815972,-124.308460,48.265285, 0.22,13.50,-2.80,239.00,9,9, 0.00,10.00, 0.00, 0.00, 0.11, 0.04, 0.00, 0.00, 0.00, 0.00, 0.00, 0.00, 0.00,476.00,892.00,58.00,158,0,1
20150826170816172,-124.308475,48.265280, 0.34,14.10,-2.90,238.60,10,10, 0.00,10.00, 0.00, 0.00, 0.09, 0.05, 0.00, 0.00, 0.00, 0.00, 0.00, 0.00, 0.00,493.00,903.00,77.00,164,0,1
20150826170816372,-124.308505,48.265270, 0.52,14.80,-2.90,237.90,10,10, 0.00,10.00, 0.00, 0.00, 0.08, 0.05, 0.00, 0.00, 0.00, 0.00, 0.00, 0.00, 0.00,510.00,911.00,100.00,171,0,1
20150826170816572,-124.308530,48.265260, 0.72,15.20,-3.00,237.00,10,10, 0.00,10.00, 0.00, 0.00, 0.07, 0.06, 0.00, 0.00, 0.00, 0.00, 0.00, 0.00, 0.00,525.00,915.00,117.00,177,0,1
20150826170816772,-124.308555,48.265250, 0.99,15.50,-3.10,235.90,10,10, 0.00,10.00, 0.00, 0.00, 0.06, 0.07, 0.00, 0.00, 0.00, 0.00, 0.00, 0.00, 0.00,542.00,917.00,132.00,184,0,1
20150826170816972,-124.308575,48.265240, 1.23,15.60,-3.00,235.10,10,10, 0.00,10.00, 0.00, 0.00, 0.05, 0.08, 0.00, 0.00, 0.00, 0.00, 0.00, 0.00, 0.00,556.00,917.00,142.00,190,0,1
20150826170817172,-124.308605,48.265230, 1.54,15.80,-2.90,234.20,10,10, 0.00,10.00, 0.00, 0.00, 0.05, 0.08, 0.00, 0.00, 0.00, 0.00, 0.00, 0.00, 0.00,572.00,915.00,151.00,197,0,1
20150826170817372,-124.308630,48.265220, 1.86,15.90,-2.60,233.50,10,10, 0.00,10.00, 0.00, 0.00, 0.04, 0.09, 0.00, 0.00, 0.00, 0.00, 0.00, 0.00, 0.00,587.00,913.00,158.00,204,0,1
20150826170817572,-124.308650,48.265210, 2.14,15.80,-2.30,233.10,10,10, 0.00,10.00, 0.00, 0.00, 0.03, 0.08, 0.00, 0.00, 0.00, 0.00, 0.00, 0.00, 0.00,599.00,912.00,162.00,210,0,1
20150826170817772,-124.308685,48.265200, 2.47,15.60,-1.80,232.70,11,11, 0.00,10.00, 0.00, 0.00, 0.02, 0.08, 0.00, 0.00, 0.00, 0.00, 0.00, 0.00, 0.00,611.00,912.00,164.00,217,0,1
20150826170817972,-124.308705,48.265190, 2.79,15.30,-1.40,232.40,11,11, 0.00,10.00, 0.00, 0.00, 0.02, 0.08, 0.00, 0.00, 0.00, 0.00, 0.00, 0.00, 0.00,623.00,914.00,164.00,224,0,1
20150826170818172,-124.308730,48.265175, 3.10,15.00,-0.90,232.20,11,11, 0.00,10.00, 0.00, 0.00, 0.02, 0.08, 0.00, 0.00, 0.00, 0.00, 0.00, 0.00, 0.00,633.00,917.00,161.00,231,0,1
20150826170818372,-124.308760,48.265165, 3.43,14.50,-0.40,232.00,11,11, 0.00,10.00, 0.00, 0.00, 0.02, 0.08, 0.00, 0.00, 0.00, 0.00, 0.00, 0.00, 0.00,644.00,923.00,157.00,239,0,1
20150826170818572,-124.308780,48.265155, 3.71,14.10, 0.00,231.90,11,11, 0.00,10.00, 0.00, 0.00, 0.02, 0.08, 0.00, 0.00, 0.00, 0.00, 0.00, 0.00, 0.00,653.00,929.00,152.00,246,0,1
20150826170818772,-124.308805,48.265140, 4.02,13.70, 0.70,231.80,11,11, 0.00,10.00, 0.00, 0.00, 0.02, 0.08, 0.00, 0.00, 0.00, 0.00, 0.00, 0.00, 0.00,662.00,939.00,147.00,254,0,1
20150826170818972,-124.308830,48.265130, 4.25,13.40, 1.10,231.80,11,11, 0.00,10.00, 0.00, 0.00, 0.01, 0.06, 0.00, 0.00, 0.00, 0.00, 0.00, 0.00, 0.00,668.00,946.00,144.00,4,0,1
20150826170819172,-124.308860,48.265120, 4.57,12.90, 1.60,232.00,11,11, 0.00,10.00, 0.00, 0.00, 0.01, 0.05, 0.00, 0.00, 0.00, 0.00, 0.00, 0.00, 0.00,676.00,960.00,139.00,13,0,1
20150826170819372,-124.308880,48.265105, 4.85,12.50, 1.90,232.30,11,11, 0.00,10.00, 0.00, 0.00, 0.01, 0.05, 0.00, 0.00, 0.00, 0.00, 0.00, 0.00, 0.00,682.00,973.00,136.00,21,0,1
20150826170819572,-124.308910,48.265090, 5.11,12.10, 2.30,232.60,12,12, 0.00,10.00, 0.00, 0.00, 0.01, 0.04, 0.00, 0.00, 0.00, 0.00, 0.00, 0.00, 0.00,688.00,987.00,132.00,29,0,1
20150826170819772,-124.308935,48.265080, 5.34,11.70, 2.60,233.00,12,12, 0.00,10.00, 0.00, 0.00, 0.01, 0.04, 0.00, 0.00, 0.00, 0.00, 0.00, 0.00, 0.00,691.00,1001.00,129.00,36,0,1
20150826170819972,-124.308965,48.265065, 5.62,11.30, 2.90,233.60,12,12, 0.00,10.00, 0.00, 0.00, 0.01, 0.03, 0.00, 0.00, 0.00, 0.00, 0.00, 0.00, 0.00,695.00,1020.00,126.00,45,0,1
20150826170820172,-124.308995,48.265055, 5.85,10.90, 3.00,234.00,12,12, 0.00,10.00, 0.00, 0.00, 0.01, 0.02, 0.00, 0.00, 0.00, 0.00, 0.00, 0.00, 0.00,698.00,1037.00,123.00,53,0,1
20150826170820679,-124.309025,48.265045, 6.08,10.60, 2.90,234.50,12,12, 0.00,10.00, 0.00, 0.00, 0.01, 0.01, 0.00, 0.00, 0.00, 0.00, 0.00, 0.00, 0.00,700.00,1054.00,120.00,61,0,1
20150826170821185,-124.309050,48.265030, 6.30,10.30, 2.80,235.00,12,12, 0.00,10.00, 0.00, 0.00, 0.00, 0.01, 0.00, 0.00, 0.00, 0.00, 0.00, 0.00, 0.00,703.00,1071.00,118.00,69,0,1
20150826170821193,-124.309080,48.265015, 6.54, 9.90, 2.60,235.50,13,13, 0.00,10.00, 0.00, 0.00, 0.00, 0.01, 0.00, 0.00, 0.00, 0.00, 0.00, 0.00, 0.00,705.00,1091.00,116.00,78,0,1
20150826170821698,-124.309110,48.265005, 6.75, 9.60, 2.40,235.90,13,13, 0.00,10.00, 0.00, 0.00, 0.00, 0.00, 0.00, 0.00, 0.00, 0.00, 0.00, 0.00, 0.00,708.00,1108.00,114.00,86,0,1
20150826170821706,-124.309140,48.264990, 6.98, 9.30, 2.10,236.30,13,13, 0.00,10.00, 0.00, 0.00, 0.00, 0.00, 0.00, 0.00, 0.00, 0.00, 0.00, 0.00, 0.00,712.00,1127.00,113.00,95,0,1
20150826170821711,-124.309170,48.264980, 7.20, 9.00, 1.80,236.60,13,13, 0.00,10.00, 0.00, 0.00, 0.00, 0.00, 0.00, 0.00, 0.00, 0.00, 0.00, 0.00, 0.00,716.00,1145.00,112.00,104,0,1
20150826170822216,-124.309200,48.264965, 7.39, 8.70, 1.50,236.90,13,13, 0.00,10.00, 0.00, 0.00, 0.00, 0.00, 0.00, 0.00, 0.00, 0.00, 0.00, 0.00, 0.00,720.00,1161.00,110.00,112,0,1
20150826170822224,-124.309230,48.264950, 7.60, 8.50, 1.20,237.10,13,13, 0.00,10.00, 0.00, 0.00, 0.00, 0.00, 0.00, 0.00, 0.00, 0.00, 0.00, 0.00, 0.00,725.00,1178.00,108.00,121,0,1
20150826170822729,-124.309265,48.264940, 7.80, 8.20, 0.90,237.30,14,14, 0.00,10.00, 0.00, 0.00, 0.00, 0.00, 0.00, 0.00, 0.00, 0.00, 0.00, 0.00, 0.00,732.00,1195.00,107.00,130,0,1
20150826170822735,-124.309300,48.264930, 8.01, 8.00, 0.60,237.40,14,14, 0.00,10.00, 0.00, 0.00, 0.00, 0.00, 0.00, 0.00, 0.00, 0.00, 0.00, 0.00, 0.00,739.00,1210.00,106.00,139,0,1
20150826170822740,-124.309330,48.264915, 8.21, 7.70, 0.20,237.50,14,14, 0.00,10.00, 0.00, 0.00, 0.00, 0.00, 0.00, 0.00, 0.00, 0.00, 0.00, 0.00, 0.00,747.00,1226.00,105.00,148,0,1
20150826170822762,-124.309370,48.264900, 8.41, 7.50, 0.00,237.60,14,14, 0.00,10.00, 0.00, 0.00,-0.01, 0.00, 0.00, 0.00, 0.00, 0.00, 0.00, 0.00, 0.00,756.00,1241.00,104.00,157,0,1
20150826170822865,-124.309400,48.264885, 8.60, 7.30,-0.40,237.60,14,14, 0.00,10.00, 0.00, 0.00,-0.01, 0.00, 0.00, 0.00, 0.00, 0.00, 0.00, 0.00, 0.00,765.00,1255.00,103.00,166,0,1
20150826170822971,-124.309440,48.264870, 8.80, 7.20,-0.80,237.60,14,14, 0.00,10.00, 0.00, 0.00,-0.01, 0.00, 0.00, 0.00, 0.00, 0.00, 0.00, 0.00, 0.00,776.00,1268.00,103.00,175,0,1
20150826170823171,-124.309470,48.264855, 9.00, 7.10,-1.10,237.50,15,15, 0.00,10.00, 0.00, 0.00, 0.00, 0.01, 0.00, 0.00, 0.00, 0.00, 0.00, 0.00, 0.00,787.00,1280.00,103.00,184,0,1
20150826170823371,-124.309505,48.264845, 9.20, 7.10,-1.30,237.40,15,15, 0.00,10.00, 0.00, 0.00, 0.00, 0.01, 0.00, 0.00, 0.00, 0.00, 0.00, 0.00, 0.00,799.00,1291.00,107.00,193,0,1
20150826170823571,-124.309535,48.264830, 9.40, 7.30,-1.50,237.20,15,15, 0.00,10.00, 0.00, 0.00, 0.00, 0.01, 0.00, 0.00, 0.00, 0.00, 0.00, 0.00, 0.00,810.00,1301.00,113.00,202,0,1
20150826170823770,-124.309575,48.264815, 9.61, 7.60,-1.70,237.00,15,15, 0.00,10.00, 0.00, 0.00, 0.00, 0.02, 0.00, 0.00, 0.00, 0.00, 0.00, 0.00, 0.00,820.00,1307.00,122.00,210,0,1
20150826170823975,-124.309605,48.264800, 9.87, 8.00,-1.70,236.80,15,15, 0.00,10.00, 0.00, 0.00, 0.00, 0.02, 0.00, 0.00, 0.00, 0.00, 0.00, 0.00, 0.00,832.00,1313.00,134.00,219,0,1
20150826170824171,-124.309645,48.264785,10.13, 8.30,-1.70,236.50,15,15, 0.00,10.00, 0.00, 0.00, 0.00, 0.03, 0.00, 0.00, 0.00, 0.00, 0.00, 0.00, 0.00,842.00,1317.00,145.00,227,0,1
20150826170824371,-124.309680,48.264770,10.44, 8.70,-1.50,236.30,15,15, 0.00,10.00, 0.00, 0.00, 0.00, 0.03, 0.00, 0.00, 0.00, 0.00, 0.00, 0.00, 0.00,851.00,1319.00,158.00,236,0,1
20150826170824579,-124.309715,48.264755,10.74, 9.00,-1.40,236.10,15,15, 0.00,10.00, 0.00, 0.00, 0.00, 0.03, 0.00, 0.00, 0.00, 0.00, 0.00, 0.00, 0.00,858.00,1321.00,170.00,244,0,1
20150826170824770,-124.309750,48.264735,11.08, 9.40,-1.10,235.90,15,15, 0.00,10.00, 0.00, 0.00, 0.00, 0.03, 0.00, 0.00, 0.00, 0.00, 0.00, 0.00, 0.00,864.00,1321.00,182.00,252,0,1
20150826170824970,-124.309790,48.264720,11.43, 9.80,-0.90,235.80,15,15, 0.00,10.00, 0.00, 0.00, 0.00, 0.03, 0.00, 0.00, 0.00, 0.00, 0.00, 0.00, 0.00,869.00,1321.00,193.00,4,0,1
20150826170825170,-124.309820,48.264705,11.81,10.10,-0.60,235.70,15,15, 0.00,10.00, 0.00, 0.00, 0.00, 0.03, 0.00, 0.00, 0.00, 0.00, 0.00, 0.00, 0.00,872.00,1320.00,204.00,12,0,1
20150826170825371,-124.309860,48.264690,12.21,10.50,-0.30,235.70,15,15, 0.00,10.00, 0.00, 0.00,-0.01, 0.03, 0.00, 0.00, 0.00, 0.00, 0.00, 0.00, 0.00,874.00,1319.00,215.00,20,0,1
20150826170825580,-124.309890,48.264675,12.63,10.80,-0.10,235.70,15,15, 0.00,10.00, 0.00, 0.00,-0.01, 0.03, 0.00, 0.00, 0.00, 0.00, 0.00, 0.00, 0.00,874.00,1318.00,225.00,28,0,1
20150826170825779,-124.309925,48.264660,13.05,11.10, 0.10,235.70,15,15, 0.00,10.00, 0.00, 0.00,-0.01, 0.03, 0.00, 0.00, 0.00, 0.00, 0.00, 0.00, 0.00,873.00,1316.00,232.00,35,0,1
20150826170825970,-124.309965,48.264645,13.56,11.30, 0.40,235.70,15,15, 0.00,10.00, 0.00, 0.00,-0.01, 0.03, 0.00, 0.00, 0.00, 0.00, 0.00, 0.00, 0.00,871.00,1315.00,239.00,43,0,1
20150826170826170,-124.309995,48.264630,14.00,11.50, 0.70,235.80,15,15, 0.00,10.00, 0.00, 0.00,-0.02, 0.03, 0.00, 0.00, 0.00, 0.00, 0.00, 0.00, 0.00,868.00,1314.00,244.00,50,0,1
20150826170826370,-124.310035,48.264615,14.51,11.60, 1.00,235.90,15,15, 0.00,10.00, 0.00, 0.00,-0.02, 0.02, 0.00, 0.00, 0.00, 0.00, 0.00, 0.00, 0.00,864.00,1313.00,248.00,58,0,1
20150826170826570,-124.310070,48.264600,15.01,11.60, 1.10,236.00,15,15, 0.00,10.00, 0.00, 0.00,-0.03, 0.02, 0.00, 0.00, 0.00, 0.00, 0.00, 0.00, 0.00,860.00,1314.00,249.00,66,0,1
20150826170826770,-124.310110,48.264585,15.50,11.40, 1.10,236.20,15,15, 0.00,10.00, 0.00, 0.00,-0.03, 0.01, 0.00, 0.00, 0.00, 0.00, 0.00, 0.00, 0.00,856.00,1315.00,247.00,74,0,1
20150826170826970,-124.310140,48.264570,15.94,11.20, 1.00,236.40,15,15, 0.00,10.00, 0.00, 0.00,-0.03, 0.01, 0.00, 0.00, 0.00, 0.00, 0.00, 0.00, 0.00,853.00,1317.00,242.00,81,0,1
20150826170827170,-124.310180,48.264555,16.42,11.00, 0.90,236.60,15,15, 0.00,10.00, 0.00, 0.00,-0.03, 0.01, 0.00, 0.00, 0.00, 0.00, 0.00, 0.00, 0.00,850.00,1320.00,236.00,89,0,1
20150826170827370,-124.310215,48.264540,16.88,10.70, 0.70,236.70,15,15, 0.00,10.00, 0.00, 0.00,-0.03, 0.01, 0.00, 0.00, 0.00, 0.00, 0.00, 0.00, 0.00,848.00,1324.00,230.00,97,0,1
20150826170827570,-124.310245,48.264525,17.32,10.50, 0.50,236.80,15,15, 0.00,10.00, 0.00, 0.00,-0.03, 0.01, 0.00, 0.00, 0.00, 0.00, 0.00, 0.00, 0.00,847.00,1327.00,224.00,105,0,1
20150826170827770,-124.310285,48.264510,17.75,10.20, 0.30,236.90,15,15, 0.00,10.00, 0.00, 0.00,-0.03, 0.01, 0.00, 0.00, 0.00, 0.00, 0.00, 0.00, 0.00,847.00,1331.00,218.00,113,0,1
20150826170827969,-124.310325,48.264495,18.16,10.00, 0.10,236.90,15,15, 0.00,10.00, 0.00, 0.00,-0.03, 0.01, 0.00, 0.00, 0.00, 0.00, 0.00, 0.00, 0.00,848.00,1335.00,212.00,121,0,1
20150826170828169,-124.310355,48.264480,18.55, 9.70, 0.00,237.00,15,15, 0.00,10.00, 0.00, 0.00,-0.03, 0.01, 0.00, 0.00, 0.00, 0.00, 0.00, 0.00, 0.00,850.00,1339.00,206.00,129,0,1
20150826170828369,-124.310390,48.264465,18.97, 9.50,-0.30,237.00,16,16, 0.00,10.00, 0.00, 0.00,-0.03, 0.01, 0.00, 0.00, 0.00, 0.00, 0.00, 0.00, 0.00,853.00,1343.00,200.00,138,0,1
20150826170828569,-124.310430,48.264450,19.32, 9.30,-0.50,236.90,16,16, 0.00,10.00, 0.00, 0.00,-0.03, 0.01, 0.00, 0.00, 0.00, 0.00, 0.00, 0.00, 0.00,857.00,1347.00,195.00,146,0,1
20150826170828770,-124.310470,48.264430,19.72, 9.20,-0.80,236.90,16,16, 0.00,10.00, 0.00, 0.00,-0.02, 0.01, 0.00, 0.00, 0.00, 0.00, 0.00, 0.00, 0.00,861.00,1351.00,191.00,155,0,1
20150826170828969,-124.310500,48.264415,20.07, 9.10,-1.00,236.80,16,16, 0.00,10.00, 0.00, 0.00,-0.01, 0.03, 0.00, 0.00, 0.00, 0.00, 0.00, 0.00, 0.00,866.00,1354.00,190.00,163,0,1
20150826170829169,-124.310545,48.264400,20.45, 9.20,-0.80,236.70,16,16, 0.00,10.00, 0.00, 0.00,-0.01, 0.03, 0.00, 0.00, 0.00, 0.00, 0.00, 0.00, 0.00,870.00,1356.00,192.00,172,0,1
20150826170829369,-124.310575,48.264385,20.81, 9.40,-0.60,236.60,16,16, 0.00,10.00, 0.00, 0.00,-0.01, 0.03, 0.00, 0.00, 0.00, 0.00, 0.00, 0.00, 0.00,874.00,1358.00,195.00,180,0,1
20150826170829569,-124.310615,48.264365,21.21, 9.60,-0.40,236.40,16,16, 0.00,10.00, 0.00, 0.00,-0.01, 0.03, 0.00, 0.00, 0.00, 0.00, 0.00, 0.00, 0.00,877.00,1359.00,201.00,189,0,1
20150826170829769,-124.310650,48.264350,21.59, 9.80,-0.20,236.40,16,16, 0.00,10.00, 0.00, 0.00,-0.01, 0.03, 0.00, 0.00, 0.00, 0.00, 0.00, 0.00, 0.00,879.00,1359.00,207.00,197,0,1
20150826170829969,-124.310690,48.264335,22.00,10.00, 0.00,236.40,16,16, 0.00,10.00, 0.00, 0.00,-0.01, 0.03, 0.00, 0.00, 0.00, 0.00, 0.00, 0.00, 0.00,880.00,1359.00,213.00,205,0,1
20150826170830169,-124.310720,48.264320,22.40,10.20, 0.10,236.40,16,16, 0.00,10.00, 0.00, 0.00,-0.01, 0.03, 0.00, 0.00, 0.00, 0.00, 0.00, 0.00, 0.00,880.00,1359.00,220.00,213,0,1
20150826170830369,-124.310765,48.264305,22.88,10.50, 0.40,236.50,16,16, 0.00,10.00, 0.00, 0.00,-0.02, 0.03, 0.00, 0.00, 0.00, 0.00, 0.00, 0.00, 0.00,879.00,1359.00,228.00,222,0,1
20150826170830569,-124.310795,48.264290,23.32,10.70, 0.70,236.60,16,16, 0.00,10.00, 0.00, 0.00,-0.03, 0.03, 0.00, 0.00, 0.00, 0.00, 0.00, 0.00, 0.00,876.00,1359.00,234.00,230,0,1
20150826170830769,-124.310835,48.264275,23.77,10.70, 0.90,236.70,16,16, 0.00,10.00, 0.00, 0.00,-0.03, 0.03, 0.00, 0.00, 0.00, 0.00, 0.00, 0.00, 0.00,873.00,1359.00,237.00,238,0,1
20150826170830969,-124.310870,48.264255,24.23,10.60, 1.00,236.80,16,16, 0.00,10.00, 0.00, 0.00,-0.03, 0.01, 0.00, 0.00, 0.00, 0.00, 0.00, 0.00, 0.00,870.00,1360.00,237.00,246,0,1
20150826170831169,-124.310910,48.264240,24.68,10.50, 0.70,236.90,16,16, 0.00,10.00, 0.00, 0.00,-0.03, 0.01, 0.00, 0.00, 0.00, 0.00, 0.00, 0.00, 0.00,867.00,1362.00,234.00,254,0,1
20150826170831369,-124.310940,48.264230,25.12,10.40, 0.50,237.10,16,16, 0.00,10.00, 0.00, 0.00,-0.03, 0.01, 0.00, 0.00, 0.00, 0.00, 0.00, 0.00, 0.00,865.00,1364.00,231.00,6,0,1
20150826170831570,-124.310980,48.264210,25.60,10.20, 0.30,237.30,16,16, 0.00,10.00, 0.00, 0.00,-0.03, 0.01, 0.00, 0.00, 0.00, 0.00, 0.00, 0.00, 0.00,864.00,1367.00,226.00,15,0,1
20150826170831769,-124.311015,48.264195,26.02,10.00, 0.10,237.30,16,16, 0.00,10.00, 0.00, 0.00,-0.03, 0.01, 0.00, 0.00, 0.00, 0.00, 0.00, 0.00, 0.00,863.00,1369.00,222.00,23,0,1
20150826170831969,-124.311055,48.264180,26.43, 9.90,-0.10,237.30,16,16, 0.00,10.00, 0.00, 0.00,-0.03, 0.01, 0.00, 0.00, 0.00, 0.00, 0.00, 0.00, 0.00,864.00,1371.00,218.00,31,0,1
20150826170832169,-124.311095,48.264165,26.87, 9.70,-0.40,237.30,16,16, 0.00,10.00, 0.00, 0.00,-0.03, 0.01, 0.00, 0.00, 0.00, 0.00, 0.00, 0.00, 0.00,865.00,1374.00,214.00,40,0,1
20150826170832369,-124.311130,48.264150,27.26, 9.50,-0.60,237.20,16,16, 0.00,10.00, 0.00, 0.00,-0.02, 0.01, 0.00, 0.00, 0.00, 0.00, 0.00, 0.00, 0.00,868.00,1376.00,210.00,48,0,1
20150826170832569,-124.311170,48.264135,27.69, 9.40,-0.90,237.10,16,16, 0.00,10.00, 0.00, 0.00,-0.02, 0.01, 0.00, 0.00, 0.00, 0.00, 0.00, 0.00, 0.00,871.00,1377.00,207.00,57,0,1
20150826170832769,-124.311210,48.264120,28.11, 9.50,-0.90,237.10,16,16, 0.00,10.00, 0.00, 0.00,-0.02, 0.03, 0.00, 0.00, 0.00, 0.00, 0.00, 0.00, 0.00,875.00,1378.00,207.00,66,0,1
20150826170832969,-124.311240,48.264105,28.48, 9.60,-0.80,236.90,16,16, 0.00,10.00, 0.00, 0.00,-0.02, 0.03, 0.00, 0.00, 0.00, 0.00, 0.00, 0.00, 0.00,878.00,1378.00,210.00,74,0,1
