timestamp,lon,lat,alt,pitch,roll,yaw,dyaw,airspeed,groundspeed, yawcmd,pitchcmd,rollcmd,tyaw,tpitch,troll,throttle,rvx,rvy,rvz,accx,accy,accz,speN,speE,speD,gpsSta,nStNum,insSta
20150826172157376,-124.319805,48.266810, 0.00, 0.70, 0.10,100.70,0,0, 0.00, 0.00, 0.00, 0.00, 0.00, 0.00,-1.00, 0.00, 0.00, 0.00, 0.00, 0.00, 0.00, 0.00, 0.00, 0.00,48,0,1
20150826172157470,-124.319805,48.266810, 0.00, 0.70, 0.10,100.70,0,0, 0.00, 0.00, 0.00, 0.00, 0.00, 0.00,-1.00, 0.00, 0.00, 0.00, 0.00, 0.00, 0.00, 0.00, 0.00, 0.00,56,0,1
20150826172157669,-124.319805,48.266810, 0.00, 0.70, 0.10,100.70,0,0, 0.00, 0.00, 0.00, 0.00, 0.00, 0.00,-1.00, 0.00, 0.00, 0.00, 0.00, 0.00, 0.00, 0.00, 0.00, 0.00,63,0,1
20150826172157869,-124.319805,48.266810, 0.00, 0.70, 0.10,100.70,0,0, 0.00, 0.00, 0.00, 0.00, 0.00, 0.00,-1.00, 0.00, 0.00, 0.00, 0.00, 0.00, 0.00, 0.00, 0.00, 0.00,71,0,1
20150826172158070,-124.319805,48.266810, 0.00, 0.70, 0.10,100.70,0,0, 0.00, 0.00, 0.00, 0.00, 0.00, 0.00,-1.00, 0.00, 0.00, 0.00, 0.00, 0.00, 0.00, 0.00, 0.00, 0.00,79,0,1
20150826172158269,-124.319805,48.266810, 0.00, 0.70, 0.10,100.70,0,0, 0.00, 0.00, 0.00, 0.00, 0.00, 0.00,-1.00, 0.00, 0.00, 0.00, 0.00, 0.00, 0.00, 0.00, 0.00, 0.00,86,0,1
20150826172158469,-124.319805,48.266810, 0.00, 0.70, 0.10,100.70,0,0, 0.00, 0.00, 0.00, 0.00, 0.00, 0.00,-1.00, 0.00, 0.00, 0.00, 0.00, 0.00, 0.00, 0.00, 0.00, 0.00,93,0,1
20150826172158669,-124.319805,48.266810, 0.00, 0.70, 0.10,100.70,0,0, 0.00, 0.00, 0.00, 0.00, 0.00, 0.00,-1.00, 0.00, 0.00, 0.00, 0.00, 0.00, 0.00, 0.00, 0.00, 0.00,100,0,1
20150826172158869,-124.319805,48.266810, 0.00, 0.70, 0.10,100.70,0,0, 0.00, 0.00, 0.00, 0.00, 0.00, 0.00,-1.00, 0.00, 0.00, 0.00, 0.00, 0.00, 0.00, 0.00, 0.00, 0.00,108,0,1
20150826172159069,-124.319805,48.266810, 0.00, 0.70, 0.10,100.70,0,0, 0.00, 0.00, 0.00, 0.00, 0.00, 0.00,-1.00, 0.00, 0.00, 0.00, 0.00, 0.00, 0.00, 0.00, 0.00, 0.00,116,0,1
20150826172159269,-124.319805,48.266810, 0.00, 0.70, 0.10,100.70,0,0, 0.00, 0.00, 0.00, 0.00,-0.01, 0.00, 0.00, 0.00, 0.00, 0.00, 0.00, 0.00, 0.00, 0.00, 0.00, 0.00,124,0,1
20150826172159469,-124.319805,48.266810, 0.00, 0.70, 0.10,100.70,0,0, 0.00, 0.00, 0.00, 0.00,-0.02, 0.00, 0.00, 0.00, 0.00, 0.00, 0.00, 0.00, 0.00, 0.00, 0.00, 0.00,131,0,1
20150826172159669,-124.319805,48.266810, 0.00, 0.70, 0.00,100.70,0,0, 0.00, 0.00, 0.00, 0.00,-0.02, 0.00, 0.00, 0.00, 0.00, 0.00, 0.00, 0.00, 0.00, 0.00, 0.00, 0.00,139,0,1
20150826172159868,-124.319805,48.266810, 0.00, 0.90, 0.00,100.70,0,0, 0.00, 0.00, 0.00, 0.00,-0.03, 0.00, 0.00, 0.00, 0.00, 0.00, 0.00, 0.00, 0.00, 0.00, 0.00, 0.00,147,0,1
20150826172200068,-124.319805,48.266810, 0.00, 1.00, 0.00,100.70,0,0, 0.00, 0.00, 0.00, 0.00,-0.04, 0.00, 0.00, 0.00, 0.00, 0.00, 0.00, 0.00, 0.00, 0.00, 0.00, 0.00,154,0,1
20150826172200268,-124.319805,48.266810, 0.00, 1.20, 0.00,100.70,0,0, 0.00, 0.00, 0.00, 0.00,-0.04, 0.00, 0.00, 0.00, 0.00, 0.00, 0.00, 0.00, 0.00, 0.00, 0.00, 0.00,162,0,1
20150826172200468,-124.319805,48.266810, 0.00, 1.20, 0.00,100.70,0,0, 0.00, 0.00, 0.00, 0.00,-0.05, 0.00, 0.00, 0.00, 0.00, 0.00, 0.00, 0.00, 0.00, 0.00, 0.00, 0.00,169,0,1
20150826172200668,-124.319805,48.266810, 0.00, 1.20, 0.00,100.70,0,0, 0.00, 0.00, 0.00, 0.00,-0.06, 0.00, 0.00, 0.00, 0.00, 0.00, 0.00, 0.00, 0.00, 0.00, 0.00, 0.00,177,0,1
20150826172200868,-124.319805,48.266810, 0.00, 1.20, 0.00,100.70,0,0, 0.00, 0.00, 0.00, 0.00,-0.06, 0.00, 0.00, 0.00, 0.00, 0.00, 0.00, 0.00, 0.00, 0.00, 0.00, 0.00,184,0,1
20150826172201068,-124.319805,48.266810, 0.00, 1.20, 0.00,100.70,0,0, 0.00, 0.00, 0.00, 0.00,-0.07, 0.00, 0.00, 0.00, 0.00, 0.00, 0.00, 0.00, 0.00, 0.00, 0.00, 0.00,192,0,1
20150826172201269,-124.319805,48.266810, 0.00, 1.10, 0.00,100.70,0,0, 0.00, 0.00, 0.00, 0.00,-0.07, 0.00, 0.00, 0.00, 0.00, 0.00, 0.00, 0.00, 0.00, 0.00, 0.00, 0.00,200,0,1
20150826172201468,-124.319805,48.266810, 0.00, 1.10, 0.00,100.70,0,0, 0.00, 0.00, 0.00, 0.00,-0.08, 0.00, 0.00, 0.00, 0.00, 0.00, 0.00, 0.00, 0.00, 0.00, 0.00, 0.00,207,0,1
20150826172201668,-124.319805,48.266810, 0.00, 1.10, 0.00,100.70,0,0, 0.00, 0.00, 0.00, 0.00,-0.08, 0.00, 0.00, 0.00, 0.00, 0.00, 0.00, 0.00, 0.00, 0.00, 0.00, 0.00,215,0,1
20150826172201868,-124.319805,48.266810, 0.00, 1.00, 0.00,100.70,0,0, 0.00,10.00, 0.00, 0.00,-0.08, 0.00, 0.00, 0.00, 0.00, 0.00, 0.00, 0.00, 0.00, 0.00, 0.00, 0.00,222,0,1
20150826172202068,-124.319805,48.266810, 0.00, 1.00, 0.00,100.70,0,0, 0.00,10.00, 0.00, 0.00,-0.04, 0.00, 0.00, 0.00, 0.00, 0.00, 0.00, 0.00, 0.00, 0.00, 0.00, 0.00,230,0,1
20150826172202268,-124.319805,48.266810, 0.00, 1.20, 0.00,100.70,0,0, 0.00,10.00, 0.00, 0.00, 0.06, 0.00, 0.00, 0.00, 0.00, 0.00, 0.00, 0.00, 0.00, 0.00, 0.00, 0.00,237,0,1
20150826172202468,-124.319805,48.266810, 0.00, 1.90, 0.00,100.70,0,0, 0.00,10.00, 0.00, 0.00, 0.12, 0.00, 0.00, 0.00, 0.00, 0.00, 0.00, 0.00, 0.00, 0.00, 0.00, 0.00,245,0,1
20150826172202668,-124.319805,48.266810, 0.00, 2.50, 0.00,100.70,0,0, 0.00,10.00, 0.00, 0.00, 0.12, 0.00, 0.00, 0.00, 0.00, 0.00, 0.00, 0.00, 0.00, 0.00, 0.00, 0.00,252,0,1
20150826172202868,-124.319805,48.266810, 0.00, 2.70, 0.00,100.70,0,0, 0.00,10.00, 0.00, 0.00, 0.12, 0.00, 0.00, 0.00, 0.00, 0.00, 0.00, 0.00, 0.00, 0.00, 0.00, 0.00,4,0,1
20150826172203068,-124.319805,48.266810, 0.00, 2.60, 0.00,100.70,0,0, 0.00,10.00, 0.00, 0.00, 0.13, 0.00, 0.00, 0.00, 0.00, 0.00, 0.00, 0.00, 0.00, 0.00, 0.00, 0.00,11,0,1
20150826172203268,-124.319805,48.266810, 0.00, 2.60, 0.00,100.70,0,0, 0.00,10.00, 0.00, 0.00, 0.14, 0.00, 0.00, 0.00, 0.00, 0.00, 0.00, 0.00, 0.00, 0.00, 0.00, 0.00,18,0,1
20150826172203468,-124.319805,48.266810, 0.00, 2.60, 0.00,100.70,0,0, 0.00,10.00, 0.00, 0.00, 0.15, 0.00, 0.00, 0.00, 0.00, 0.00, 0.00, 0.00, 0.00, 0.00, 0.00, 0.00,26,0,1
20150826172203668,-124.319805,48.266810, 0.00, 2.70, 0.00,100.70,0,0, 0.00,10.00, 0.00, 0.00, 0.16, 0.00, 0.00, 0.00, 0.00, 0.00, 0.00, 0.00, 0.00, 0.00, 0.00, 0.00,33,0,1
20150826172203868,-124.319805,48.266810, 0.00, 2.80, 0.00,100.70,0,0, 0.00,10.00, 0.00, 0.00, 0.17, 0.00, 0.00, 0.00, 0.00, 0.00, 0.00, 0.00, 0.00, 0.00, 0.00, 0.00,41,0,1
20150826172204374,-124.319805,48.266810, 0.00, 2.80, 0.00,100.70,0,0, 0.00,10.00, 0.00, 0.00, 0.18, 0.00, 0.00, 0.00, 0.00, 0.00, 0.00, 0.00, 0.00, 0.00, 0.00, 0.00,48,0,1
20150826172204879,-124.319805,48.266810, 0.00, 2.90, 0.00,100.70,0,0, 0.00,10.00, 0.00, 0.00, 0.19, 0.00, 0.00, 0.00, 0.00, 0.00, 0.00, 0.00, 0.00, 0.00, 0.00, 0.00,56,0,1
20150826172204886,-124.319805,48.266810, 0.00, 3.00, 0.00,100.70,0,0, 0.00,10.00, 0.00, 0.00, 0.20, 0.00, 0.00, 0.00, 0.00, 0.00, 0.00, 0.00, 0.00, 0.00, 0.00, 0.00,64,0,1
20150826172205391,-124.319805,48.266810, 0.00, 3.00, 0.00,100.70,0,0, 0.00,10.00, 0.00, 0.00, 0.21, 0.00, 0.00, 0.00, 0.00, 0.00, 0.00, 0.00, 0.00, 0.00, 0.00, 0.00,71,0,1
20150826172205398,-124.319805,48.266810, 0.00, 3.10, 0.00,100.70,0,0, 0.00,10.00, 0.00, 0.00, 0.21, 0.00, 0.00, 0.00, 0.00, 0.00, 0.00, 0.00, 0.00, 0.00, 0.00, 0.00,79,0,1
20150826172205403,-124.319805,48.266810, 0.00, 3.10, 0.00,100.70,0,0, 0.00,10.00, 0.00, 0.00, 0.23, 0.00, 0.00, 0.00, 0.00, 0.00, 0.00, 0.00, 0.00, 0.00, 0.00, 0.00,86,0,1
20150826172205907,-124.319805,48.266810, 0.00, 3.20, 0.00,100.70,0,0, 0.00,10.00, 0.00, 0.00, 0.24, 0.00, 0.00, 0.00, 0.00, 0.00, 0.00, 0.00, 0.00, 0.00, 0.00, 0.00,94,0,1
20150826172205921,-124.319805,48.266810, 0.00, 3.30, 0.00,100.70,0,0, 0.00,10.00, 0.00, 0.00, 0.24, 0.00, 0.00, 0.00, 0.00, 0.00, 0.00, 0.00, 0.00, 0.00, 0.00, 0.00,101,0,1
20150826172206425,-124.319805,48.266810, 0.00, 3.30, 0.00,100.70,0,0, 0.00,10.00, 0.00, 0.00, 0.26, 0.00, 0.00, 0.00, 0.00, 0.00, 0.00, 0.00, 0.00, 0.00, 0.00, 0.00,109,0,1
20150826172206432,-124.319805,48.266810, 0.00, 3.40, 0.00,100.70,0,0, 0.00,10.00, 0.00, 0.00, 0.27, 0.00, 0.00, 0.00, 0.00, 0.00, 0.00, 0.00, 0.00, 0.00, 0.00, 0.00,116,0,1
20150826172206443,-124.319805,48.266810, 0.00, 3.50, 0.00,100.70,0,0, 0.00,10.00, 0.00, 0.00, 0.28, 0.00, 0.00, 0.00, 0.00, 0.00, 0.00, 0.00, 0.00, 0.00, 0.00, 0.00,124,0,1
20150826172206452,-124.319805,48.266810, 0.00, 3.60, 0.00,100.70,0,0, 0.00,10.00, 0.00, 0.00, 0.29, 0.00, 0.00, 0.00, 0.00, 0.00, 0.00, 0.00, 0.00, 0.00, 0.00, 0.00,132,0,1
20150826172206472,-124.319805,48.266810, 0.00, 3.60, 0.00,100.70,0,0, 0.00,10.00, 0.00, 0.00, 0.30, 0.00, 0.00, 0.00, 0.00, 0.00, 0.00, 0.00, 0.00, 0.00, 0.00, 0.00,139,0,1
20150826172206667,-124.319805,48.266810, 0.00, 3.70, 0.00,100.70,0,0, 0.00,10.00, 0.00, 0.00, 0.31, 0.00, 0.00, 0.00, 0.00, 0.00, 0.00, 0.00, 0.00, 0.00, 0.00, 0.00,146,0,1
20150826172206867,-124.319805,48.266810, 0.00, 4.00, 0.00,100.70,0,0, 0.00,10.00, 0.00, 0.00, 0.31, 0.00, 0.00, 0.00, 0.00, 0.00, 0.00, 0.00, 0.00, 0.00, 0.00, 0.00,154,0,1
20150826172207067,-124.319805,48.266810, 0.00, 4.30, 0.00,100.70,0,0, 0.00,10.00, 0.00, 0.00, 0.32, 0.00, 0.00, 0.00, 0.00, 0.00, 0.00, 0.00, 0.00, 0.00, 0.00, 0.00,161,0,1
20150826172207273,-124.319805,48.266810, 0.00, 4.80, 0.00,100.70,0,0, 0.00,10.00, 0.00, 0.00, 0.32, 0.00, 0.00, 0.00, 0.00, 0.00, 0.00, 0.00, 0.00, 0.00, 0.00, 0.00,168,0,1
20150826172207466,-124.319805,48.266810, 0.00, 5.50, 0.00,100.70,0,0, 0.00,10.00, 0.00, 0.00, 0.31, 0.00, 0.00, 0.00, 0.00, 0.00, 0.00, 0.00, 0.00, 0.00, 0.00, 0.00,175,0,1
20150826172207666,-124.319805,48.266810, 0.00, 6.40, 0.00,100.70,0,0, 0.00,10.00, 0.00, 0.00, 0.29, 0.00, 0.00, 0.00, 0.00, 0.00, 0.00, 0.00, 0.00, 0.00, 0.00, 0.00,182,0,1
20150826172207866,-124.319805,48.266810, 0.00, 7.40, 0.00,100.70,0,0, 0.00,10.00, 0.00, 0.00, 0.26, 0.00, 0.00, 0.00, 0.00, 0.00, 0.00, 0.00, 0.00, 0.00, 0.00, 0.00,190,0,1
20150826172208066,-124.319805,48.266810, 0.00, 8.50, 0.00,100.70,0,0, 0.00,10.00, 0.00, 0.00, 0.23, 0.00, 0.00, 0.00, 0.00, 0.00, 0.00, 0.00, 0.00, 0.00, 0.00, 0.00,197,0,1
20150826172208266,-124.319805,48.266810, 0.00, 9.60, 0.00,100.70,0,0, 0.00,10.00, 0.00, 0.00, 0.21, 0.00, 0.00, 0.00,10.00, 0.00, 0.00,10.00, 0.00, 0.00, 0.00, 0.00,204,0,1
20150826172208466,-124.319805,48.266810, 0.01,11.00, 0.00,100.70,0,0, 0.00,10.00, 0.00, 0.00, 0.17, 0.00, 0.00, 0.00,10.00, 0.00, 0.00,10.00, 0.00, 0.00, 0.00, 0.00,212,0,1
20150826172208666,-124.319805,48.266810, 0.01,12.10, 0.00,100.70,0,0, 0.00,10.00, 0.00, 0.00, 0.14, 0.00, 0.00, 0.00, 0.00, 0.00, 0.00, 0.00, 0.00, 0.00, 0.00, 2.00,219,0,1
20150826172208866,-124.319805,48.266810, 0.01,12.10, 0.00,100.70,0,0, 0.00,10.00, 0.00, 0.00, 0.14, 0.00, 0.00, 0.00, 0.00, 0.00, 0.00, 0.00, 0.00, 0.00, 0.00, 0.00,227,0,1
20150826172209066,-124.319805,48.266810, 0.01,12.00, 0.00,100.70,0,0, 0.00,10.00, 0.00, 0.00, 0.15, 0.00, 0.00, 0.00, 0.00, 0.00, 0.00, 0.00, 0.00, 0.00, 0.00, 0.00,234,0,1
20150826172209266,-124.319805,48.266810, 0.01,12.00, 0.00,100.70,0,0, 0.00,10.00, 0.00, 0.00, 0.15, 0.00, 0.00, 0.00, 0.00, 0.00, 0.00, 0.00, 0.00, 0.00, 0.00, 0.00,241,0,1
20150826172209466,-124.319805,48.266810, 0.01,12.00, 0.00,100.70,0,0, 0.00,10.00, 0.00, 0.00, 0.15, 0.00, 0.00, 0.00, 0.00, 0.00, 0.00, 0.00, 0.00, 0.00, 0.00, 0.00,249,0,1
20150826172209666,-124.319805,48.266810, 0.01,12.00, 0.00,100.70,0,0, 0.00,10.00, 0.00, 0.00, 0.15, 0.00, 0.00, 0.00, 0.00, 0.00, 0.00, 0.00, 0.00, 0.00, 0.00, 0.00,0,0,1
20150826172209867,-124.319805,48.266810, 0.01,12.00, 0.00,100.70,0,0, 0.00,10.00, 0.00, 0.00, 0.15, 0.00, 0.00, 0.00, 0.00, 0.00, 0.00, 0.00, 0.00, 0.00, 0.00, 0.00,7,0,1
20150826172210067,-124.319805,48.266810, 0.01,12.00, 0.00,100.70,0,0, 0.00,10.00, 0.00, 0.00, 0.15, 0.00, 0.00, 0.00, 0.00, 0.00, 0.00, 0.00, 0.00, 0.00, 0.00, 0.00,15,0,1
20150826172210266,-124.319805,48.266810, 0.01,12.00, 0.00,100.70,0,0, 0.00,10.00, 0.00, 0.00, 0.15, 0.00, 0.00, 0.00, 0.00, 0.00, 0.00, 0.00, 0.00, 0.00, 0.00, 0.00,22,0,1
20150826172210466,-124.319805,48.266810, 0.01,12.00, 0.00,100.70,0,0, 0.00,10.00, 0.00, 0.00, 0.15, 0.00, 0.00, 0.00, 0.00, 0.00, 0.00, 0.00, 0.00, 0.00, 0.00, 0.00,29,0,1
20150826172210666,-124.319805,48.266810, 0.01,12.00, 0.00,100.70,0,0, 0.00,10.00, 0.00, 0.00, 0.15, 0.00, 0.00, 0.00, 0.00, 0.00, 0.00, 0.00, 0.00, 0.00, 0.00, 0.00,37,0,1
20150826172210866,-124.319805,48.266810, 0.01,12.00, 0.00,100.70,0,0, 0.00,10.00, 0.00, 0.00, 0.15, 0.00, 0.00, 0.00, 0.00, 0.00, 0.00, 0.00, 0.00, 0.00, 0.00, 0.00,44,0,1
20150826172211066,-124.319805,48.266810, 0.01,12.00, 0.00,100.70,0,0, 0.00,10.00, 0.00, 0.00, 0.15, 0.00, 0.00, 0.00, 0.00, 0.00, 0.00, 0.00, 0.00, 0.00, 0.00, 0.00,52,0,1
20150826172211266,-124.319805,48.266810, 0.01,12.00, 0.00,100.70,0,0, 0.00,10.00, 0.00, 0.00, 0.15, 0.00, 0.00, 0.00, 0.00, 0.00, 0.00, 0.00, 0.00, 0.00, 0.00, 0.00,59,0,1
20150826172211466,-124.319805,48.266810, 0.01,12.00, 0.00,100.70,0,0, 0.00,10.00, 0.00, 0.00, 0.15, 0.00, 0.00, 0.00, 0.00, 0.00, 0.00, 0.00, 0.00, 0.00, 0.00, 0.00,66,0,1
20150826172211666,-124.319805,48.266810, 0.01,12.00, 0.00,100.70,0,0, 0.00,10.00, 0.00, 0.00, 0.15, 0.00, 0.00, 0.00, 0.00, 0.00, 0.00, 0.00, 0.00, 0.00, 0.00, 0.00,74,0,1
20150826172211865,-124.319805,48.266810, 0.01,12.00, 0.00,100.70,0,0, 0.00,10.00, 0.00, 0.00, 0.15, 0.00, 0.00, 0.00, 0.00, 0.00, 0.00, 0.00, 0.00, 0.00, 0.00, 0.00,81,0,1
20150826172212065,-124.319805,48.266810, 0.01,12.00, 0.00,100.70,0,0, 0.00,10.00, 0.00, 0.00, 0.15, 0.00, 0.00, 0.00, 0.00, 0.00, 0.00, 0.00, 0.00, 0.00, 0.00, 0.00,88,0,1
20150826172212265,-124.319805,48.266810, 0.01,12.00, 0.00,100.70,0,0, 0.00,10.00, 0.00, 0.00, 0.15, 0.00, 0.00, 0.00, 0.00, 0.00, 0.00, 0.00, 0.00, 0.00, 0.00, 0.00,96,0,1
20150826172212466,-124.319805,48.266810, 0.01,12.00, 0.00,100.70,0,0, 0.00,10.00, 0.00, 0.00, 0.15, 0.00, 0.00, 0.00, 0.00, 0.00, 0.00, 0.00, 0.00, 0.00, 0.00, 0.00,103,0,1
20150826172212666,-124.319805,48.266810, 0.01,12.00, 0.00,100.70,0,0, 0.00,10.00, 0.00, 0.00, 0.15, 0.00, 0.00, 0.00, 0.00, 0.00, 0.00, 0.00, 0.00, 0.00, 0.00, 0.00,111,0,1
20150826172212866,-124.319805,48.266810, 0.01,12.00, 0.00,100.70,0,0, 0.00,10.00, 0.00, 0.00, 0.15, 0.00, 0.00, 0.00, 0.00, 0.00, 0.00, 0.00, 0.00, 0.00, 0.00, 0.00,118,0,1
20150826172213065,-124.319805,48.266810, 0.01,12.00, 0.00,100.70,0,0, 0.00,10.00, 0.00, 0.00, 0.15, 0.00, 0.00, 0.00, 0.00, 0.00, 0.00, 0.00, 0.00, 0.00, 0.00, 0.00,125,0,1
20150826172213267,-124.319805,48.266810, 0.01,12.00, 0.00,100.70,0,0, 0.00,10.00, 0.00, 0.00, 0.14, 0.00, 0.00, 0.00, 0.00, 0.00, 0.00, 0.00, 0.00, 0.00, 0.00, 0.00,132,0,1
20150826172213466,-124.319805,48.266810, 0.01,12.00, 0.00,100.70,0,0, 0.00,10.00, 0.00, 0.00, 0.13, 0.00, 0.00, 0.00, 0.00, 0.00, 0.00, 0.00, 0.00, 0.00, 0.00, 0.00,140,0,1
20150826172213666,-124.319805,48.266810, 0.01,12.00, 0.00,100.70,0,0, 0.00,10.00, 0.00, 0.00, 0.12, 0.00, 0.00, 0.00, 0.00, 0.00, 0.00, 0.00, 0.00, 0.00, 0.00, 0.00,147,0,1
20150826172213866,-124.319805,48.266810, 0.01,12.00, 0.00,100.70,0,0, 0.00,10.00, 0.00, 0.00, 0.10, 0.00, 0.00, 0.00, 0.00, 0.00, 0.00, 0.00, 0.00, 0.00, 0.00, 0.00,154,0,1
20150826172214066,-124.319805,48.266810, 0.01,12.00, 0.00,100.70,0,0, 0.00,10.00, 0.00, 0.00, 0.09, 0.00, 0.00, 0.00, 0.00, 0.00, 0.00, 0.00, 0.00, 0.00, 0.00, 0.00,162,0,1
20150826172214266,-124.319805,48.266810, 0.01,12.00, 0.00,100.70,0,0, 0.00,10.00, 0.00, 0.00, 0.08, 0.00, 0.00, 0.00, 0.00, 0.00, 0.00, 0.00, 0.00, 0.00, 0.00, 0.00,169,0,1
20150826172214466,-124.319805,48.266810, 0.01,11.90, 0.00,100.70,0,0,185.70, 1.40,20.00, 0.00, 0.07, 0.00, 1.00, 0.00, 0.00, 0.00, 0.00, 0.00, 0.00, 0.00, 0.00, 0.00,177,0,1
20150826172214666,-124.319805,48.266810, 0.01,11.90, 0.00,100.70,0,0,185.70, 6.60,20.00, 0.00, 0.01, 0.17, 1.00, 0.00, 0.00, 0.00, 0.00, 0.00, 0.00, 0.00, 0.00, 0.00,184,0,1
20150826172214870,-124.319805,48.266810, 0.01,11.60, 0.00,100.60,0,0,185.70,15.00,20.00, 0.00,-0.01, 0.44, 1.00, 0.00, 0.00, 0.00, 0.00, 0.00, 0.00, 5.00,14.00, 0.00,191,0,1
20150826172215066,-124.319805,48.266810, 0.00, 8.10, 0.60,98.60,0,0,185.70,15.00,20.00, 0.02, 0.10, 0.49, 1.00,10.00,-50.00,-20.00,10.00,-50.00,-20.00,17.00,55.00, 3.00,199,0,1
20150826172215266,-124.319805,48.266810, 0.00, 0.60, 0.80,95.00,1,1,185.70,15.00,20.00, 0.03, 0.38, 0.50, 1.00, 0.00,-60.00,-30.00, 0.00,-60.00,-30.00,22.00,99.00, 1.00,206,0,1
20150826172215466,-124.319800,48.266810, 0.00,-2.30, 1.00,89.50,1,1,185.80,15.00,20.00, 0.04, 0.50, 0.51, 1.00, 0.00, 0.00,-50.00, 0.00, 0.00,-50.00,22.00,174.00, 0.00,213,0,1
20150826172215667,-124.319800,48.266810, 0.00, 1.00, 1.10,83.10,2,2,185.80,15.00,20.00, 0.04, 0.42, 0.52, 1.00, 0.00,30.00,-60.00, 0.00,30.00,-60.00, 8.00,228.00, 0.00,219,0,1
20150826172215866,-124.319790,48.266810, 0.00, 4.40, 0.80,76.10,2,2,185.80,15.00,20.00, 0.03, 0.34, 0.54, 1.00, 0.00,20.00,-60.00, 0.00,20.00,-60.00,11.00,267.00, 1.00,225,0,1
20150826172216066,-124.319785,48.266810, 0.00, 5.90, 0.90,69.60,3,3,185.80,15.00,20.00, 0.03, 0.31, 0.55, 1.00, 0.00, 0.00,-50.00, 0.00, 0.00,-50.00,42.00,308.00, 0.00,231,0,1
20150826172216266,-124.319775,48.266810, 0.00, 6.30, 1.00,64.30,3,3,185.90,15.00,20.00, 0.03, 0.31, 0.56, 1.00, 0.00, 0.00,-40.00, 0.00, 0.00,-40.00,82.00,346.00, 1.00,237,0,1
20150826172216466,-124.319760,48.266815, 0.00, 6.20, 1.20,60.40,3,3,185.90,15.00,20.00, 0.04, 0.33, 0.57, 1.00, 0.00, 0.00,-20.00, 0.00, 0.00,-20.00,132.00,383.00, 2.00,244,0,1
20150826172216666,-124.319755,48.266815, 0.00, 6.10, 1.20,59.10,4,4,185.90,15.00,20.00, 0.04, 0.34, 0.58, 1.00, 0.00, 0.00, 0.00, 0.00, 0.00, 0.00,171.00,413.00, 1.00,250,0,1
20150826172216881,-124.319740,48.266815, 0.00, 6.60, 1.30,59.30,4,4,185.90,15.00,20.00, 0.04, 0.34, 0.59, 1.00, 0.00, 0.00, 0.00, 0.00, 0.00, 0.00,207.00,447.00, 0.00,0,0,1
20150826172217066,-124.319730,48.266825, 0.00, 7.80, 1.40,60.70,5,5,185.90,15.00,20.00, 0.05, 0.32, 0.60, 0.98, 0.00,10.00,10.00, 0.00,10.00,10.00,238.00,492.00, 1.00,6,0,1
20150826172217266,-124.319715,48.266830, 0.01,10.50, 1.60,62.90,6,6,185.90,15.00,20.00, 0.05, 0.26, 0.61, 0.94, 0.00,30.00,10.00, 0.00,30.00,10.00,266.00,551.00, 3.00,12,0,1
20150826172217470,-124.319700,48.266830, 0.04,15.00, 4.00,65.20,6,6,185.90,15.00,20.00, 0.14, 0.17, 0.57, 0.91,40.00,30.00,10.00,40.00,30.00,10.00,290.00,629.00,24.00,19,0,1
20150826172217666,-124.319675,48.266840, 0.18,19.30,11.30,67.00,7,7,185.90,15.00,20.00, 0.42, 0.06, 0.40, 0.87,50.00,30.00, 0.00,50.00,30.00, 0.00,287.00,700.00,93.00,27,0,1
20150826172217866,-124.319655,48.266845, 0.47,22.40,17.80,69.90,7,7,185.90,15.00,20.00, 0.66, 0.00, 0.25, 0.85,30.00,20.00,20.00,30.00,20.00,20.00,253.00,747.00,171.00,35,0,1
20150826172218065,-124.319640,48.266845, 0.90,23.00,23.70,76.00,8,8,185.90,15.00,20.00, 0.74, 0.00, 0.10, 0.83,20.00,10.00,50.00,20.00,10.00,50.00,196.00,784.00,230.00,43,0,1
20150826172218270,-124.319615,48.266850, 1.34,21.60,28.90,83.40,8,8,186.00,15.00,20.00, 0.74, 0.03,-0.02, 0.81,10.00,10.00,70.00,10.00,10.00,70.00,124.00,820.00,257.00,50,0,1
20150826172218465,-124.319595,48.266850, 1.89,18.80,34.10,93.50,8,8,186.10,15.00,20.00, 0.74, 0.10,-0.15, 0.80,10.00,20.00,80.00,10.00,20.00,80.00,10.00,862.00,262.00,58,0,1
20150826172218665,-124.319570,48.266850, 2.39,16.50,37.70,103.20,9,9,186.20,15.00,20.00, 0.74, 0.16,-0.24, 0.78, 0.00,30.00,70.00, 0.00,30.00,70.00,125.00,888.00,253.00,65,0,1
20150826172218865,-124.319540,48.266845, 2.96,14.90,40.60,114.80,9,9,186.40,15.00,20.00, 0.75, 0.18,-0.31, 0.76, 0.00,50.00,60.00, 0.00,50.00,60.00,321.00,885.00,242.00,74,0,1
20150826172219065,-124.319515,48.266835, 3.43,14.70,41.90,124.60,10,10,186.60,15.00,20.00, 0.75, 0.18,-0.34, 0.74,-10.00,50.00,60.00,-10.00,50.00,60.00,503.00,843.00,239.00,82,0,1
20150826172219265,-124.319500,48.266830, 3.91,14.90,42.40,134.20,10,10,186.80,15.00,20.00, 0.74, 0.18,-0.36, 0.74,-10.00,50.00,50.00,-10.00,50.00,50.00,684.00,763.00,243.00,90,0,1
20150826172219465,-124.319480,48.266815, 4.34,15.30,42.50,142.70,10,10,187.10,15.00,20.00, 0.75, 0.18,-0.36, 0.73,-20.00,50.00,50.00,-20.00,50.00,50.00,834.00,663.00,249.00,97,0,1
20150826172219665,-124.319465,48.266795, 4.83,15.70,42.40,151.90,11,11,187.40,15.00,20.00, 0.75, 0.18,-0.36, 0.72,-20.00,50.00,50.00,-20.00,50.00,50.00,977.00,530.00,258.00,104,0,1
20150826172219865,-124.319455,48.266780, 5.41,16.00,42.20,162.50,11,11,187.70,15.00,16.10, 0.63, 0.17,-0.38, 0.71,-20.00,50.00,50.00,-20.00,50.00,50.00,1108.00,351.00,269.00,112,0,1
20150826172220065,-124.319450,48.266755, 5.91,16.30,41.50,171.20,12,12,188.10,15.00,10.00, 0.42, 0.16,-0.53, 0.70,-30.00,50.00,50.00,-30.00,50.00,50.00,1191.00,182.00,277.00,119,0,1
20150826172220265,-124.319440,48.266735, 6.44,17.30,38.50,179.20,12,12,188.40,15.00, 5.40, 0.23, 0.14,-0.60, 0.69,-50.00,50.00,40.00,-50.00,50.00,40.00,1245.00, 6.00,286.00,126,0,1
20150826172220465,-124.319450,48.266715, 7.06,19.40,33.10,186.30,13,13,188.70,15.00, 1.40, 0.06, 0.08,-0.58, 0.69,-60.00,40.00,20.00,-60.00,40.00,20.00,1269.00,179.00,308.00,134,0,1
20150826172220665,-124.319455,48.266685, 7.73,22.20,26.70,190.90,13,13,189.00,15.00,-1.00, 0.00, 0.01,-0.47, 0.69,-60.00,30.00,10.00,-60.00,30.00,10.00,1262.00,336.00,345.00,142,0,1
20150826172220869,-124.319465,48.266670, 8.39,24.30,20.90,192.90,13,13,189.30,15.00,-2.10, 0.00,-0.04,-0.37, 0.69,-60.00,10.00, 0.00,-60.00,10.00, 0.00,1242.00,436.00,383.00,149,0,1
20150826172221065,-124.319480,48.266645, 9.22,25.30,14.80,193.80,13,13,189.60,15.00,-2.50, 0.00,-0.08,-0.23, 0.70,-40.00, 0.00, 0.00,-40.00, 0.00, 0.00,1220.00,510.00,419.00,157,0,1
20150826172221265,-124.319495,48.266620,10.08,25.00,10.40,194.20,13,13,189.90,15.00,-2.60, 0.00,-0.08,-0.12, 0.70,-30.00, 0.00, 0.00,-30.00, 0.00, 0.00,1211.00,554.00,434.00,165,0,1
20150826172221465,-124.319510,48.266600,10.96,24.10, 7.60,194.70,13,13,190.20,15.00,-2.70, 0.00,-0.07,-0.05, 0.71,-20.00, 0.00, 0.00,-20.00, 0.00, 0.00,1215.00,581.00,432.00,173,0,1
20150826172221665,-124.319525,48.266580,11.73,23.20, 6.10,195.40,13,13,190.40,15.00,-3.10, 0.00,-0.06,-0.04, 0.71,-10.00, 0.00, 0.00,-10.00, 0.00, 0.00,1225.00,600.00,423.00,180,0,1
20150826172221864,-124.319540,48.266555,12.59,22.50, 5.00,196.30,14,14,190.70,15.00,-3.30, 0.00,-0.05,-0.03, 0.71,-10.00, 0.00, 0.00,-10.00, 0.00, 0.00,1239.00,619.00,414.00,188,0,1
20150826172222064,-124.319555,48.266535,13.35,22.10, 4.10,197.10,14,14,191.00,15.00,-3.60, 0.00,-0.05,-0.03, 0.71,-10.00, 0.00, 0.00,-10.00, 0.00, 0.00,1252.00,635.00,410.00,195,0,1
20150826172222269,-124.319580,48.266515,14.13,21.80, 3.20,197.70,14,14,191.20,15.00,-3.80, 0.00,-0.05,-0.03, 0.71,-10.00, 0.00, 0.00,-10.00, 0.00, 0.00,1263.00,650.00,410.00,202,0,1
20150826172222464,-124.319595,48.266490,15.01,21.50, 2.20,198.20,14,14,191.60,15.00,-3.90, 0.00,-0.06,-0.02, 0.72, 0.00, 0.00, 0.00, 0.00, 0.00, 0.00,1277.00,665.00,412.00,210,0,1
20150826172222665,-124.319610,48.266465,15.82,21.10, 1.20,198.40,14,14,191.90,15.00,-3.80, 0.00,-0.06,-0.01, 0.72, 0.00, 0.00, 0.00, 0.00, 0.00, 0.00,1290.00,675.00,414.00,217,0,1
20150826172222865,-124.319630,48.266445,16.61,20.70, 0.30,198.30,15,15,192.20,15.00,-3.60, 0.00,-0.06, 0.00, 0.72, 0.00, 0.00, 0.00, 0.00, 0.00, 0.00,1305.00,683.00,414.00,224,0,1
20150826172223064,-124.319645,48.266420,17.39,20.30,-0.30,198.10,15,15,192.50,15.00,-3.30,-0.01,-0.06, 0.00, 0.72, 0.00, 0.00, 0.00, 0.00, 0.00, 0.00,1322.00,687.00,414.00,231,0,1
20150826172223264,-124.319655,48.266415,17.62,20.20,-0.50,198.10,15,15,192.50,15.00,-3.30,-0.02,-0.07, 0.00, 0.73, 0.00, 0.00, 0.00, 0.00, 0.00, 0.00,1327.00,688.00,413.00,233,0,1
20150826172223464,-124.319675,48.266390,18.50,19.60,-1.50,197.60,15,15,192.90,15.00,-2.70,-0.06,-0.07, 0.01, 0.73, 0.00, 0.00, 0.00, 0.00, 0.00, 0.00,1348.00,691.00,411.00,240,0,1
20150826172223668,-124.319690,48.266365,19.19,19.10,-2.10,197.10,15,15,193.20,15.00,-2.30,-0.08,-0.07, 0.02, 0.73, 0.00, 0.00, 0.00, 0.00, 0.00, 0.00,1367.00,691.00,407.00,246,0,1
20150826172223864,-124.319705,48.266340,20.05,18.50,-2.80,196.00,15,15,193.60,15.00,-1.40,-0.05,-0.07, 0.04, 0.73, 0.00, 0.00, 0.00, 0.00, 0.00, 0.00,1393.00,687.00,401.00,253,0,1
20150826172224065,-124.319730,48.266315,20.92,18.00,-3.10,195.10,15,15,194.00,15.00,-0.70,-0.02,-0.07, 0.06, 0.73, 0.00, 0.00, 0.00, 0.00, 0.00, 0.00,1420.00,678.00,397.00,5,0,1
20150826172224264,-124.319745,48.266285,21.65,17.60,-3.10,194.90,16,16,194.40,15.00,-0.70,-0.01,-0.07, 0.04, 0.73, 0.00, 0.00, 0.00, 0.00, 0.00, 0.00,1444.00,668.00,394.00,12,0,1
20150826172224464,-124.319770,48.266260,22.45,17.20,-3.00,195.00,16,16,194.70,15.00,-0.70, 0.00,-0.07, 0.02, 0.73, 0.00, 0.00, 0.00, 0.00, 0.00, 0.00,1469.00,660.00,392.00,20,0,1
20150826172224664,-124.319785,48.266235,23.22,16.80,-3.10,195.20,16,16,195.10,15.00,-0.70, 0.00,-0.07, 0.01, 0.73, 0.00, 0.00, 0.00, 0.00, 0.00, 0.00,1494.00,655.00,390.00,28,0,1
20150826172224864,-124.319800,48.266205,23.98,16.40,-3.30,195.20,16,16,195.60,15.00,-0.70, 0.00,-0.07, 0.00, 0.72, 0.00, 0.00, 0.00, 0.00, 0.00, 0.00,1519.00,652.00,388.00,36,0,1
20150826172225064,-124.319820,48.266180,24.74,16.00,-3.80,194.90,17,17,195.90,15.00, 0.40, 0.00,-0.08, 0.01, 0.72, 0.00, 0.00, 0.00, 0.00, 0.00, 0.00,1544.00,649.00,385.00,44,0,1
20150826172225267,-124.319835,48.266150,25.50,15.50,-4.00,194.30,17,17,196.40,15.00, 1.10, 0.00,-0.07, 0.04, 0.72, 0.00, 0.00, 0.00, 0.00, 0.00, 0.00,1570.00,643.00,381.00,52,0,1
20150826172225470,-124.319850,48.266125,26.17,15.10,-4.00,193.60,17,17,196.80,15.00, 1.80, 0.00,-0.08, 0.04, 0.72, 0.00, 0.00, 0.00, 0.00, 0.00, 0.00,1594.00,637.00,377.00,59,0,1
20150826172225664,-124.319875,48.266090,26.97,14.60,-3.90,192.90,17,17,197.30,15.00, 2.60, 0.00,-0.08, 0.05, 0.71, 0.00, 0.00, 0.00, 0.00, 0.00, 0.00,1623.00,627.00,373.00,67,0,1
20150826172225863,-124.319890,48.266065,27.63,14.30,-3.70,192.50,17,17,197.80,15.00, 3.10, 0.00,-0.08, 0.04, 0.71, 0.00, 0.00, 0.00, 0.00, 0.00, 0.00,1647.00,619.00,369.00,74,0,1
20150826172226068,-124.319905,48.266030,28.45,13.90,-3.50,192.20,18,18,198.30,15.00, 3.60, 0.00,-0.08, 0.03, 0.71, 0.00, 0.00, 0.00, 0.00, 0.00, 0.00,1677.00,610.00,365.00,83,0,1
20150826172226264,-124.319920,48.266005,29.14,13.50,-3.40,192.00,18,18,198.80,15.00, 4.00, 0.00,-0.08, 0.03, 0.70, 0.00, 0.00, 0.00, 0.00, 0.00, 0.00,1702.00,603.00,362.00,91,0,1
20150826172226463,-124.319935,48.265975,29.82,13.20,-3.30,191.70,18,18,199.30,15.00, 4.50, 0.00,-0.08, 0.03, 0.70, 0.00, 0.00, 0.00, 0.00, 0.00, 0.00,1726.00,597.00,358.00,99,0,1
20150826172226663,-124.319950,48.265945,30.49,12.80,-3.20,191.50,18,18,199.80,15.00, 4.90, 0.00,-0.08, 0.02, 0.70, 0.00, 0.00, 0.00, 0.00, 0.00, 0.00,1751.00,592.00,354.00,107,0,1
20150826172226863,-124.319965,48.265910,31.16,12.50,-3.20,191.10,18,18,200.40,15.00, 5.50, 0.00,-0.08, 0.03, 0.69, 0.00, 0.00, 0.00, 0.00, 0.00, 0.00,1775.00,586.00,350.00,115,0,1
20150826172227063,-124.319990,48.265875,31.90,12.10,-3.10,190.70,19,19,201.00,15.00, 6.10, 0.00,-0.08, 0.03, 0.69, 0.00, 0.00, 0.00, 0.00, 0.00, 0.00,1802.00,580.00,346.00,124,0,1
20150826172227263,-124.319995,48.265850,32.47,11.80,-3.00,190.50,19,19,201.50,15.00, 6.60, 0.00,-0.08, 0.04, 0.68, 0.00, 0.00, 0.00, 0.00, 0.00, 0.00,1823.00,574.00,342.00,131,0,1
20150826172227463,-124.320020,48.265810,33.23,11.50,-2.60,190.20,19,19,202.20,15.00, 7.20, 0.00,-0.08, 0.04, 0.68, 0.00, 0.00, 0.00, 0.00, 0.00, 0.00,1851.00,568.00,338.00,140,0,1
20150826172227663,-124.320035,48.265780,33.86,11.20,-2.20,190.00,19,19,202.70,15.00, 7.60, 0.00,-0.08, 0.04, 0.67, 0.00, 0.00, 0.00, 0.00, 0.00, 0.00,1873.00,564.00,334.00,148,0,1
20150826172227863,-124.320050,48.265745,34.49,11.00,-1.70,189.80,19,19,203.30,15.00, 8.10, 0.00,-0.08, 0.05, 0.67, 0.00, 0.00, 0.00, 0.00, 0.00, 0.00,1895.00,560.00,332.00,156,0,1
20150826172228063,-124.320065,48.265705,35.18,10.80,-1.00,189.60,20,20,204.10,15.00, 8.70, 0.00,-0.08, 0.05, 0.66, 0.00, 0.00, 0.00, 0.00, 0.00, 0.00,1918.00,558.00,329.00,165,0,1
20150826172228263,-124.320080,48.265675,35.79,10.70,-0.30,189.60,20,20,204.60,15.00, 9.00, 0.00,-0.07, 0.05, 0.66, 0.00, 0.00, 0.00, 0.00, 0.00, 0.00,1937.00,559.00,330.00,173,0,1
20150826172228463,-124.320095,48.265640,36.41,10.90, 0.40,189.60,20,20,205.30,15.00, 9.40, 0.01,-0.07, 0.06, 0.65, 0.00, 0.00, 0.00, 0.00, 0.00, 0.00,1953.00,561.00,337.00,181,0,1
20150826172228663,-124.320110,48.265605,37.13,11.20, 1.40,189.80,20,20,206.00,15.00, 9.70, 0.05,-0.07, 0.05, 0.65, 0.00, 0.00, 0.00, 0.00, 0.00, 0.00,1968.00,565.00,350.00,190,0,1
20150826172228863,-124.320125,48.265570,37.81,11.60, 2.30,190.50,20,20,206.70,15.00, 9.70, 0.09,-0.07, 0.04, 0.65, 0.00, 0.00, 0.00, 0.00, 0.00, 0.00,1978.00,572.00,364.00,198,0,1
20150826172229063,-124.320140,48.265535,38.51,11.90, 3.20,191.50,20,20,207.30,15.00, 9.40, 0.13,-0.07, 0.02, 0.64, 0.00, 0.00, 0.00, 0.00, 0.00, 0.00,1984.00,584.00,379.00,206,0,1
20150826172229263,-124.320155,48.265495,39.32,12.20, 4.00,192.80,21,21,208.10,15.00, 9.10, 0.16,-0.07, 0.00, 0.64, 0.00, 0.00, 0.00, 0.00, 0.00, 0.00,1986.00,604.00,395.00,215,0,1
20150826172229463,-124.320175,48.265460,40.08,12.60, 4.50,193.80,21,21,208.70,15.00, 8.90, 0.19,-0.07, 0.00, 0.64, 0.00, 0.00, 0.00, 0.00, 0.00, 0.00,1984.00,627.00,409.00,223,0,1
20150826172229662,-124.320190,48.265430,40.85,12.90, 5.00,194.80,21,21,209.40,15.00, 8.70, 0.21,-0.07, 0.00, 0.64, 0.00, 0.00, 0.00, 0.00, 0.00, 0.00,1979.00,651.00,423.00,231,0,1
20150826172229863,-124.320210,48.265390,41.76,13.30, 5.40,195.70,21,21,210.20,15.00, 8.70, 0.22,-0.07, 0.00, 0.64, 0.00, 0.00, 0.00, 0.00, 0.00, 0.00,1971.00,679.00,438.00,240,0,1
20150826172230062,-124.320225,48.265355,42.58,13.60, 5.70,196.50,21,21,210.90,15.00, 8.60, 0.23,-0.07, 0.00, 0.65, 0.00, 0.00, 0.00, 0.00, 0.00, 0.00,1963.00,705.00,450.00,248,0,1
20150826172230262,-124.320250,48.265315,43.54,14.00, 6.20,197.60,21,21,211.60,15.00, 8.40, 0.26,-0.07, 0.00, 0.65, 0.00, 0.00, 0.00, 0.00, 0.00, 0.00,1951.00,734.00,463.00,1,0,1
20150826172230462,-124.320270,48.265285,44.42,14.30, 6.60,198.70,21,21,212.30,15.00, 8.10, 0.27,-0.07,-0.01, 0.65, 0.00, 0.00,10.00, 0.00, 0.00,10.00,1938.00,762.00,474.00,9,0,1
20150826172230663,-124.320285,48.265250,45.32,14.60, 7.00,200.00,21,21,213.00,15.00, 7.70, 0.29,-0.07,-0.02, 0.65, 0.00, 0.00,10.00, 0.00, 0.00,10.00,1923.00,792.00,485.00,17,0,1
20150826172230863,-124.320310,48.265220,46.25,14.90, 7.20,201.30,21,21,213.70,15.00, 7.40, 0.30,-0.07,-0.02, 0.66, 0.00, 0.00,10.00, 0.00, 0.00,10.00,1905.00,823.00,495.00,25,0,1
20150826172231063,-124.320335,48.265185,47.31,15.30, 7.40,202.60,21,21,214.40,15.00, 7.00, 0.29,-0.07,-0.03, 0.66, 0.00, 0.00, 0.00, 0.00, 0.00, 0.00,1882.00,859.00,506.00,34,0,1
20150826172231263,-124.320355,48.265150,48.29,15.60, 7.60,203.70,21,21,215.10,15.00, 6.80, 0.28,-0.07,-0.03, 0.67, 0.00, 0.00, 0.00, 0.00, 0.00, 0.00,1860.00,892.00,516.00,42,0,1
20150826172231463,-124.320385,48.265115,49.30,15.90, 7.70,204.60,21,21,215.90,15.00, 6.70, 0.28,-0.07,-0.02, 0.68, 0.00, 0.00, 0.00, 0.00, 0.00, 0.00,1838.00,924.00,524.00,50,0,1
20150826172231663,-124.320410,48.265085,50.32,16.20, 7.80,205.50,21,21,216.60,15.00, 6.60, 0.27,-0.07,-0.01, 0.68, 0.00, 0.00, 0.00, 0.00, 0.00, 0.00,1816.00,955.00,531.00,58,0,1
20150826172231863,-124.320430,48.265050,51.36,16.40, 8.00,206.50,21,21,217.30,15.00, 6.40, 0.27,-0.07,-0.01, 0.69, 0.00, 0.00, 0.00, 0.00, 0.00, 0.00,1795.00,986.00,537.00,66,0,1
20150826172232063,-124.320465,48.265020,52.41,16.60, 8.30,207.60,21,21,218.00,15.00, 6.20, 0.26,-0.07,-0.02, 0.69, 0.00, 0.00, 0.00, 0.00, 0.00, 0.00,1773.00,1017.00,543.00,74,0,1
20150826172232263,-124.320485,48.264990,53.48,16.80, 8.50,208.70,21,21,218.70,15.00, 6.00, 0.25,-0.08,-0.02, 0.69, 0.00, 0.00, 0.00, 0.00, 0.00, 0.00,1750.00,1048.00,548.00,82,0,1
20150826172232463,-124.320515,48.264960,54.58,17.00, 8.60,209.80,21,21,219.40,15.00, 5.70, 0.24,-0.09,-0.02, 0.69, 0.00, 0.00, 0.00, 0.00, 0.00, 0.00,1726.00,1080.00,551.00,90,0,1
20150826172232663,-124.320545,48.264925,55.66,16.90, 8.70,210.90,21,21,220.20,15.00, 5.50, 0.23,-0.09,-0.02, 0.69, 0.00, 0.00, 0.00, 0.00, 0.00, 0.00,1704.00,1111.00,550.00,98,0,1
20150826172232863,-124.320575,48.264900,56.73,16.70, 8.70,211.80,21,21,220.80,15.00, 5.40, 0.22,-0.09,-0.01, 0.69, 0.00, 0.00, 0.00, 0.00, 0.00, 0.00,1684.00,1142.00,544.00,106,0,1
20150826172233063,-124.320610,48.264865,57.80,16.50, 8.80,212.80,21,21,221.60,15.00, 5.20, 0.22,-0.09,-0.01, 0.69, 0.00, 0.00, 0.00, 0.00, 0.00, 0.00,1666.00,1174.00,536.00,114,0,1
20150826172233263,-124.320645,48.264835,58.84,16.20, 8.80,213.90,21,21,222.30,15.00, 5.00, 0.21,-0.09,-0.02, 0.69, 0.00, 0.00, 0.00, 0.00, 0.00, 0.00,1649.00,1205.00,527.00,122,0,1
20150826172233463,-124.320675,48.264805,59.88,15.90, 8.70,214.90,21,21,223.10,15.00, 4.90, 0.20,-0.09,-0.02, 0.69, 0.00, 0.00, 0.00, 0.00, 0.00, 0.00,1631.00,1237.00,517.00,130,0,1
20150826172233662,-124.320705,48.264780,60.73,15.70, 8.50,215.80,21,21,223.70,15.00, 4.70, 0.20,-0.09,-0.03, 0.69, 0.00, 0.00, 0.00, 0.00, 0.00, 0.00,1617.00,1263.00,510.00,136,0,1
20150826172233862,-124.320745,48.264750,61.78,15.40, 8.00,216.90,21,21,224.50,15.00, 4.50, 0.19,-0.09,-0.03, 0.69, 0.00, 0.00, 0.00, 0.00, 0.00, 0.00,1599.00,1295.00,501.00,144,0,1
20150826172234062,-124.320775,48.264720,62.77,15.20, 7.60,217.90,21,21,225.20,15.00, 4.30, 0.18,-0.09,-0.03, 0.68, 0.00, 0.00, 0.00, 0.00, 0.00, 0.00,1583.00,1325.00,493.00,152,0,1
20150826172234262,-124.320815,48.264690,63.75,14.90, 7.10,218.80,21,21,226.00,15.00, 4.30, 0.18,-0.09,-0.03, 0.68, 0.00, 0.00, 0.00, 0.00, 0.00, 0.00,1568.00,1353.00,484.00,160,0,1
20150826172234462,-124.320850,48.264665,64.70,14.70, 6.60,219.60,21,21,226.80,15.00, 4.30, 0.18,-0.09,-0.02, 0.68, 0.00, 0.00, 0.00, 0.00, 0.00, 0.00,1554.00,1380.00,477.00,168,0,1
20150826172234662,-124.320890,48.264640,65.62,14.40, 6.30,220.40,21,21,227.50,15.00, 4.20, 0.17,-0.09,-0.03, 0.68, 0.00, 0.00, 0.00, 0.00, 0.00, 0.00,1542.00,1406.00,469.00,176,0,1
20150826172234862,-124.320930,48.264610,66.53,14.20, 5.90,221.30,21,21,228.30,15.00, 4.20, 0.17,-0.08,-0.02, 0.67, 0.00, 0.00, 0.00, 0.00, 0.00, 0.00,1529.00,1431.00,463.00,184,0,1
20150826172235062,-124.320965,48.264580,67.45,14.10, 5.50,222.10,21,21,229.10,15.00, 4.20, 0.17,-0.08,-0.02, 0.67, 0.00, 0.00, 0.00, 0.00, 0.00, 0.00,1516.00,1455.00,460.00,192,0,1
20150826172235262,-124.321010,48.264555,68.35,14.10, 5.20,222.90,21,21,229.90,15.00, 4.20, 0.17,-0.08,-0.02, 0.67, 0.00, 0.00, 0.00, 0.00, 0.00, 0.00,1503.00,1477.00,458.00,200,0,1
20150826172235462,-124.321050,48.264530,69.27,14.20, 4.80,223.60,21,21,230.70,15.00, 4.20, 0.18,-0.07,-0.02, 0.67, 0.00, 0.00, 0.00, 0.00, 0.00, 0.00,1489.00,1497.00,460.00,208,0,1
20150826172235662,-124.321090,48.264500,70.09,14.40, 4.50,224.30,21,21,231.50,15.00, 4.30, 0.18,-0.07,-0.01, 0.66, 0.00, 0.00, 0.00, 0.00, 0.00, 0.00,1475.00,1514.00,465.00,215,0,1
20150826172235862,-124.321125,48.264475,71.05,14.60, 4.20,225.00,21,21,232.30,15.00, 4.30, 0.18,-0.07,-0.02, 0.64, 0.00, 0.00, 0.00, 0.00, 0.00, 0.00,1459.00,1532.00,471.00,223,0,1
20150826172236062,-124.321170,48.264450,71.92,14.70, 4.00,225.60,21,21,233.10,15.00, 4.50, 0.16,-0.07,-0.01, 0.61, 0.00, 0.00, 0.00, 0.00, 0.00, 0.00,1444.00,1546.00,478.00,230,0,1
20150826172236262,-124.321210,48.264425,72.92,15.00, 3.80,226.20,21,21,233.90,15.00, 4.60, 0.16,-0.07,-0.01, 0.60, 0.00, 0.00, 0.00, 0.00, 0.00, 0.00,1426.00,1559.00,484.00,238,0,1
20150826172236462,-124.321255,48.264400,73.81,15.20, 3.60,226.60,21,21,234.70,15.00, 4.80, 0.15,-0.07,-0.01, 0.60, 0.00, 0.00, 0.00, 0.00, 0.00, 0.00,1410.00,1569.00,490.00,245,0,1
20150826172236662,-124.321300,48.264370,74.85,15.40, 3.40,227.00,21,21,235.70,15.00, 5.20, 0.14,-0.07, 0.00, 0.60, 0.00, 0.00, 0.00, 0.00, 0.00, 0.00,1392.00,1580.00,495.00,253,0,1
20150826172236862,-124.321340,48.264350,75.78,15.50, 3.30,227.40,21,21,236.50,15.00, 5.40, 0.14,-0.08, 0.00, 0.60, 0.00, 0.00, 0.00, 0.00, 0.00, 0.00,1377.00,1587.00,500.00,4,0,1
20150826172237062,-124.321380,48.264325,76.73,15.50, 3.30,227.80,21,21,237.20,14.30, 5.60, 0.14,-0.10, 0.00, 0.60, 0.00, 0.00, 0.00, 0.00, 0.00, 0.00,1363.00,1596.00,503.00,11,0,1
20150826172237262,-124.321430,48.264300,77.80,15.10, 3.60,228.40,21,21,238.20,13.40, 5.80, 0.15,-0.12, 0.01, 0.60, 0.00, 0.00, 0.00, 0.00, 0.00, 0.00,1350.00,1607.00,495.00,19,0,1
20150826172237462,-124.321470,48.264275,78.70,14.30, 4.00,228.90,21,21,239.00,12.70, 6.00, 0.17,-0.12, 0.01, 0.60, 0.00, 0.00, 0.00, 0.00, 0.00, 0.00,1342.00,1621.00,476.00,26,0,1
20150826172237662,-124.321515,48.264250,79.67,13.20, 4.50,229.70,21,21,240.00,12.00, 6.10, 0.19,-0.12, 0.00, 0.60, 0.00, 0.00, 0.00, 0.00, 0.00, 0.00,1335.00,1641.00,445.00,34,0,1
20150826172237861,-124.321560,48.264230,80.44,12.30, 4.90,230.50,21,21,240.80,11.40, 6.10, 0.20,-0.12, 0.00, 0.60, 0.00, 0.00, 0.00, 0.00, 0.00, 0.00,1328.00,1662.00,416.00,41,0,1
20150826172238061,-124.321605,48.264205,81.24,11.30, 5.40,231.50,21,21,241.70,11.00, 6.10, 0.22,-0.11, 0.00, 0.37, 0.00, 0.00, 0.00, 0.00, 0.00, 0.00,1319.00,1685.00,384.00,49,0,1
20150826172238261,-124.321655,48.264180,81.97,10.50, 5.90,232.60,21,21,242.60,10.60, 6.00, 0.24,-0.10,-0.01, 0.35, 0.00, 0.00, 0.00, 0.00, 0.00, 0.00,1302.00,1705.00,354.00,57,0,1
20150826172238461,-124.321700,48.264160,82.63, 9.80, 6.30,233.60,21,21,243.50,10.20, 5.90, 0.25,-0.10,-0.01, 0.34, 0.00, 0.00, 0.00, 0.00, 0.00, 0.00,1282.00,1724.00,327.00,65,0,1
20150826172238661,-124.321745,48.264135,83.24, 9.10, 6.60,234.60,21,21,244.50, 9.80, 5.90, 0.24,-0.09,-0.01, 0.32, 0.00, 0.00, 0.00, 0.00, 0.00, 0.00,1260.00,1743.00,303.00,73,0,1
20150826172238861,-124.321790,48.264110,83.80, 8.50, 6.80,235.40,21,21,245.40, 9.50, 6.00, 0.25,-0.09,-0.01, 0.30, 0.00, 0.00, 0.00, 0.00, 0.00, 0.00,1237.00,1764.00,281.00,81,0,1
20150826172239065,-124.321835,48.264090,84.31, 8.00, 7.00,236.20,21,21,246.30, 9.20, 6.00, 0.25,-0.08,-0.01, 0.28, 0.00, 0.00, 0.00, 0.00, 0.00, 0.00,1215.00,1784.00,261.00,89,0,1
20150826172239262,-124.321890,48.264065,84.84, 7.60, 7.10,237.20,21,21,247.40, 8.90, 6.10, 0.25,-0.07,-0.02, 0.26, 0.00, 0.00, 0.00, 0.00, 0.00, 0.00,1190.00,1807.00,244.00,98,0,1
20150826172239461,-124.321945,48.264045,85.29, 7.40, 7.10,238.20,21,21,248.30, 8.70, 6.00, 0.25,-0.07,-0.02, 0.25, 0.00, 0.00, 0.00, 0.00, 0.00, 0.00,1166.00,1827.00,235.00,106,0,1
20150826172239661,-124.321990,48.264025,85.73, 7.20, 7.10,239.30,21,21,249.30, 8.40, 6.00, 0.25,-0.07,-0.03, 0.23, 0.00, 0.00, 0.00, 0.00, 0.00, 0.00,1139.00,1847.00,229.00,114,0,1
20150826172239861,-124.322035,48.264005,86.15, 7.20, 6.90,240.30,21,21,250.20, 8.10, 5.90, 0.25,-0.07,-0.03, 0.21, 0.00, 0.00, 0.00, 0.00, 0.00, 0.00,1112.00,1865.00,225.00,122,0,1
20150826172240066,-124.322090,48.263985,86.57, 7.10, 6.60,241.20,21,21,251.20, 7.90, 6.00, 0.25,-0.06,-0.02, 0.20, 0.00, 0.00, 0.00, 0.00, 0.00, 0.00,1085.00,1882.00,223.00,130,0,1
20150826172240261,-124.322140,48.263965,87.04, 7.10, 6.40,242.20,21,21,252.20, 7.60, 6.00, 0.25,-0.07,-0.03, 0.18, 0.00, 0.00, 0.00, 0.00, 0.00, 0.00,1055.00,1900.00,220.00,139,0,1
20150826172240461,-124.322195,48.263950,87.45, 7.00, 6.20,243.10,21,21,253.20, 7.30, 6.00, 0.25,-0.07,-0.03, 0.17, 0.00, 0.00, 0.00, 0.00, 0.00, 0.00,1028.00,1914.00,218.00,147,0,1
20150826172240661,-124.322250,48.263930,87.87, 7.00, 6.10,244.00,21,21,254.30, 7.10, 6.10, 0.25,-0.07,-0.02, 0.15, 0.00, 0.00, 0.00, 0.00, 0.00, 0.00,1001.00,1928.00,216.00,155,0,1
20150826172240861,-124.322295,48.263915,88.27, 6.90, 6.00,244.90,21,21,255.20, 6.90, 6.10, 0.25,-0.07,-0.02, 0.13, 0.00, 0.00, 0.00, 0.00, 0.00, 0.00,975.00,1940.00,213.00,163,0,1
20150826172241061,-124.322345,48.263895,88.67, 6.80, 6.00,245.80,21,21,256.20, 6.60, 6.20, 0.25,-0.07,-0.03, 0.12, 0.00, 0.00, 0.00, 0.00, 0.00, 0.00,948.00,1952.00,210.00,171,0,1
20150826172241261,-124.322410,48.263880,89.10, 6.70, 5.80,246.70,21,21,257.30, 6.30, 6.30, 0.24,-0.07,-0.02, 0.10, 0.00, 0.00, 0.00, 0.00, 0.00, 0.00,918.00,1964.00,206.00,180,0,1
20150826172241461,-124.322455,48.263860,89.48, 6.60, 5.80,247.50,21,21,258.30, 6.20, 6.40, 0.24,-0.07,-0.02, 0.09, 0.00, 0.00, 0.00, 0.00, 0.00, 0.00,892.00,1974.00,202.00,188,0,1
20150826172241661,-124.322505,48.263850,89.85, 6.50, 5.90,248.20,21,21,259.30, 5.90, 6.60, 0.25,-0.08,-0.01, 0.07, 0.00, 0.00, 0.00, 0.00, 0.00, 0.00,866.00,1984.00,197.00,196,0,1
20150826172241861,-124.322570,48.263830,90.25, 6.10, 6.20,249.10,21,21,260.50, 5.90, 6.80, 0.26,-0.07, 0.00, 0.07, 0.00, 0.00, 0.00, 0.00, 0.00, 0.00,838.00,1995.00,189.00,205,0,1
20150826172242060,-124.322620,48.263820,90.59, 5.90, 6.50,250.00,21,21,261.50, 6.10, 6.90, 0.27,-0.06,-0.01, 0.06, 0.00, 0.00, 0.00, 0.00, 0.00, 0.00,812.00,2005.00,178.00,213,0,1
20150826172242260,-124.322665,48.263805,90.90, 5.70, 6.80,251.00,21,21,262.40, 6.30, 6.80, 0.28,-0.05,-0.01, 0.05, 0.00, 0.00,10.00, 0.00, 0.00,10.00,785.00,2015.00,170.00,221,0,1
20150826172242460,-124.322730,48.263790,91.24, 5.70, 7.10,252.30,21,21,263.60, 6.40, 6.70, 0.28,-0.05,-0.02, 0.05, 0.00, 0.00,10.00, 0.00, 0.00,10.00,752.00,2026.00,166.00,230,0,1
20150826172242660,-124.322780,48.263775,91.55, 5.80, 7.20,253.40,21,21,264.60, 6.60, 6.70, 0.28,-0.04,-0.02, 0.04, 0.00, 0.00, 0.00, 0.00, 0.00, 0.00,719.00,2035.00,168.00,238,0,1
20150826172242860,-124.322835,48.263765,91.87, 6.00, 7.30,254.50,21,21,265.70, 6.70, 6.70, 0.28,-0.04,-0.03, 0.04, 0.00, 0.00, 0.00, 0.00, 0.00, 0.00,684.00,2042.00,174.00,246,0,1
20150826172243060,-124.322895,48.263750,92.24, 6.40, 7.20,255.50,21,21,266.90, 6.80, 6.80, 0.28,-0.04,-0.02, 0.03, 0.00, 0.00, 0.00, 0.00, 0.00, 0.00,645.00,2049.00,183.00,255,0,1
20150826172243260,-124.322950,48.263740,92.60, 6.70, 7.10,256.50,21,21,267.90, 6.90, 6.80, 0.28,-0.04,-0.03, 0.03, 0.00, 0.00, 0.00, 0.00, 0.00, 0.00,610.00,2054.00,191.00,7,0,1
20150826172243460,-124.323005,48.263730,92.97, 6.90, 7.00,257.60,21,21,268.90, 7.00, 6.70, 0.28,-0.04,-0.03, 0.03, 0.00, 0.00, 0.00, 0.00, 0.00, 0.00,575.00,2057.00,199.00,15,0,1
20150826172243660,-124.323055,48.263720,93.33, 7.20, 6.90,258.60,21,21,270.00, 7.00, 6.80, 0.28,-0.04,-0.03, 0.02, 0.00, 0.00, 0.00, 0.00, 0.00, 0.00,543.00,2058.00,206.00,22,0,1
20150826172243864,-124.323110,48.263710,93.73, 7.40, 6.80,259.70,21,21,271.10, 7.00, 6.80, 0.28,-0.04,-0.03, 0.02, 0.00, 0.00, 0.00, 0.00, 0.00, 0.00,508.00,2059.00,212.00,30,0,1
20150826172244060,-124.323165,48.263705,94.16, 7.60, 6.70,260.70,21,21,272.10, 7.00, 6.80, 0.28,-0.05,-0.03, 0.02, 0.00, 0.00, 0.00, 0.00, 0.00, 0.00,473.00,2058.00,218.00,38,0,1
20150826172244260,-124.323225,48.263690,94.59, 7.60, 6.60,261.70,21,21,273.30, 7.00, 6.90, 0.28,-0.05,-0.02, 0.02, 0.00, 0.00, 0.00, 0.00, 0.00, 0.00,438.00,2057.00,221.00,46,0,1
20150826172244460,-124.323280,48.263685,95.03, 7.50, 6.60,262.50,21,21,274.40, 6.90, 7.10, 0.27,-0.06,-0.01, 0.02, 0.00, 0.00, 0.00, 0.00, 0.00, 0.00,405.00,2056.00,217.00,54,0,1
20150826172244660,-124.323330,48.263680,95.45, 7.30, 6.80,263.40,20,20,275.40, 6.80, 7.20, 0.28,-0.06,-0.01, 0.01, 0.00, 0.00, 0.00, 0.00, 0.00, 0.00,373.00,2057.00,210.00,62,0,1
20150826172244860,-124.323390,48.263675,95.86, 7.00, 7.00,264.40,20,20,276.60, 6.80, 7.30, 0.29,-0.06,-0.01, 0.01, 0.00, 0.00, 0.00, 0.00, 0.00, 0.00,342.00,2058.00,201.00,70,0,1
20150826172245060,-124.323445,48.263665,96.24, 6.70, 7.30,265.40,20,20,277.70, 6.70, 7.30, 0.31,-0.06,-0.02, 0.01, 0.00, 0.00,10.00, 0.00, 0.00,10.00,310.00,2059.00,190.00,78,0,1
20150826172245260,-124.323500,48.263660,96.59, 6.40, 7.50,266.60,20,20,278.80, 6.70, 7.30, 0.30,-0.05,-0.02, 0.00, 0.00, 0.00,10.00, 0.00, 0.00,10.00,277.00,2061.00,180.00,86,0,1
20150826172245460,-124.323560,48.263660,96.92, 6.10, 7.70,267.80,20,20,280.00, 6.50, 7.30, 0.30,-0.05,-0.03, 0.00, 0.00, 0.00,10.00, 0.00, 0.00,10.00,243.00,2063.00,171.00,94,0,1
20150826172245664,-124.323615,48.263655,97.24, 5.90, 7.80,268.90,20,20,281.10, 6.50, 7.30, 0.30,-0.04,-0.03, 0.00, 0.00, 0.00, 0.00, 0.00, 0.00, 0.00,208.00,2064.00,163.00,102,0,1
20150826172245859,-124.323665,48.263650,97.57, 5.90, 7.70,270.10,20,20,282.20, 6.40, 7.20, 0.30,-0.04,-0.03, 0.00, 0.00, 0.00, 0.00, 0.00, 0.00, 0.00,169.00,2065.00,157.00,111,0,1
20150826172246059,-124.323720,48.263645,97.85, 5.90, 7.60,271.10,20,20,283.30, 6.30, 7.30, 0.30,-0.04,-0.03, 0.00, 0.00, 0.00, 0.00, 0.00, 0.00, 0.00,135.00,2065.00,155.00,119,0,1
20150826172246260,-124.323780,48.263645,98.18, 5.90, 7.50,272.30,20,20,284.50, 6.20, 7.30, 0.30,-0.04,-0.03,-0.01, 0.00, 0.00, 0.00, 0.00, 0.00, 0.00,97.00,2064.00,154.00,128,0,1
20150826172246459,-124.323835,48.263645,98.46, 5.90, 7.50,273.30,20,20,285.60, 6.10, 7.30, 0.30,-0.04,-0.04,-0.01, 0.00, 0.00, 0.00, 0.00, 0.00, 0.00,63.00,2063.00,154.00,136,0,1
20150826172246659,-124.323895,48.263645,98.78, 5.90, 7.30,274.50,20,20,286.80, 6.00, 7.30, 0.31,-0.04,-0.04,-0.02, 0.00, 0.00, 0.00, 0.00, 0.00, 0.00,26.00,2060.00,154.00,145,0,1
20150826172246859,-124.323950,48.263645,99.07, 6.00, 7.10,275.60,20,20,287.90, 5.80, 7.30, 0.30,-0.04,-0.03,-0.02, 0.00, 0.00, 0.00, 0.00, 0.00, 0.00, 7.00,2056.00,155.00,153,0,1
20150826172247059,-124.324010,48.263645,99.39, 6.00, 7.10,276.70,20,20,289.20, 5.70, 7.50, 0.29,-0.05,-0.02,-0.02, 0.00, 0.00, 0.00, 0.00, 0.00, 0.00,43.00,2051.00,155.00,162,0,1
20150826172247259,-124.324055,48.263645,99.67, 5.90, 7.10,277.60,20,20,290.20, 5.50, 7.50, 0.29,-0.05,-0.02,-0.03, 0.00, 0.00, 0.00, 0.00, 0.00, 0.00,76.00,2047.00,152.00,170,0,1
20150826172247464,-124.324110,48.263645,99.95, 5.70, 7.20,278.50,20,20,291.30, 5.40, 7.60, 0.30,-0.05,-0.02,-0.03, 0.00, 0.00, 0.00, 0.00, 0.00, 0.00,107.00,2043.00,147.00,178,0,1
20150826172247659,-124.324170,48.263650,100.24, 5.40, 7.40,279.60,20,20,292.60, 5.20, 7.80, 0.30,-0.06,-0.01,-0.03, 0.00, 0.00, 0.00, 0.00, 0.00, 0.00,141.00,2039.00,139.00,187,0,1
20150826172247859,-124.324225,48.263655,100.52, 5.10, 7.70,280.70,20,20,293.70, 5.00, 7.70, 0.32,-0.05,-0.02,-0.04, 0.00, 0.00,10.00, 0.00, 0.00,10.00,176.00,2036.00,130.00,196,0,1
20150826172248059,-124.324285,48.263655,100.77, 4.70, 7.90,282.00,20,20,295.00, 4.90, 7.70, 0.32,-0.05,-0.02,-0.04, 0.00, 0.00,10.00, 0.00, 0.00,10.00,212.00,2032.00,120.00,205,0,1
20150826172248260,-124.324340,48.263660,100.99, 4.40, 8.00,283.30,20,20,296.20, 4.80, 7.70, 0.32,-0.05,-0.02,-0.05, 0.00, 0.00,10.00, 0.00, 0.00,10.00,248.00,2027.00,110.00,214,0,1
20150826172248460,-124.324390,48.263665,101.20, 4.20, 8.10,284.50,20,20,297.30, 4.60, 7.60, 0.32,-0.04,-0.03,-0.05, 0.00, 0.00,10.00, 0.00, 0.00,10.00,285.00,2022.00,102.00,223,0,1
20150826172248660,-124.324445,48.263670,101.38, 4.10, 8.10,285.70,20,20,298.50, 4.40, 7.60, 0.32,-0.04,-0.04,-0.06, 0.00, 0.00, 0.00, 0.00, 0.00, 0.00,322.00,2016.00,96.00,232,0,1
20150826172248860,-124.324500,48.263675,101.56, 4.00, 8.00,286.70,20,20,299.70, 4.30, 7.80, 0.32,-0.04,-0.03,-0.06, 0.00, 0.00, 0.00, 0.00, 0.00, 0.00,358.00,2009.00,93.00,241,0,1
20150826172249060,-124.324550,48.263685,101.75, 4.00, 7.90,287.90,20,20,300.90, 4.10, 7.80, 0.32,-0.04,-0.03,-0.07, 0.00, 0.00, 0.00, 0.00, 0.00, 0.00,397.00,2001.00,90.00,251,0,1
20150826172249264,-124.324605,48.263690,101.92, 3.90, 7.70,289.00,20,20,302.10, 3.90, 7.80, 0.32,-0.04,-0.03,-0.07, 0.00, 0.00,10.00, 0.00, 0.00,10.00,431.00,1993.00,89.00,4,0,1
20150826172249460,-124.324665,48.263700,102.10, 3.90, 7.60,290.30,20,20,303.40, 3.70, 7.80, 0.32,-0.04,-0.03,-0.07, 0.00, 0.00,10.00, 0.00, 0.00,10.00,469.00,1984.00,88.00,14,0,1
20150826172249659,-124.324710,48.263710,102.26, 3.80, 7.60,291.40,20,20,304.50, 3.50, 7.80, 0.32,-0.05,-0.03,-0.08, 0.00, 0.00, 0.00, 0.00, 0.00, 0.00,502.00,1974.00,86.00,23,0,1
20150826172249859,-124.324775,48.263720,102.44, 3.60, 7.60,292.50,20,20,305.90, 3.30, 8.00, 0.31,-0.05,-0.02,-0.08, 0.00, 0.00, 0.00, 0.00, 0.00, 0.00,539.00,1963.00,81.00,33,0,1
20150826172250064,-124.324820,48.263725,102.58, 3.40, 7.70,293.50,20,20,306.90, 3.20, 8.00, 0.32,-0.05,-0.02,-0.09, 0.00, 0.00, 0.00, 0.00, 0.00, 0.00,571.00,1954.00,75.00,42,0,1
20150826172250259,-124.324870,48.263740,102.73, 3.00, 7.90,294.60,20,20,308.20, 2.90, 8.10, 0.33,-0.05,-0.02,-0.09, 0.00, 0.00, 0.00, 0.00, 0.00, 0.00,607.00,1943.00,66.00,52,0,1
20150826172250459,-124.324925,48.263750,102.85, 2.70, 8.10,295.80,20,20,309.40, 2.80, 8.10, 0.34,-0.05,-0.02,-0.10, 0.00, 0.00,10.00, 0.00, 0.00,10.00,643.00,1933.00,56.00,62,0,1
20150826172250660,-124.324980,48.263760,102.95, 2.40, 8.30,297.10,20,20,310.70, 2.60, 8.10, 0.34,-0.05,-0.02,-0.10, 0.00, 0.00,10.00, 0.00, 0.00,10.00,679.00,1922.00,45.00,72,0,1
20150826172250859,-124.325035,48.263775,103.03, 2.10, 8.50,298.30,20,20,312.00, 2.40, 8.20, 0.34,-0.04,-0.03,-0.11, 0.00, 0.00,10.00, 0.00, 0.00,10.00,713.00,1911.00,37.00,81,0,1
20150826172251059,-124.325080,48.263790,103.09, 1.90, 8.60,299.60,20,20,313.10, 2.30, 8.00, 0.34,-0.04,-0.04,-0.11, 0.00, 0.00,10.00, 0.00, 0.00,10.00,752.00,1897.00,29.00,91,0,1
20150826172251259,-124.325130,48.263805,103.15, 1.80, 8.50,300.90,20,20,314.50, 2.10, 8.10, 0.34,-0.04,-0.04,-0.12, 0.00, 0.00,10.00, 0.00, 0.00,10.00,790.00,1882.00,25.00,101,0,1
20150826172251459,-124.325185,48.263820,103.20, 1.80, 8.40,302.10,20,20,315.80, 2.00, 8.20, 0.34,-0.04,-0.03,-0.12, 0.00, 0.00,10.00, 0.00, 0.00,10.00,828.00,1866.00,23.00,111,0,1
20150826172251659,-124.325230,48.263835,103.24, 1.80, 8.20,303.30,20,20,317.00, 1.80, 8.20, 0.34,-0.04,-0.03,-0.13, 0.00, 0.00,10.00, 0.00, 0.00,10.00,865.00,1849.00,23.00,121,0,1
20150826172251859,-124.325285,48.263850,103.29, 1.80, 8.20,304.50,20,20,318.30, 1.70, 8.20, 0.34,-0.04,-0.04,-0.13, 0.00, 0.00,10.00, 0.00, 0.00,10.00,900.00,1832.00,22.00,131,0,1
20150826172252059,-124.325340,48.263865,103.34, 1.70, 8.10,305.70,20,20,319.70, 1.50, 8.30, 0.34,-0.05,-0.03,-0.14, 0.00, 0.00,10.00, 0.00, 0.00,10.00,936.00,1813.00,22.00,141,0,1
20150826172252263,-124.325375,48.263880,103.38, 1.60, 8.10,306.80,20,20,320.70, 1.40, 8.30, 0.34,-0.05,-0.03,-0.14, 0.00, 0.00,10.00, 0.00, 0.00,10.00,967.00,1796.00,19.00,150,0,1
20150826172252459,-124.325430,48.263900,103.41, 1.40, 8.20,308.00,20,20,322.10, 1.20, 8.40, 0.34,-0.05,-0.03,-0.15, 0.00, 0.00,10.00, 0.00, 0.00,10.00,1002.00,1776.00,15.00,160,0,1
20150826172252659,-124.325475,48.263915,103.44, 1.20, 8.30,309.10,20,20,323.30, 1.10, 8.50, 0.35,-0.05,-0.02,-0.15, 0.00, 0.00,10.00, 0.00, 0.00,10.00,1036.00,1756.00, 8.00,170,0,1
20150826172252859,-124.325530,48.263935,103.45, 0.90, 8.50,310.30,20,20,324.80, 0.90, 8.60, 0.35,-0.05,-0.02,-0.16, 0.00, 0.00,10.00, 0.00, 0.00,10.00,1070.00,1736.00, 0.00,180,0,1
20150826172253059,-124.325565,48.263955,103.45, 0.60, 8.70,311.50,20,20,325.90, 0.80, 8.60, 0.36,-0.05,-0.02,-0.16, 0.00, 0.00,10.00, 0.00, 0.00,10.00,1102.00,1717.00, 8.00,189,0,1
20150826172253259,-124.325610,48.263980,103.42, 0.30, 8.90,312.90,20,20,327.20, 0.70, 8.50, 0.36,-0.05,-0.03,-0.17, 0.00, 0.00,10.00, 0.00, 0.00,10.00,1137.00,1694.00,16.00,199,0,1
20150826172253459,-124.325665,48.263995,103.38, 0.10, 8.90,314.20,20,20,328.70, 0.60, 8.60, 0.36,-0.04,-0.03,-0.17, 0.00, 0.00,10.00, 0.00, 0.00,10.00,1173.00,1669.00,24.00,209,0,1
20150826172253658,-124.325705,48.264020,103.34, 0.10, 8.90,315.40,20,20,329.90, 0.50, 8.60, 0.36,-0.04,-0.04,-0.18, 0.00, 0.00,10.00, 0.00, 0.00,10.00,1206.00,1646.00,28.00,218,0,1
20150826172253859,-124.325750,48.264045,103.28, 0.10, 8.80,316.80,20,20,331.20, 0.40, 8.60, 0.36,-0.04,-0.04,-0.18, 0.00, 0.00,10.00, 0.00, 0.00,10.00,1241.00,1619.00,28.00,228,0,1
20150826172254058,-124.325790,48.264060,103.23, 0.20, 8.70,318.00,20,20,332.40, 0.30, 8.60, 0.36,-0.04,-0.03,-0.19, 0.00, 0.00,10.00, 0.00, 0.00,10.00,1273.00,1593.00,27.00,237,0,1
20150826172254258,-124.325835,48.264090,103.18, 0.20, 8.60,319.30,20,20,333.80, 0.20, 8.60, 0.36,-0.04,-0.04,-0.19, 0.00, 0.00,10.00, 0.00, 0.00,10.00,1307.00,1564.00,25.00,247,0,1
20150826172254458,-124.325880,48.264110,103.14, 0.30, 8.50,320.50,20,20,335.20, 0.10, 8.80, 0.35,-0.04,-0.03,-0.20, 0.00, 0.00,10.00, 0.00, 0.00,10.00,1336.00,1537.00,24.00,0,0,1
20150826172254658,-124.325920,48.264135,103.10, 0.30, 8.60,321.60,20,20,336.40, 0.00, 8.80, 0.36,-0.05,-0.03,-0.20, 0.00, 0.00,10.00, 0.00, 0.00,10.00,1365.00,1508.00,23.00,9,0,1
20150826172254862,-124.325955,48.264160,103.06, 0.20, 8.70,322.80,20,20,337.70, 0.00, 8.90, 0.36,-0.05,-0.02,-0.20, 0.00, 0.00,10.00, 0.00, 0.00,10.00,1393.00,1480.00,25.00,18,0,1
20150826172255058,-124.326000,48.264190,103.01, 0.00, 8.80,324.10,20,20,339.20,-0.10, 9.00, 0.37,-0.05,-0.02,-0.21, 0.00, 0.00,10.00, 0.00, 0.00,10.00,1424.00,1447.00,29.00,28,0,1
20150826172255258,-124.326040,48.264210,102.95,-0.10, 9.00,325.40,19,19,340.50,-0.20, 9.00, 0.37,-0.05,-0.03,-0.21, 0.00, 0.00,10.00, 0.00, 0.00,10.00,1452.00,1416.00,34.00,37,0,1
20150826172255463,-124.326070,48.264235,102.89,-0.30, 9.10,326.60,19,19,341.60,-0.20, 8.90, 0.37,-0.05,-0.03,-0.22, 0.00, 0.00,10.00, 0.00, 0.00,10.00,1476.00,1388.00,40.00,45,0,1
20150826172255658,-124.326110,48.264265,102.80,-0.60, 9.20,328.10,19,19,343.00,-0.40, 8.90, 0.37,-0.04,-0.04,-0.22, 0.00, 0.00,10.00, 0.00, 0.00,10.00,1507.00,1351.00,49.00,55,0,1
20150826172255858,-124.326145,48.264290,102.70,-0.70, 9.20,329.40,19,19,344.40,-0.40, 8.90, 0.37,-0.04,-0.04,-0.22, 0.00, 0.00,10.00, 0.00, 0.00,10.00,1534.00,1317.00,55.00,64,0,1
20150826172256058,-124.326185,48.264320,102.60,-0.70, 9.20,330.60,19,19,345.90,-0.40, 9.10, 0.38,-0.04,-0.03,-0.23, 0.00, 0.00,10.00, 0.00, 0.00,10.00,1561.00,1282.00,58.00,73,0,1
20150826172256258,-124.326215,48.264350,102.49,-0.70, 9.10,331.90,19,19,347.10,-0.40, 9.10, 0.38,-0.04,-0.04,-0.23, 0.00, 0.00,10.00, 0.00, 0.00,10.00,1587.00,1247.00,58.00,82,0,1
20150826172256458,-124.326245,48.264375,102.39,-0.70, 9.00,333.20,19,19,348.30,-0.50, 9.00, 0.38,-0.04,-0.04,-0.23, 0.00, 0.00,10.00, 0.00, 0.00,10.00,1612.00,1211.00,58.00,91,0,1
20150826172256658,-124.326275,48.264405,102.28,-0.60, 9.00,334.50,19,19,349.70,-0.50, 9.10, 0.37,-0.04,-0.03,-0.24, 0.00, 0.00,10.00, 0.00, 0.00,10.00,1635.00,1174.00,55.00,100,0,1
20150826172256858,-124.326305,48.264435,102.19,-0.50, 9.00,335.70,19,19,351.00,-0.50, 9.10, 0.38,-0.04,-0.03,-0.24, 0.00, 0.00,10.00, 0.00, 0.00,10.00,1658.00,1137.00,52.00,109,0,1
20150826172257058,-124.326335,48.264465,102.10,-0.40, 9.00,337.00,19,19,352.40,-0.50, 9.20, 0.37,-0.04,-0.03,-0.24, 0.00, 0.00,10.00, 0.00, 0.00,10.00,1679.00,1098.00,49.00,118,0,1
20150826172257258,-124.326370,48.264495,102.01,-0.40, 9.10,338.30,19,19,353.80,-0.60, 9.20, 0.38,-0.04,-0.03,-0.25, 0.00, 0.00,10.00, 0.00, 0.00,10.00,1699.00,1059.00,47.00,127,0,1
20150826172257458,-124.326400,48.264525,101.93,-0.40, 9.20,339.60,19,19,355.00,-0.60, 9.20, 0.38,-0.04,-0.03,-0.25, 0.00, 0.00,10.00, 0.00, 0.00,10.00,1718.00,1019.00,47.00,136,0,1
20150826172257657,-124.326420,48.264560,101.84,-0.50, 9.30,340.90,19,19,356.40,-0.70, 9.20, 0.39,-0.05,-0.03,-0.25, 0.00, 0.00,10.00, 0.00, 0.00,10.00,1736.00,978.00,48.00,145,0,1
20150826172257857,-124.326450,48.264590,101.76,-0.60, 9.40,342.30,19,19,357.80,-0.70, 9.20, 0.38,-0.04,-0.04,-0.25, 0.00, 0.00,10.00, 0.00, 0.00,10.00,1753.00,937.00,51.00,154,0,1
20150826172258057,-124.326475,48.264620,101.66,-0.80, 9.40,343.60,19,19,359.10,-0.70, 9.20, 0.38,-0.05,-0.04,-0.25, 0.00, 0.00,10.00, 0.00, 0.00,10.00,1770.00,896.00,56.00,163,0,1
20150826172258257,-124.326495,48.264655,101.55,-0.90, 9.30,344.90,19,19, 0.50,-0.70, 9.30, 0.39,-0.04,-0.03,-0.26, 0.00, 0.00,10.00, 0.00, 0.00,10.00,1786.00,854.00,61.00,172,0,1
20150826172258457,-124.326520,48.264685,101.44,-0.90, 9.30,346.20,19,19, 1.80,-0.70, 9.30, 0.39,-0.04,-0.04,-0.26, 0.00, 0.00,10.00, 0.00, 0.00,10.00,1801.00,812.00,64.00,181,0,1
20150826172258657,-124.326545,48.264720,101.32,-0.90, 9.20,347.50,19,19, 3.20,-0.70, 9.40, 0.38,-0.03,-0.03,-0.26, 0.00, 0.00,10.00, 0.00, 0.00,10.00,1815.00,769.00,65.00,190,0,1
20150826172258857,-124.326560,48.264750,101.21,-0.80, 9.20,348.80,19,19, 4.40,-0.60, 9.30, 0.38,-0.03,-0.03,-0.26, 0.00, 0.00,10.00, 0.00, 0.00,10.00,1828.00,726.00,62.00,199,0,1
20150826172259057,-124.326580,48.264785,101.10,-0.70, 9.30,350.10,19,19, 5.80,-0.60, 9.40, 0.39,-0.03,-0.03,-0.27, 0.00, 0.00,10.00, 0.00, 0.00,10.00,1840.00,682.00,59.00,208,0,1
20150826172259258,-124.326595,48.264820,101.00,-0.50, 9.40,351.40,19,19, 7.20,-0.60, 9.40, 0.39,-0.03,-0.03,-0.27, 0.00, 0.00,10.00, 0.00, 0.00,10.00,1850.00,637.00,55.00,217,0,1
20150826172259458,-124.326610,48.264850,100.91,-0.40, 9.50,352.80,19,19, 8.50,-0.60, 9.40, 0.39,-0.03,-0.03,-0.27, 0.00, 0.00,10.00, 0.00, 0.00,10.00,1859.00,592.00,50.00,226,0,1
20150826172259657,-124.326625,48.264885,100.82,-0.30, 9.60,354.20,19,19, 9.90,-0.60, 9.40, 0.39,-0.04,-0.04,-0.27, 0.00, 0.00,10.00, 0.00, 0.00,10.00,1867.00,546.00,46.00,235,0,1
20150826172259857,-124.326640,48.264915,100.75,-0.30, 9.70,355.60,19,19,11.10,-0.50, 9.20, 0.39,-0.04,-0.04,-0.27, 0.00, 0.00,10.00, 0.00, 0.00,10.00,1873.00,500.00,45.00,244,0,1
20150826172300057,-124.326660,48.264950,100.67,-0.40, 9.50,356.90,18,18,12.50,-0.50, 9.30, 0.39,-0.04,-0.04,-0.27, 0.00, 0.00,10.00, 0.00, 0.00,10.00,1878.00,454.00,46.00,253,0,1
20150826172300257,-124.326665,48.264985,100.59,-0.40, 9.40,358.20,18,18,13.80,-0.50, 9.30, 0.39,-0.04,-0.04,-0.27, 0.00, 0.00,10.00, 0.00, 0.00,10.00,1881.00,409.00,47.00,6,0,1
20150826172300457,-124.326680,48.265020,100.51,-0.40, 9.30,359.50,18,18,15.20,-0.50, 9.40, 0.38,-0.04,-0.04,-0.27, 0.00, 0.00,10.00, 0.00, 0.00,10.00,1884.00,365.00,48.00,15,0,1
20150826172300657,-124.326690,48.265055,100.43,-0.40, 9.20, 0.80,18,18,16.50,-0.50, 9.40, 0.38,-0.04,-0.03,-0.27, 0.00, 0.00,10.00, 0.00, 0.00,10.00,1886.00,320.00,49.00,24,0,1
20150826172300857,-124.326695,48.265090,100.35,-0.40, 9.20, 2.10,18,18,17.80,-0.50, 9.40, 0.38,-0.04,-0.03,-0.28, 0.00, 0.00,10.00, 0.00, 0.00,10.00,1888.00,275.00,50.00,33,0,1
20150826172301056,-124.326705,48.265125,100.26,-0.40, 9.20, 3.30,18,18,19.20,-0.50, 9.50, 0.38,-0.04,-0.03,-0.28, 0.00, 0.00,10.00, 0.00, 0.00,10.00,1888.00,231.00,51.00,42,0,1
20150826172301261,-124.326705,48.265155,100.18,-0.50, 9.30, 4.50,18,18,20.30,-0.50, 9.40, 0.39,-0.04,-0.03,-0.28, 0.00, 0.00,10.00, 0.00, 0.00,10.00,1888.00,191.00,51.00,50,0,1
20150826172301461,-124.326710,48.265190,100.10,-0.50, 9.40, 5.80,18,18,21.70,-0.50, 9.50, 0.39,-0.04,-0.03,-0.28, 0.00, 0.00,10.00, 0.00, 0.00,10.00,1886.00,147.00,52.00,59,0,1
20150826172301656,-124.326710,48.265220,100.00,-0.60, 9.50, 7.20,18,18,23.00,-0.50, 9.40, 0.39,-0.04,-0.03,-0.28, 0.00, 0.00,10.00, 0.00, 0.00,10.00,1884.00,102.00,54.00,68,0,1
20150826172301856,-124.326720,48.265255,99.91,-0.60, 9.60, 8.60,18,18,24.30,-0.50, 9.40, 0.39,-0.04,-0.03,-0.28, 0.00, 0.00,10.00, 0.00, 0.00,10.00,1880.00,56.00,55.00,77,0,1
20150826172302056,-124.326720,48.265285,99.81,-0.70, 9.60, 9.90,18,18,25.50,-0.50, 9.30, 0.39,-0.04,-0.04,-0.28, 0.00, 0.00,10.00, 0.00, 0.00,10.00,1875.00,10.00,57.00,86,0,1
20150826172302256,-124.326720,48.265320,99.71,-0.70, 9.40,11.20,18,18,26.80,-0.50, 9.30, 0.39,-0.04,-0.04,-0.28, 0.00, 0.00,10.00, 0.00, 0.00,10.00,1870.00,34.00,59.00,95,0,1
20150826172302456,-124.326710,48.265355,99.61,-0.70, 9.30,12.50,18,18,28.20,-0.50, 9.40, 0.39,-0.04,-0.04,-0.28, 0.00, 0.00,10.00, 0.00, 0.00,10.00,1863.00,79.00,61.00,104,0,1
20150826172302656,-124.326710,48.265390,99.50,-0.70, 9.30,13.80,18,18,29.50, 0.00, 9.40, 0.39,-0.02,-0.03,-0.28, 0.00, 0.00,10.00, 0.00, 0.00,10.00,1856.00,123.00,62.00,113,0,1
20150826172302856,-124.326710,48.265425,99.40,-0.40, 9.30,15.20,18,18,30.90, 0.10, 9.40, 0.38,-0.02,-0.03,-0.29, 0.00, 0.00,10.00, 0.00, 0.00,10.00,1848.00,168.00,58.00,122,0,1
20150826172303056,-124.326705,48.265460,99.31,-0.10, 9.30,16.50,18,18,32.20, 0.20, 9.40, 0.39,-0.02,-0.03,-0.29, 0.00, 0.00,10.00, 0.00, 0.00,10.00,1837.00,213.00,47.00,131,0,1
20150826172303256,-124.326695,48.265490,99.24, 0.10, 9.30,17.90,18,18,33.40, 0.20, 9.20, 0.39,-0.02,-0.04,-0.29, 0.00, 0.00,10.00, 0.00, 0.00,10.00,1824.00,258.00,36.00,140,0,1
20150826172303456,-124.326690,48.265525,99.20, 0.40, 9.30,19.30,18,18,34.80, 0.30, 9.20, 0.38,-0.02,-0.04,-0.29, 0.00, 0.00,10.00, 0.00, 0.00,10.00,1809.00,302.00,25.00,149,0,1
20150826172303656,-124.326680,48.265555,99.18, 0.70, 9.20,20.50,18,18,36.00, 0.30, 9.20, 0.39,-0.02,-0.04,-0.28, 0.00, 0.00,10.00, 0.00, 0.00,10.00,1794.00,341.00,17.00,157,0,1
