timestamp,lon,lat,alt,pitch,roll,yaw,dyaw,airspeed,groundspeed, yawcmd,pitchcmd,rollcmd,tyaw,tpitch,troll,throttle,rvx,rvy,rvz,accx,accy,accz,speN,speE,speD,gpsSta,nStNum,insSta
20150827081738752,-124.319570,48.266880,-0.01, 0.90, 0.00,81.40,0,0, 0.00, 0.00, 0.00, 0.00, 0.00, 0.00,-1.00, 0.00, 0.00, 0.00, 0.00, 0.00, 0.00, 0.00, 0.00, 0.00,122,0,1
20150827081738845,-124.319570,48.266880,-0.01, 0.90, 0.00,81.40,0,0, 0.00, 0.00, 0.00, 0.00, 0.00, 0.00,-1.00, 0.00, 0.00, 0.00, 0.00, 0.00, 0.00, 0.00, 0.00, 0.00,131,0,1
20150827081739044,-124.319570,48.266880,-0.01, 0.90, 0.00,81.40,0,0, 0.00, 0.00, 0.00, 0.00, 0.00, 0.00,-1.00, 0.00, 0.00, 0.00, 0.00, 0.00, 0.00, 0.00, 0.00, 0.00,139,0,1
20150827081739245,-124.319570,48.266880,-0.01, 0.90, 0.00,81.40,0,0, 0.00, 0.00, 0.00, 0.00, 0.00, 0.00,-1.00, 0.00, 0.00, 0.00, 0.00, 0.00, 0.00, 0.00, 0.00, 0.00,148,0,1
20150827081739445,-124.319570,48.266880,-0.01, 0.90, 0.00,81.40,0,0, 0.00, 0.00, 0.00, 0.00, 0.00, 0.00,-1.00, 0.00, 0.00, 0.00, 0.00, 0.00, 0.00, 0.00, 0.00, 0.00,157,0,1
20150827081739645,-124.319570,48.266880,-0.01, 0.90, 0.00,81.40,0,0, 0.00, 0.00, 0.00, 0.00, 0.00, 0.00,-1.00, 0.00, 0.00, 0.00, 0.00, 0.00, 0.00, 0.00, 0.00, 0.00,165,0,1
20150827081739846,-124.319570,48.266880,-0.01, 0.90, 0.00,81.40,0,0, 0.00, 0.00, 0.00, 0.00,-0.02, 0.00, 0.00, 0.00, 0.00, 0.00, 0.00, 0.00, 0.00, 0.00, 0.00, 0.00,174,0,1
20150827081740045,-124.319570,48.266880,-0.01, 0.90,-0.10,81.40,0,0, 0.00, 0.00, 0.00, 0.00,-0.02, 0.00, 0.00, 0.00, 0.00, 0.00, 0.00, 0.00, 0.00, 0.00, 0.00, 0.00,182,0,1
20150827081740246,-124.319570,48.266880,-0.01, 1.00,-0.10,81.40,0,0, 0.00, 0.00, 0.00, 0.00,-0.03, 0.00, 0.00, 0.00, 0.00, 0.00, 0.00, 0.00, 0.00, 0.00, 0.00, 0.00,191,0,1
20150827081740445,-124.319570,48.266880,-0.01, 1.10,-0.20,81.40,0,0, 0.00, 0.00, 0.00, 0.00,-0.04, 0.00, 0.00, 0.00, 0.00, 0.00, 0.00, 0.00, 0.00, 0.00, 0.00, 0.00,199,0,1
20150827081740645,-124.319570,48.266880,-0.01, 1.30,-0.20,81.40,0,0, 0.00, 0.00, 0.00, 0.00,-0.05, 0.00, 0.00, 0.00, 0.00, 0.00, 0.00, 0.00, 0.00, 0.00, 0.00, 0.00,208,0,1
20150827081740845,-124.319570,48.266880,-0.01, 1.40,-0.20,81.40,0,0, 0.00, 0.00, 0.00, 0.00,-0.05, 0.00, 0.00, 0.00, 0.00, 0.00, 0.00, 0.00, 0.00, 0.00, 0.00, 0.00,216,0,1
20150827081741045,-124.319570,48.266880,-0.01, 1.40,-0.20,81.40,0,0, 0.00, 0.00, 0.00, 0.00,-0.06, 0.00, 0.00, 0.00, 0.00, 0.00, 0.00, 0.00, 0.00, 0.00, 0.00, 0.00,225,0,1
20150827081741245,-124.319570,48.266880,-0.01, 1.40,-0.20,81.40,0,0, 0.00, 0.00, 0.00, 0.00,-0.07, 0.00, 0.00, 0.00, 0.00, 0.00, 0.00, 0.00, 0.00, 0.00, 0.00, 0.00,233,0,1
20150827081741445,-124.319570,48.266880,-0.01, 1.30,-0.10,81.40,0,0, 0.00, 0.00, 0.00, 0.00,-0.07, 0.00, 0.00, 0.00, 0.00, 0.00, 0.00, 0.00, 0.00, 0.00, 0.00, 0.00,242,0,1
20150827081741645,-124.319570,48.266880,-0.01, 1.30,-0.10,81.40,0,0, 0.00, 0.00, 0.00, 0.00,-0.07, 0.00, 0.00, 0.00, 0.00, 0.00, 0.00, 0.00, 0.00, 0.00, 0.00, 0.00,251,0,1
20150827081741845,-124.319570,48.266880,-0.01, 1.30,-0.10,81.40,0,0, 0.00, 0.00, 0.00, 0.00,-0.08, 0.00, 0.00, 0.00, 0.00, 0.00, 0.00, 0.00, 0.00, 0.00, 0.00, 0.00,3,0,1
20150827081742045,-124.319570,48.266880,-0.01, 1.30,-0.10,81.40,0,0, 0.00, 0.00, 0.00, 0.00,-0.09, 0.00, 0.00, 0.00, 0.00, 0.00, 0.00, 0.00, 0.00, 0.00, 0.00, 0.00,12,0,1
20150827081742245,-124.319570,48.266880,-0.01, 1.20,-0.10,81.40,0,0, 0.00, 0.00, 0.00, 0.00,-0.09, 0.00, 0.00, 0.00, 0.00, 0.00, 0.00, 0.00, 0.00, 0.00, 0.00, 0.00,20,0,1
20150827081742444,-124.319570,48.266880,-0.01, 1.20,-0.10,81.40,0,0, 0.00,10.00, 0.00, 0.00,-0.07, 0.00, 0.00, 0.00, 0.00, 0.00, 0.00, 0.00, 0.00, 0.00, 0.00, 0.00,29,0,1
20150827081742645,-124.319570,48.266880,-0.01, 1.30,-0.10,81.40,0,0, 0.00,10.00, 0.00, 0.00, 0.00, 0.00, 0.00, 0.00, 0.00, 0.00, 0.00, 0.00, 0.00, 0.00, 0.00, 0.00,38,0,1
20150827081742851,-124.319570,48.266880,-0.01, 1.70,-0.10,81.40,0,0, 0.00,10.00, 0.00, 0.00, 0.09, 0.00, 0.00, 0.00, 0.00, 0.00, 0.00, 0.00, 0.00, 0.00, 0.00, 0.00,46,0,1
20150827081743044,-124.319570,48.266880,-0.01, 2.40,-0.10,81.40,0,0, 0.00,10.00, 0.00, 0.00, 0.11, 0.00, 0.00, 0.00, 0.00, 0.00, 0.00, 0.00, 0.00, 0.00, 0.00, 0.00,55,0,1
20150827081743244,-124.319570,48.266880,-0.01, 2.80,-0.10,81.40,0,0, 0.00,10.00, 0.00, 0.00, 0.11, 0.00, 0.00, 0.00, 0.00, 0.00, 0.00, 0.00, 0.00, 0.00, 0.00, 0.00,63,0,1
20150827081743444,-124.319570,48.266880,-0.01, 2.90,-0.10,81.40,0,0, 0.00,10.00, 0.00, 0.00, 0.11, 0.00, 0.00, 0.00, 0.00, 0.00, 0.00, 0.00, 0.00, 0.00, 0.00, 0.00,72,0,1
20150827081743644,-124.319570,48.266880,-0.01, 2.70,-0.10,81.40,0,0, 0.00,10.00, 0.00, 0.00, 0.13, 0.00, 0.00, 0.00, 0.00, 0.00, 0.00, 0.00, 0.00, 0.00, 0.00, 0.00,80,0,1
20150827081743844,-124.319570,48.266880,-0.01, 2.70,-0.10,81.40,0,0, 0.00,10.00, 0.00, 0.00, 0.14, 0.00, 0.00, 0.00, 0.00, 0.00, 0.00, 0.00, 0.00, 0.00, 0.00, 0.00,89,0,1
20150827081744044,-124.319570,48.266880,-0.01, 2.80,-0.10,81.40,0,0, 0.00,10.00, 0.00, 0.00, 0.14, 0.00, 0.00, 0.00, 0.00, 0.00, 0.00, 0.00, 0.00, 0.00, 0.00, 0.00,97,0,1
20150827081744244,-124.319570,48.266880,-0.01, 2.90,-0.10,81.40,0,0, 0.00,10.00, 0.00, 0.00, 0.15, 0.00, 0.00, 0.00, 0.00, 0.00, 0.00, 0.00, 0.00, 0.00, 0.00, 0.00,106,0,1
20150827081744444,-124.319570,48.266880,-0.01, 3.00,-0.10,81.30,0,0, 0.00,10.00, 0.00, 0.00, 0.16, 0.00, 0.00, 0.00, 0.00, 0.00, 0.00, 0.00, 0.00, 6.00,47.00, 0.00,115,0,1
20150827081744644,-124.319570,48.266880,-0.01, 2.90, 0.00,80.90,1,1, 0.00,10.00, 0.00, 0.00, 0.17, 0.00, 0.00, 0.00, 0.00, 0.00, 0.00, 0.00, 0.00,18.00,118.00, 0.00,123,0,1
20150827081744844,-124.319560,48.266880,-0.01, 3.00, 0.00,80.10,1,1, 0.00,10.00, 0.00, 0.00, 0.18, 0.00, 0.00, 0.00, 0.00, 0.00, 0.00, 0.00, 0.00,33.00,195.00, 0.00,132,0,1
20150827081745044,-124.319560,48.266880,-0.01, 3.10, 0.00,79.10,2,2, 0.00,10.00, 0.00, 0.00, 0.19, 0.00, 0.00, 0.00, 0.00, 0.00, 0.00, 0.00, 0.00,49.00,260.00, 0.00,140,0,1
20150827081745244,-124.319555,48.266880,-0.01, 3.30, 0.00,78.00,3,3, 0.00,10.00, 0.00, 0.00, 0.20, 0.00, 0.00, 0.00, 0.00,-10.00, 0.00, 0.00,-10.00,67.00,325.00, 0.00,148,0,1
20150827081745445,-124.319540,48.266880, 0.00, 3.30, 0.00,76.90,3,3, 0.00,10.00, 0.00, 0.00, 0.21, 0.00, 0.00, 0.00, 0.00,-10.00, 0.00, 0.00,-10.00,88.00,387.00, 0.00,156,0,1
20150827081745644,-124.319530,48.266885, 0.00, 3.30, 0.00,75.70,4,4, 0.00,10.00, 0.00, 0.00, 0.22, 0.00, 0.00, 0.00, 0.00, 0.00, 0.00, 0.00, 0.00,112.00,452.00, 0.00,165,0,1
20150827081745844,-124.319515,48.266890, 0.00, 3.50, 0.00,74.60,5,5, 0.00,10.00, 0.00, 0.00, 0.23, 0.00, 0.00, 0.00, 0.00, 0.00, 0.00, 0.00, 0.00,138.00,514.00, 1.00,174,0,1
20150827081746048,-124.319500,48.266890,-0.02, 4.10,-1.30,73.90,5,5, 0.00,10.00, 0.00, 0.00, 0.22, 0.03, 0.00, 0.00, 0.00, 0.00, 0.00, 0.00, 0.00,157.00,559.00,15.00,182,0,1
20150827081746243,-124.319485,48.266895,-0.03, 4.60,-0.50,73.20,6,6, 0.00,10.00, 0.00, 0.00, 0.22, 0.03, 0.00, 0.00, 0.00, 0.00, 0.00, 0.00, 0.00,177.00,604.00,10.00,191,0,1
20150827081746443,-124.319470,48.266895,-0.04, 5.00,-0.90,72.60,6,6, 0.00,10.00, 0.00, 0.00, 0.23, 0.03, 0.00, 0.00, 0.00, 0.00, 0.00, 0.00, 0.00,197.00,647.00, 1.00,200,0,1
20150827081746644,-124.319450,48.266900,-0.04, 5.70,-0.80,72.30,7,7, 0.00,10.00, 0.00, 0.00, 0.22, 0.03, 0.00, 0.00, 0.00, 0.00, 0.00, 0.00, 0.00,217.00,690.00, 7.00,209,0,1
20150827081746844,-124.319435,48.266905,-0.05, 6.60,-0.60,72.10,7,7, 0.00,10.00, 0.00, 0.00, 0.21, 0.03, 0.00, 0.00, 0.00, 0.00, 0.00, 0.00, 0.00,234.00,726.00, 2.00,217,0,1
20150827081747043,-124.319410,48.266910,-0.03, 7.80,-0.20,72.00,7,7, 0.00,10.00, 0.00, 0.00, 0.19, 0.03, 0.00, 0.00,10.00, 0.00, 0.00,10.00, 0.00,251.00,766.00, 3.00,226,0,1
20150827081747244,-124.319385,48.266910,-0.01, 9.40, 0.00,72.00,8,8, 0.00,10.00, 0.00, 0.00, 0.16, 0.03, 0.00, 0.00,10.00, 0.00, 0.00,10.00, 0.00,266.00,802.00, 9.00,235,0,1
20150827081747443,-124.319370,48.266920, 0.00,11.00,-0.30,72.10,8,8, 0.00,10.00, 0.00, 0.00, 0.14, 0.03, 0.00, 0.00,10.00, 0.00, 0.00,10.00, 0.00,280.00,834.00, 8.00,244,0,1
20150827081747643,-124.319350,48.266925, 0.04,12.40,-0.50,72.20,8,8, 0.00,10.00, 0.00, 0.00, 0.11, 0.03, 0.00, 0.00,10.00, 0.00, 0.00,10.00, 0.00,292.00,860.00,24.00,253,0,1
20150827081748151,-124.319320,48.266925, 0.14,13.50,-0.60,72.40,9,9, 0.00,10.00, 0.00, 0.00, 0.10, 0.03, 0.00, 0.00, 0.00, 0.00, 0.00, 0.00, 0.00,303.00,882.00,54.00,7,0,1
20150827081748657,-124.319295,48.266935, 0.27,14.30,-0.70,72.40,9,9, 0.00,10.00, 0.00, 0.00, 0.09, 0.03, 0.00, 0.00, 0.00, 0.00, 0.00, 0.00, 0.00,311.00,896.00,78.00,16,0,1
20150827081748664,-124.319270,48.266940, 0.47,14.90,-0.80,72.30,9,9, 0.00,10.00, 0.00, 0.00, 0.07, 0.03, 0.00, 0.00, 0.00, 0.00, 0.00, 0.00, 0.00,319.00,908.00,102.00,26,0,1
20150827081749168,-124.319250,48.266945, 0.71,15.40,-1.00,72.00,9,9, 0.00,10.00, 0.00, 0.00, 0.06, 0.05, 0.00, 0.00, 0.00, 0.00, 0.00, 0.00, 0.00,326.00,917.00,121.00,36,0,1
20150827081749176,-124.319225,48.266950, 0.95,15.60,-1.00,71.60,9,9, 0.00,10.00, 0.00, 0.00, 0.05, 0.05, 0.00, 0.00, 0.00, 0.00, 0.00, 0.00, 0.00,332.00,922.00,134.00,45,0,1
20150827081749180,-124.319195,48.266960, 1.25,15.80,-0.90,71.20,9,9, 0.00,10.00, 0.00, 0.00, 0.05, 0.05, 0.00, 0.00, 0.00, 0.00, 0.00, 0.00, 0.00,339.00,927.00,145.00,55,0,1
20150827081749686,-124.319175,48.266965, 1.57,16.00,-0.90,70.80,9,9, 0.00,10.00, 0.00, 0.00, 0.04, 0.05, 0.00, 0.00, 0.00, 0.00, 0.00, 0.00, 0.00,346.00,931.00,152.00,65,0,1
20150827081749701,-124.319150,48.266970, 1.87,16.00,-0.80,70.40,10,10, 0.00,10.00, 0.00, 0.00, 0.04, 0.05, 0.00, 0.00, 0.00, 0.00, 0.00, 0.00, 0.00,352.00,935.00,158.00,74,0,1
20150827081750205,-124.319120,48.266975, 2.21,16.10,-0.70,70.20,10,10, 0.00,10.00, 0.00, 0.00, 0.04, 0.05, 0.00, 0.00, 0.00, 0.00, 0.00, 0.00, 0.00,359.00,938.00,162.00,84,0,1
20150827081750213,-124.319095,48.266985, 2.55,16.10,-0.60,70.00,10,10, 0.00,10.00, 0.00, 0.00, 0.04, 0.05, 0.00, 0.00, 0.00, 0.00, 0.00, 0.00, 0.00,366.00,941.00,166.00,94,0,1
20150827081750217,-124.319075,48.266990, 2.88,16.20,-0.40,69.90,10,10, 0.00,10.00, 0.00, 0.00, 0.04, 0.05, 0.00, 0.00, 0.00, 0.00, 0.00, 0.00, 0.00,371.00,944.00,169.00,103,0,1
20150827081750225,-124.319045,48.266995, 3.24,16.20,-0.20,69.80,10,10, 0.00,10.00, 0.00, 0.00, 0.04, 0.05, 0.00, 0.00, 0.00, 0.00, 0.00, 0.00, 0.00,375.00,948.00,172.00,113,0,1
20150827081750245,-124.319020,48.267005, 3.57,16.20, 0.00,69.80,10,10, 0.00,10.00, 0.00, 0.00, 0.04, 0.05, 0.00, 0.00, 0.00, 0.00, 0.00, 0.00, 0.00,379.00,951.00,174.00,122,0,1
20150827081750442,-124.319000,48.267010, 3.96,16.30, 0.20,69.70,10,10, 0.00,10.00, 0.00, 0.00, 0.03, 0.05, 0.00, 0.00, 0.00, 0.00, 0.00, 0.00, 0.00,382.00,954.00,177.00,132,0,1
20150827081750642,-124.318965,48.267015, 4.30,16.20, 0.50,69.70,10,10, 0.00,10.00, 0.00, 0.00, 0.02, 0.05, 0.00, 0.00, 0.00, 0.00, 0.00, 0.00, 0.00,383.00,957.00,179.00,141,0,1
20150827081750844,-124.318945,48.267020, 4.65,16.10, 0.70,69.70,10,10, 0.00,10.00, 0.00, 0.00, 0.02, 0.05, 0.00, 0.00, 0.00, 0.00, 0.00, 0.00, 0.00,385.00,961.00,180.00,150,0,1
20150827081751045,-124.318920,48.267030, 5.03,15.80, 1.00,69.70,10,10, 0.00,10.00, 0.00, 0.00, 0.01, 0.03, 0.00, 0.00, 0.00, 0.00, 0.00, 0.00, 0.00,386.00,966.00,178.00,159,0,1
20150827081751242,-124.318890,48.267040, 5.40,15.40, 1.00,69.80,10,10, 0.00,10.00, 0.00, 0.00, 0.01, 0.03, 0.00, 0.00, 0.00, 0.00, 0.00, 0.00, 0.00,387.00,973.00,174.00,168,0,1
20150827081751442,-124.318860,48.267045, 5.77,14.90, 1.00,70.00,10,10, 0.00,10.00, 0.00, 0.00, 0.01, 0.02, 0.00, 0.00, 0.00, 0.00, 0.00, 0.00, 0.00,388.00,981.00,168.00,178,0,1
20150827081751642,-124.318840,48.267050, 6.09,14.50, 0.90,70.20,10,10, 0.00,10.00, 0.00, 0.00, 0.01, 0.02, 0.00, 0.00, 0.00, 0.00, 0.00, 0.00, 0.00,390.00,989.00,163.00,187,0,1
20150827081751843,-124.318805,48.267055, 6.44,14.00, 0.80,70.40,10,10, 0.00,10.00, 0.00, 0.00, 0.01, 0.02, 0.00, 0.00, 0.00, 0.00, 0.00, 0.00, 0.00,392.00,999.00,157.00,197,0,1
20150827081752043,-124.318785,48.267065, 6.74,13.60, 0.80,70.50,10,10, 0.00,10.00, 0.00, 0.00, 0.01, 0.02, 0.00, 0.00, 0.00, 0.00, 0.00, 0.00, 0.00,394.00,1009.00,153.00,206,0,1
20150827081752242,-124.318760,48.267070, 7.03,13.30, 0.70,70.60,10,10, 0.00,10.00, 0.00, 0.00, 0.01, 0.02, 0.00, 0.00, 0.00, 0.00, 0.00, 0.00, 0.00,396.00,1019.00,148.00,214,0,1
20150827081752442,-124.318730,48.267080, 7.32,12.90, 0.60,70.70,11,11, 0.00,10.00, 0.00, 0.00, 0.01, 0.02, 0.00, 0.00, 0.00, 0.00, 0.00, 0.00, 0.00,398.00,1031.00,144.00,222,0,1
20150827081752650,-124.318700,48.267085, 7.62,12.40, 0.50,70.70,11,11, 0.00,10.00, 0.00, 0.00, 0.01, 0.02, 0.00, 0.00, 0.00, 0.00, 0.00, 0.00, 0.00,401.00,1043.00,139.00,231,0,1
20150827081752842,-124.318675,48.267090, 7.91,12.00, 0.40,70.80,11,11, 0.00,10.00, 0.00, 0.00, 0.01, 0.02, 0.00, 0.00, 0.00, 0.00, 0.00, 0.00, 0.00,405.00,1056.00,135.00,240,0,1
20150827081753042,-124.318640,48.267100, 8.21,11.60, 0.30,70.80,11,11, 0.00,10.00, 0.00, 0.00, 0.01, 0.02, 0.00, 0.00, 0.00, 0.00, 0.00, 0.00, 0.00,410.00,1070.00,131.00,250,0,1
20150827081753242,-124.318615,48.267105, 8.47,11.30, 0.20,70.90,11,11, 0.00,10.00, 0.00, 0.00, 0.00, 0.02, 0.00, 0.00, 0.00, 0.00, 0.00, 0.00, 0.00,414.00,1083.00,127.00,3,0,1
20150827081753442,-124.318585,48.267115, 8.72,10.90, 0.20,70.90,11,11, 0.00,10.00, 0.00, 0.00, 0.00, 0.02, 0.00, 0.00, 0.00, 0.00, 0.00, 0.00, 0.00,419.00,1096.00,124.00,12,0,1
20150827081753642,-124.318555,48.267120, 8.97,10.60, 0.10,71.00,11,11, 0.00,10.00, 0.00, 0.00, 0.00, 0.02, 0.00, 0.00, 0.00, 0.00, 0.00, 0.00, 0.00,424.00,1110.00,121.00,21,0,1
20150827081753842,-124.318525,48.267130, 9.22,10.20, 0.00,71.00,12,12, 0.00,10.00, 0.00, 0.00, 0.00, 0.02, 0.00, 0.00, 0.00, 0.00, 0.00, 0.00, 0.00,430.00,1124.00,117.00,30,0,1
20150827081754042,-124.318495,48.267135, 9.48, 9.80, 0.00,71.00,12,12, 0.00,10.00, 0.00, 0.00, 0.00, 0.02, 0.00, 0.00, 0.00, 0.00, 0.00, 0.00, 0.00,436.00,1140.00,114.00,40,0,1
20150827081754242,-124.318465,48.267145, 9.71, 9.50, 0.00,71.10,12,12, 0.00,10.00, 0.00, 0.00, 0.00, 0.02, 0.00, 0.00, 0.00, 0.00, 0.00, 0.00, 0.00,441.00,1155.00,111.00,49,0,1
20150827081754442,-124.318435,48.267150, 9.93, 9.30, 0.00,71.10,12,12, 0.00,10.00, 0.00, 0.00, 0.00, 0.02, 0.00, 0.00, 0.00, 0.00, 0.00, 0.00, 0.00,447.00,1169.00,109.00,58,0,1
20150827081754641,-124.318405,48.267165,10.16, 9.00, 0.00,71.10,12,12, 0.00,10.00, 0.00, 0.00, 0.00, 0.02, 0.00, 0.00, 0.00, 0.00, 0.00, 0.00, 0.00,453.00,1184.00,107.00,67,0,1
20150827081754841,-124.318365,48.267170,10.38, 8.70,-0.10,71.10,12,12, 0.00,10.00, 0.00, 0.00, 0.00, 0.02, 0.00, 0.00, 0.00, 0.00, 0.00, 0.00, 0.00,460.00,1200.00,104.00,76,0,1
20150827081755042,-124.318335,48.267180,10.60, 8.40,-0.10,71.10,13,13, 0.00,10.00, 0.00, 0.00, 0.00, 0.02, 0.00, 0.00, 0.00, 0.00, 0.00, 0.00, 0.00,466.00,1215.00,102.00,85,0,1
20150827081755241,-124.318305,48.267185,10.81, 8.10,-0.10,71.10,13,13, 0.00,10.00, 0.00, 0.00,-0.01, 0.02, 0.00, 0.00, 0.00, 0.00, 0.00, 0.00, 0.00,472.00,1231.00,99.00,94,0,1
20150827081755441,-124.318265,48.267195,11.02, 7.80,-0.10,71.10,13,13, 0.00,10.00, 0.00, 0.00,-0.01, 0.02, 0.00, 0.00, 0.00, 0.00, 0.00, 0.00, 0.00,479.00,1246.00,97.00,103,0,1
20150827081755641,-124.318235,48.267205,11.22, 7.60,-0.10,71.10,13,13, 0.00,10.00, 0.00, 0.00,-0.01, 0.02, 0.00, 0.00, 0.00, 0.00, 0.00, 0.00, 0.00,485.00,1262.00,95.00,112,0,1
20150827081755846,-124.318205,48.267215,11.40, 7.40,-0.10,71.10,13,13, 0.00,10.00, 0.00, 0.00,-0.01, 0.02, 0.00, 0.00, 0.00, 0.00, 0.00, 0.00, 0.00,491.00,1276.00,93.00,120,0,1
20150827081756041,-124.318165,48.267220,11.60, 7.20,-0.10,71.10,13,13, 0.00,10.00, 0.00, 0.00,-0.01, 0.02, 0.00, 0.00, 0.00, 0.00, 0.00, 0.00, 0.00,497.00,1292.00,92.00,129,0,1
20150827081756241,-124.318135,48.267230,11.79, 7.00,-0.10,71.10,14,14, 0.00,10.00, 0.00, 0.00, 0.00, 0.02, 0.00, 0.00, 0.00, 0.00, 0.00, 0.00, 0.00,503.00,1308.00,91.00,138,0,1
20150827081756441,-124.318095,48.267240,11.99, 7.00,-0.10,71.20,14,14, 0.00,10.00, 0.00, 0.00, 0.00, 0.02, 0.00, 0.00, 0.00, 0.00, 0.00, 0.00, 0.00,509.00,1323.00,91.00,147,0,1
20150827081756641,-124.318060,48.267250,12.19, 7.10, 0.00,71.20,14,14, 0.00,10.00, 0.00, 0.00, 0.00, 0.02, 0.00, 0.00, 0.00, 0.00, 0.00, 0.00, 0.00,515.00,1338.00,95.00,156,0,1
20150827081756841,-124.318020,48.267260,12.40, 7.30, 0.00,71.20,14,14, 0.00,10.00, 0.00, 0.00, 0.00, 0.02, 0.00, 0.00, 0.00, 0.00, 0.00, 0.00, 0.00,520.00,1350.00,102.00,165,0,1
20150827081757041,-124.317985,48.267265,12.63, 7.60, 0.00,71.20,14,14, 0.00,10.00, 0.00, 0.00, 0.00, 0.02, 0.00, 0.00, 0.00, 0.00, 0.00, 0.00, 0.00,524.00,1361.00,112.00,174,0,1
20150827081757242,-124.317955,48.267280,12.88, 7.90, 0.00,71.30,14,14, 0.00,10.00, 0.00, 0.00, 0.00, 0.02, 0.00, 0.00, 0.00, 0.00, 0.00, 0.00, 0.00,527.00,1371.00,123.00,183,0,1
20150827081757442,-124.317915,48.267285,13.15, 8.30, 0.10,71.30,14,14, 0.00,10.00, 0.00, 0.00, 0.00, 0.02, 0.00, 0.00, 0.00, 0.00, 0.00, 0.00, 0.00,529.00,1379.00,136.00,192,0,1
20150827081757642,-124.317875,48.267295,13.44, 8.70, 0.10,71.30,14,14, 0.00,10.00, 0.00, 0.00, 0.00, 0.02, 0.00, 0.00, 0.00, 0.00, 0.00, 0.00, 0.00,531.00,1385.00,148.00,201,0,1
20150827081757842,-124.317840,48.267305,13.76, 9.10, 0.20,71.40,14,14, 0.00,10.00, 0.00, 0.00, 0.00, 0.02, 0.00, 0.00, 0.00, 0.00, 0.00, 0.00, 0.00,532.00,1390.00,161.00,210,0,1
20150827081758042,-124.317800,48.267310,14.07, 9.40, 0.20,71.40,14,14, 0.00,10.00, 0.00, 0.00, 0.00, 0.02, 0.00, 0.00, 0.00, 0.00, 0.00, 0.00, 0.00,532.00,1393.00,172.00,218,0,1
20150827081758241,-124.317760,48.267325,14.48, 9.80, 0.30,71.50,15,15, 0.00,10.00, 0.00, 0.00, 0.00, 0.02, 0.00, 0.00, 0.00, 0.00, 0.00, 0.00, 0.00,531.00,1396.00,184.00,228,0,1
20150827081758441,-124.317725,48.267330,14.87,10.10, 0.40,71.60,15,15, 0.00,10.00, 0.00, 0.00, 0.00, 0.02, 0.00, 0.00, 0.00, 0.00, 0.00, 0.00, 0.00,530.00,1397.00,194.00,237,0,1
20150827081758641,-124.317685,48.267345,15.28,10.50, 0.50,71.60,15,15, 0.00,10.00, 0.00, 0.00,-0.01, 0.02, 0.00, 0.00, 0.00, 0.00, 0.00, 0.00, 0.00,528.00,1397.00,205.00,246,0,1
20150827081758841,-124.317645,48.267350,15.71,10.80, 0.50,71.70,15,15, 0.00,10.00, 0.00, 0.00,-0.01, 0.02, 0.00, 0.00, 0.00, 0.00, 0.00, 0.00, 0.00,526.00,1396.00,215.00,255,0,1
20150827081759041,-124.317610,48.267360,16.16,11.10, 0.60,71.80,15,15, 0.00,10.00, 0.00, 0.00,-0.01, 0.02, 0.00, 0.00, 0.00, 0.00, 0.00, 0.00, 0.00,523.00,1395.00,223.00,8,0,1
20150827081759241,-124.317570,48.267370,16.62,11.30, 0.70,71.90,15,15, 0.00,10.00, 0.00, 0.00,-0.01, 0.02, 0.00, 0.00, 0.00, 0.00, 0.00, 0.00, 0.00,520.00,1394.00,229.00,17,0,1
20150827081759441,-124.317535,48.267380,17.14,11.50, 0.80,72.00,15,15, 0.00,10.00, 0.00, 0.00,-0.02, 0.02, 0.00, 0.00, 0.00, 0.00, 0.00, 0.00, 0.00,516.00,1392.00,235.00,27,0,1
20150827081759642,-124.317495,48.267390,17.61,11.60, 0.80,72.10,14,14, 0.00,10.00, 0.00, 0.00,-0.02, 0.02, 0.00, 0.00, 0.00, 0.00, 0.00, 0.00, 0.00,513.00,1390.00,239.00,36,0,1
20150827081759841,-124.317465,48.267395,18.09,11.60, 0.90,72.20,14,14, 0.00,10.00, 0.00, 0.00,-0.03, 0.02, 0.00, 0.00, 0.00, 0.00, 0.00, 0.00, 0.00,509.00,1389.00,240.00,45,0,1
20150827081800041,-124.317425,48.267410,18.56,11.40, 1.00,72.30,14,14, 0.00,10.00, 0.00, 0.00,-0.03, 0.00, 0.00, 0.00, 0.00, 0.00, 0.00, 0.00, 0.00,506.00,1388.00,238.00,54,0,1
20150827081800241,-124.317390,48.267415,19.04,11.30, 0.60,72.50,14,14, 0.00,10.00, 0.00, 0.00,-0.03, 0.00, 0.00, 0.00, 0.00, 0.00, 0.00, 0.00, 0.00,502.00,1388.00,234.00,63,0,1
20150827081800441,-124.317350,48.267425,19.55,11.00, 0.10,72.60,14,14, 0.00,10.00, 0.00, 0.00,-0.03, 0.00, 0.00, 0.00, 0.00, 0.00, 0.00, 0.00, 0.00,501.00,1390.00,228.00,73,0,1
20150827081800641,-124.317310,48.267435,19.99,10.80,-0.20,72.70,14,14, 0.00,10.00, 0.00, 0.00,-0.03, 0.00, 0.00, 0.00, 0.00, 0.00, 0.00, 0.00, 0.00,500.00,1391.00,221.00,82,0,1
20150827081800841,-124.317275,48.267440,20.43,10.50,-0.60,72.80,14,14, 0.00,10.00, 0.00, 0.00,-0.03, 0.00, 0.00, 0.00, 0.00, 0.00, 0.00, 0.00, 0.00,501.00,1393.00,215.00,91,0,1
20150827081801041,-124.317235,48.267455,20.89,10.30,-1.10,72.70,14,14, 0.00,10.00, 0.00, 0.00,-0.03, 0.03, 0.00, 0.00, 0.00, 0.00, 0.00, 0.00, 0.00,503.00,1395.00,209.00,101,0,1
20150827081801241,-124.317195,48.267460,21.30,10.00,-0.80,72.50,14,14,185.90, 4.50,20.00, 0.00,-0.07, 0.13, 0.50, 0.00, 0.00, 0.00, 0.00, 0.00, 0.00,507.00,1399.00,203.00,110,0,1
20150827081801441,-124.317160,48.267470,21.70, 9.30, 1.90,72.10,15,15,185.90,13.00,20.00, 0.05,-0.10, 0.34, 0.51,40.00, 0.00, 0.00,40.00, 0.00, 0.00,511.00,1416.00,197.00,119,0,1
20150827081801641,-124.317120,48.267480,22.08, 8.10, 8.10,71.90,15,15,185.90,15.00,20.00, 0.33,-0.06, 0.31, 0.50,50.00,-10.00, 0.00,50.00,-10.00, 0.00,514.00,1449.00,174.00,128,0,1
20150827081801841,-124.317085,48.267490,22.41, 7.10,14.00,73.80,15,15,185.90,15.00,20.00, 0.60, 0.05, 0.17, 0.49,40.00, 0.00,20.00,40.00, 0.00,20.00,509.00,1492.00,144.00,137,0,1
20150827081802041,-124.317045,48.267495,22.69, 7.20,18.50,79.00,16,16,186.00,15.00,20.00, 0.78, 0.12, 0.07, 0.49,20.00,20.00,50.00,20.00,20.00,50.00,473.00,1536.00,144.00,146,0,1
20150827081802241,-124.317000,48.267505,23.05, 8.20,22.90,87.10,15,15,186.00,15.00,20.00, 0.82, 0.12,-0.02, 0.50,20.00,30.00,60.00,20.00,30.00,60.00,370.00,1570.00,197.00,155,0,1
20150827081802441,-124.316960,48.267510,23.51, 9.50,26.40,94.60,15,15,186.10,15.00,20.00, 0.79, 0.09,-0.10, 0.52,10.00,30.00,50.00,10.00,30.00,50.00,223.00,1577.00,269.00,163,0,1
20150827081802646,-124.316915,48.267510,24.15,10.90,28.50,100.80,15,15,186.20,15.00,20.00, 0.76, 0.06,-0.14, 0.54, 0.00,30.00,30.00, 0.00,30.00,30.00,45.00,1558.00,333.00,172,0,1
20150827081802841,-124.316870,48.267510,24.93,12.60,29.10,105.40,15,15,186.30,15.00,20.00, 0.75, 0.03,-0.15, 0.56, 0.00,20.00,20.00, 0.00,20.00,20.00,131.00,1521.00,377.00,182,0,1
20150827081803041,-124.316830,48.267505,25.69,13.90,28.70,108.60,15,15,186.50,15.00,20.00, 0.75, 0.01,-0.14, 0.57,-10.00,20.00,10.00,-10.00,20.00,10.00,268.00,1482.00,400.00,191,0,1
20150827081803241,-124.316795,48.267500,26.49,14.70,28.10,112.00,15,15,186.70,15.00,20.00, 0.75, 0.00,-0.14, 0.58,-10.00,10.00,20.00,-10.00,10.00,20.00,389.00,1443.00,413.00,200,0,1
20150827081803441,-124.316755,48.267490,27.37,14.70,27.60,116.30,15,15,186.80,15.00,20.00, 0.74, 0.00,-0.13, 0.59,-10.00,10.00,30.00,-10.00,10.00,30.00,505.00,1399.00,417.00,210,0,1
20150827081803641,-124.316715,48.267480,28.19,14.40,27.60,121.10,15,15,187.10,15.00,20.00, 0.75, 0.02,-0.14, 0.60,-10.00,10.00,30.00,-10.00,10.00,30.00,610.00,1351.00,415.00,219,0,1
20150827081803850,-124.316680,48.267470,29.02,14.30,27.80,126.30,15,15,187.30,15.00,20.00, 0.75, 0.03,-0.16, 0.62, 0.00,20.00,30.00, 0.00,20.00,30.00,718.00,1290.00,414.00,228,0,1
20150827081804041,-124.316650,48.267455,29.78,14.50,27.80,131.00,15,15,187.50,15.00,20.00, 0.75, 0.03,-0.17, 0.63,-10.00,20.00,30.00,-10.00,20.00,30.00,816.00,1222.00,418.00,236,0,1
20150827081804241,-124.316615,48.267440,30.68,15.10,27.70,136.10,15,15,187.70,15.00,20.00, 0.75, 0.03,-0.17, 0.64,-10.00,20.00,30.00,-10.00,20.00,30.00,923.00,1130.00,428.00,245,0,1
20150827081804441,-124.316585,48.267425,31.52,15.80,27.30,140.50,15,15,188.00,15.00,20.00, 0.75, 0.02,-0.17, 0.65,-10.00,20.00,30.00,-10.00,20.00,30.00,1013.00,1039.00,440.00,253,0,1
20150827081804640,-124.316565,48.267405,32.38,16.40,26.90,144.80,15,15,188.20,15.00,20.00, 0.75, 0.01,-0.18, 0.66,-10.00,20.00,30.00,-10.00,20.00,30.00,1093.00,942.00,452.00,5,0,1
20150827081804840,-124.316540,48.267385,33.29,16.80,26.40,149.20,15,15,188.40,15.00,20.00, 0.74, 0.00,-0.17, 0.68,-10.00,10.00,30.00,-10.00,10.00,30.00,1164.00,842.00,460.00,13,0,1
20150827081805040,-124.316520,48.267360,34.22,17.00,25.90,153.60,15,15,188.70,15.00,20.00, 0.75, 0.00,-0.17, 0.69,-10.00,10.00,30.00,-10.00,10.00,30.00,1227.00,741.00,464.00,21,0,1
20150827081805240,-124.316495,48.267340,35.15,17.20,25.60,158.10,15,15,189.00,15.00,20.00, 0.75, 0.00,-0.18, 0.70,-10.00,10.00,30.00,-10.00,10.00,30.00,1281.00,637.00,467.00,29,0,1
20150827081805441,-124.316480,48.267315,36.06,17.40,25.10,162.40,15,15,189.30,15.00,17.40, 0.67, 0.00,-0.24, 0.71,-10.00,10.00,30.00,-10.00,10.00,30.00,1325.00,534.00,470.00,37,0,1
20150827081805640,-124.316470,48.267290,37.04,17.60,23.20,166.50,15,15,189.50,15.00,14.30, 0.57,-0.01,-0.28, 0.72,-30.00,10.00,20.00,-30.00,10.00,20.00,1365.00,423.00,470.00,46,0,1
20150827081805840,-124.316465,48.267265,37.91,18.10,20.40,169.50,15,15,189.80,15.00,12.20, 0.50,-0.03,-0.28, 0.72,-30.00,10.00,20.00,-30.00,10.00,20.00,1393.00,332.00,470.00,54,0,1
20150827081806040,-124.316450,48.267240,38.88,18.60,16.90,171.90,15,15,190.10,15.00,10.90, 0.45,-0.05,-0.23, 0.73,-30.00, 0.00,10.00,-30.00, 0.00,10.00,1416.00,244.00,471.00,63,0,1
20150827081806240,-124.316450,48.267220,39.54,18.80,14.60,173.10,15,15,190.30,15.00,10.30, 0.43,-0.06,-0.20, 0.74,-30.00, 0.00,10.00,-30.00, 0.00,10.00,1428.00,193.00,472.00,72,0,1
20150827081806440,-124.316450,48.267220,39.54,18.80,14.60,173.10,15,15,190.30,15.00,10.30, 0.43,-0.07,-0.22, 0.75,-30.00, 0.00,10.00,-30.00, 0.00,10.00,1428.00,193.00,472.00,82,0,1
20150827081806640,-124.316450,48.267220,39.54,18.80,14.60,173.10,15,15,190.30,15.00,10.30, 0.43,-0.08,-0.23, 0.76,-30.00, 0.00,10.00,-30.00, 0.00,10.00,1428.00,193.00,472.00,92,0,1
20150827081806840,-124.316450,48.267220,39.54,18.80,14.60,173.10,15,15,190.30,15.00,10.30, 0.43,-0.08,-0.24, 0.77,-30.00, 0.00,10.00,-30.00, 0.00,10.00,1428.00,193.00,472.00,102,0,1
20150827081807040,-124.316450,48.267220,39.54,18.80,14.60,173.10,15,15,190.30,15.00,10.30, 0.43,-0.09,-0.25, 0.78,-30.00, 0.00,10.00,-30.00, 0.00,10.00,1428.00,193.00,472.00,112,0,1
20150827081807240,-124.316450,48.267220,39.54,18.80,14.60,173.10,15,15,190.30,15.00,10.30, 0.43,-0.10,-0.26, 0.79,-30.00, 0.00,10.00,-30.00, 0.00,10.00,1428.00,193.00,472.00,122,0,1
20150827081807440,-124.316450,48.267220,39.54,18.80,14.60,173.10,15,15,190.30,15.00,10.30, 0.43,-0.11,-0.28, 0.80,-30.00, 0.00,10.00,-30.00, 0.00,10.00,1428.00,193.00,472.00,132,0,1
20150827081807639,-124.316450,48.267220,39.54,18.80,14.60,173.10,15,15,190.30,15.00,10.30, 0.43,-0.12,-0.29, 0.81,-30.00, 0.00,10.00,-30.00, 0.00,10.00,1428.00,193.00,472.00,142,0,1
20150827081807839,-124.316450,48.267220,39.54,18.80,14.60,173.10,15,15,190.30,15.00,10.30, 0.43,-0.13,-0.30, 0.82,-30.00, 0.00,10.00,-30.00, 0.00,10.00,1428.00,193.00,472.00,152,0,1
20150827081808039,-124.316450,48.267220,39.54,18.80,14.60,173.10,15,15,190.30,15.00,10.30, 0.43,-0.14,-0.30, 0.83,-30.00, 0.00,10.00,-30.00, 0.00,10.00,1428.00,193.00,472.00,162,0,1
20150827081808240,-124.316450,48.267220,39.54,18.80,14.60,173.10,15,15,190.30,15.00,10.30, 0.43,-0.15,-0.30, 0.84,-30.00, 0.00,10.00,-30.00, 0.00,10.00,1428.00,193.00,472.00,172,0,1
20150827081808439,-124.316450,48.267220,39.54,18.80,14.60,173.10,15,15,190.30,15.00,10.30, 0.43,-0.16,-0.30, 0.85,-30.00, 0.00,10.00,-30.00, 0.00,10.00,1428.00,193.00,472.00,182,0,1
20150827081808639,-124.316450,48.267220,39.54,18.80,14.60,173.10,15,15,190.30,15.00,10.30, 0.43,-0.17,-0.30, 0.86,-30.00, 0.00,10.00,-30.00, 0.00,10.00,1428.00,193.00,472.00,192,0,1
20150827081808844,-124.316450,48.267220,39.54,18.80,14.60,173.10,15,15,190.30,15.00,10.30, 0.43,-0.18,-0.30, 0.87,-30.00, 0.00,10.00,-30.00, 0.00,10.00,1428.00,193.00,472.00,201,0,1
20150827081809040,-124.316450,48.267220,39.54,18.80,14.60,173.10,15,15,190.30,15.00,10.30, 0.43,-0.19,-0.30, 0.88,-30.00, 0.00,10.00,-30.00, 0.00,10.00,1428.00,193.00,472.00,212,0,1
20150827081809240,-124.316450,48.267220,39.54,18.80,14.60,173.10,15,15,190.30,15.00,10.30, 0.43,-0.20,-0.30, 0.89,-30.00, 0.00,10.00,-30.00, 0.00,10.00,1428.00,193.00,472.00,222,0,1
20150827081809439,-124.316450,48.267220,39.54,18.80,14.60,173.10,15,15,190.30,15.00,10.30, 0.43,-0.21,-0.30, 0.90,-30.00, 0.00,10.00,-30.00, 0.00,10.00,1428.00,193.00,472.00,232,0,1
20150827081809639,-124.316450,48.267220,39.54,18.80,14.60,173.10,15,15,190.30,15.00,10.30, 0.43,-0.22,-0.30, 0.90,-30.00, 0.00,10.00,-30.00, 0.00,10.00,1428.00,193.00,472.00,242,0,1
20150827081809840,-124.316450,48.267220,39.54,18.80,14.60,173.10,15,15,190.30,15.00,10.30, 0.43,-0.23,-0.30, 0.91,-30.00, 0.00,10.00,-30.00, 0.00,10.00,1428.00,193.00,472.00,252,0,1
20150827081810040,-124.316450,48.267220,39.54,18.80,14.60,173.10,15,15,190.30,15.00,10.30, 0.43,-0.24,-0.30, 0.92,-30.00, 0.00,10.00,-30.00, 0.00,10.00,1428.00,193.00,472.00,6,0,1
20150827081810239,-124.316450,48.267220,39.54,18.80,14.60,173.10,15,15,190.30,15.00,10.30, 0.43,-0.25,-0.30, 0.93,-30.00, 0.00,10.00,-30.00, 0.00,10.00,1428.00,193.00,472.00,16,0,1
20150827081810439,-124.316450,48.267220,39.54,18.80,14.60,173.10,15,15,190.30,15.00,10.30, 0.43,-0.26,-0.30, 0.94,-30.00, 0.00,10.00,-30.00, 0.00,10.00,1428.00,193.00,472.00,25,0,1
20150827081810643,-124.316450,48.267220,39.54,18.80,14.60,173.10,15,15,190.30,15.00,10.30, 0.43,-0.27,-0.30, 0.95,-30.00, 0.00,10.00,-30.00, 0.00,10.00,1428.00,193.00,472.00,36,0,1
20150827081810839,-124.316450,48.267220,39.54,18.80,14.60,173.10,15,15,190.30,15.00,10.30, 0.43,-0.28,-0.30, 0.96,-30.00, 0.00,10.00,-30.00, 0.00,10.00,1428.00,193.00,472.00,44,0,1
20150827081811039,-124.316450,48.267220,39.54,18.80,14.60,173.10,15,15,190.30,15.00,10.30, 0.43,-0.29,-0.30, 0.97,-30.00, 0.00,10.00,-30.00, 0.00,10.00,1428.00,193.00,472.00,54,0,1
20150827081811239,-124.316450,48.267220,39.54,18.80,14.60,173.10,15,15,190.30,15.00,10.30, 0.43,-0.29,-0.30, 0.98,-30.00, 0.00,10.00,-30.00, 0.00,10.00,1428.00,193.00,472.00,64,0,1
20150827081811439,-124.316450,48.267220,39.54,18.80,14.60,173.10,15,15,190.30,15.00,10.30, 0.43,-0.29,-0.30, 0.99,-30.00, 0.00,10.00,-30.00, 0.00,10.00,1428.00,193.00,472.00,73,0,1
20150827081811639,-124.316450,48.267220,39.54,18.80,14.60,173.10,15,15,190.30,15.00,10.30, 0.43,-0.29,-0.30, 0.99,-30.00, 0.00,10.00,-30.00, 0.00,10.00,1428.00,193.00,472.00,83,0,1
20150827081811838,-124.316450,48.267220,39.54,18.80,14.60,173.10,15,15,190.30,15.00,10.30, 0.43,-0.29,-0.30, 0.99,-30.00, 0.00,10.00,-30.00, 0.00,10.00,1428.00,193.00,472.00,93,0,1
20150827081812039,-124.316450,48.267220,39.54,18.80,14.60,173.10,15,15,190.30,15.00,10.30, 0.43,-0.29,-0.30, 0.99,-30.00, 0.00,10.00,-30.00, 0.00,10.00,1428.00,193.00,472.00,103,0,1
20150827081812239,-124.316450,48.267220,39.54,18.80,14.60,173.10,15,15,190.30,15.00,10.30, 0.43,-0.29,-0.30, 0.99,-30.00, 0.00,10.00,-30.00, 0.00,10.00,1428.00,193.00,472.00,113,0,1
20150827081812439,-124.316450,48.267220,39.54,18.80,14.60,173.10,15,15,190.30,15.00,10.30, 0.43,-0.29,-0.30, 0.99,-30.00, 0.00,10.00,-30.00, 0.00,10.00,1428.00,193.00,472.00,123,0,1
20150827081812638,-124.316450,48.267220,39.54,18.80,14.60,173.10,15,15,190.30,15.00,10.30, 0.43,-0.29,-0.30, 0.99,-30.00, 0.00,10.00,-30.00, 0.00,10.00,1428.00,193.00,472.00,133,0,1
20150827081812839,-124.316450,48.267220,39.54,18.80,14.60,173.10,15,15,190.30,15.00,10.30, 0.43,-0.29,-0.30, 0.99,-30.00, 0.00,10.00,-30.00, 0.00,10.00,1428.00,193.00,472.00,142,0,1
20150827081813038,-124.316450,48.267215,39.79,18.60,13.70,173.20,15,15,190.30,15.00,10.20, 0.42,-0.28,-0.28, 0.99,-30.00,-10.00, 0.00,-30.00,-10.00, 0.00,1422.00,160.00,498.00,145,0,1
20150827081813239,-124.316440,48.267195,40.69,15.70, 9.80,171.50,15,15,190.50,15.00,11.40, 0.41,-0.21,-0.15, 0.99,-20.00,-30.00,-10.00,-20.00,-30.00,-10.00,1438.00,95.00,483.00,153,0,1
20150827081813438,-124.316440,48.267165,41.55,12.00, 6.70,168.60,15,15,190.80,15.00,13.70, 0.27,-0.12,-0.02, 0.98,-10.00,-20.00,-20.00,-10.00,-20.00,-20.00,1499.00,76.00,378.00,162,0,1
20150827081813638,-124.316440,48.267135,42.21,10.10, 5.70,166.50,15,15,191.10,15.00,15.60, 0.22,-0.07, 0.04, 0.96, 0.00,-10.00,-10.00, 0.00,-10.00,-10.00,1566.00,78.00,293.00,171,0,1
20150827081813838,-124.316440,48.267105,42.74, 9.60, 6.10,166.40,16,16,191.40,15.00,16.00, 0.23,-0.06, 0.04, 0.94, 0.00, 0.00, 0.00, 0.00, 0.00, 0.00,1622.00,83.00,261.00,180,0,1
20150827081814038,-124.316435,48.267080,43.24, 9.70, 6.90,168.30,16,16,191.70,15.00,14.60, 0.27,-0.06, 0.00, 0.91, 0.00, 0.00,20.00, 0.00, 0.00,20.00,1668.00,76.00,266.00,189,0,1
20150827081814238,-124.316435,48.267050,43.77, 9.90, 7.30,171.20,17,17,192.00,15.00,12.60, 0.30,-0.07,-0.06, 0.89, 0.00, 0.00,20.00, 0.00, 0.00,20.00,1707.00,52.00,284.00,198,0,1
20150827081814439,-124.316435,48.267015,44.39,10.00, 6.80,174.10,17,17,192.30,15.00,10.90, 0.28,-0.07,-0.09, 0.87,-10.00, 0.00,10.00,-10.00, 0.00,10.00,1740.00,11.00,301.00,208,0,1
20150827081814639,-124.316435,48.266985,44.98,10.20, 5.80,175.60,17,17,192.60,15.00,10.20, 0.24,-0.07,-0.09, 0.85,-10.00, 0.00, 0.00,-10.00, 0.00, 0.00,1765.00,29.00,314.00,217,0,1
20150827081814839,-124.316435,48.266955,45.59,10.50, 4.60,175.80,18,18,192.90,15.00,10.20, 0.19,-0.08,-0.05, 0.84, 0.00, 0.00, 0.00, 0.00, 0.00, 0.00,1786.00,66.00,325.00,226,0,1
20150827081815039,-124.316440,48.266925,46.21,10.70, 3.70,175.10,18,18,193.20,15.00,10.80, 0.15,-0.09,-0.02, 0.83, 0.00, 0.00, 0.00, 0.00, 0.00, 0.00,1808.00,91.00,336.00,235,0,1
20150827081815239,-124.316440,48.266890,46.92,10.70, 3.00,174.30,18,18,193.60,15.00,11.50, 0.12,-0.09, 0.01, 0.82, 0.00, 0.00, 0.00, 0.00, 0.00, 0.00,1834.00,106.00,345.00,245,0,1
20150827081815439,-124.316440,48.266855,47.57,10.70, 3.00,174.20,18,18,193.90,15.00,11.80, 0.12,-0.09, 0.01, 0.81, 0.00, 0.00, 0.00, 0.00, 0.00, 0.00,1857.00,113.00,350.00,254,0,1
20150827081815639,-124.316450,48.266820,48.30,10.70, 3.20,175.00,18,18,194.30,15.00,11.50, 0.13,-0.09, 0.00, 0.80, 0.00, 0.00, 0.00, 0.00, 0.00, 0.00,1880.00,121.00,355.00,8,0,1
20150827081815838,-124.316450,48.266785,48.97,10.60, 3.40,176.20,19,19,194.60,15.00,11.00, 0.14,-0.09,-0.01, 0.79, 0.00, 0.00,10.00, 0.00, 0.00,10.00,1899.00,134.00,360.00,17,0,1
20150827081816043,-124.316455,48.266755,49.65,10.70, 3.40,177.20,19,19,194.90,15.00,10.60, 0.14,-0.09,-0.01, 0.78, 0.00, 0.00, 0.00, 0.00, 0.00, 0.00,1915.00,153.00,366.00,26,0,1
20150827081816238,-124.316455,48.266715,50.42,10.70, 3.20,177.90,19,19,195.30,15.00,10.40, 0.13,-0.09,-0.01, 0.77, 0.00, 0.00, 0.00, 0.00, 0.00, 0.00,1929.00,175.00,372.00,36,0,1
20150827081816438,-124.316465,48.266685,51.12,10.80, 3.00,178.10,19,19,195.70,15.00,10.50, 0.12,-0.09, 0.00, 0.76, 0.00, 0.00, 0.00, 0.00, 0.00, 0.00,1942.00,194.00,377.00,45,0,1
20150827081816642,-124.316470,48.266650,51.83,10.90, 3.10,178.10,19,19,196.00,15.00,10.70, 0.13,-0.08, 0.02, 0.75, 0.00, 0.00, 0.00, 0.00, 0.00, 0.00,1954.00,209.00,382.00,54,0,1
20150827081816838,-124.316480,48.266615,52.64,11.20, 3.60,178.40,19,19,196.30,15.00,10.70, 0.15,-0.07, 0.02, 0.75, 0.00, 0.00, 0.00, 0.00, 0.00, 0.00,1966.00,225.00,393.00,64,0,1
20150827081817038,-124.316480,48.266580,53.38,11.60, 4.20,179.20,20,20,196.70,15.00,10.50, 0.17,-0.07, 0.01, 0.74, 0.00, 0.00, 0.00, 0.00, 0.00, 0.00,1973.00,241.00,408.00,73,0,1
20150827081817239,-124.316490,48.266540,54.27,12.10, 4.80,180.50,20,20,197.10,15.00, 9.90, 0.20,-0.07, 0.00, 0.73, 0.00, 0.00,10.00, 0.00, 0.00,10.00,1976.00,265.00,429.00,83,0,1
20150827081817438,-124.316495,48.266510,55.09,12.50, 5.30,181.80,20,20,197.40,15.00, 9.30, 0.22,-0.07,-0.01, 0.73, 0.00, 0.00,10.00, 0.00, 0.00,10.00,1974.00,292.00,447.00,92,0,1
20150827081817638,-124.316505,48.266475,55.96,13.00, 5.60,182.90,20,20,197.80,15.00, 8.90, 0.23,-0.07,-0.01, 0.73, 0.00, 0.00, 0.00, 0.00, 0.00, 0.00,1969.00,322.00,465.00,101,0,1
20150827081817838,-124.316520,48.266440,56.89,13.50, 5.80,183.80,20,20,198.10,15.00, 8.50, 0.24,-0.07,-0.02, 0.73, 0.00, 0.00, 0.00, 0.00, 0.00, 0.00,1961.00,355.00,483.00,110,0,1
20150827081818038,-124.316525,48.266400,57.86,14.00, 6.00,184.70,20,20,198.50,15.00, 8.20, 0.25,-0.07,-0.01, 0.73, 0.00, 0.00, 0.00, 0.00, 0.00, 0.00,1951.00,388.00,500.00,119,0,1
20150827081818238,-124.316540,48.266365,58.85,14.40, 6.20,185.50,20,20,198.90,15.00, 8.00, 0.26,-0.07,-0.01, 0.73, 0.00, 0.00, 0.00, 0.00, 0.00, 0.00,1941.00,419.00,515.00,128,0,1
20150827081818438,-124.316550,48.266330,59.96,14.90, 6.50,186.60,20,20,199.30,15.00, 7.60, 0.27,-0.07,-0.01, 0.73, 0.00, 0.00, 0.00, 0.00, 0.00, 0.00,1927.00,454.00,530.00,138,0,1
20150827081818638,-124.316565,48.266300,60.98,15.30, 6.70,187.80,20,20,199.60,15.00, 7.00, 0.28,-0.07,-0.02, 0.73, 0.00, 0.00, 0.00, 0.00, 0.00, 0.00,1913.00,487.00,543.00,147,0,1
20150827081818838,-124.316580,48.266265,62.06,15.70, 6.90,189.00,20,20,200.00,15.00, 6.60, 0.27,-0.07,-0.02, 0.73, 0.00, 0.00, 0.00, 0.00, 0.00, 0.00,1897.00,521.00,555.00,156,0,1
20150827081819038,-124.316595,48.266230,63.14,16.10, 7.00,190.00,20,20,200.30,15.00, 6.10, 0.25,-0.07,-0.02, 0.73, 0.00, 0.00, 0.00, 0.00, 0.00, 0.00,1879.00,556.00,567.00,165,0,1
20150827081819238,-124.316610,48.266195,64.24,16.60, 7.10,190.90,20,20,200.70,15.00, 5.80, 0.24,-0.07,-0.02, 0.73, 0.00, 0.00, 0.00, 0.00, 0.00, 0.00,1861.00,591.00,578.00,174,0,1
20150827081819438,-124.316625,48.266165,65.37,17.00, 7.10,191.50,20,20,201.00,15.00, 5.70, 0.23,-0.07,-0.01, 0.74, 0.00, 0.00, 0.00, 0.00, 0.00, 0.00,1842.00,623.00,589.00,183,0,1
20150827081819638,-124.316640,48.266125,66.64,17.40, 7.20,192.30,20,20,201.40,15.00, 5.40, 0.22,-0.08,-0.01, 0.74, 0.00, 0.00, 0.00, 0.00, 0.00, 0.00,1822.00,657.00,600.00,193,0,1
20150827081819838,-124.316665,48.266095,67.81,17.80, 7.40,193.20,20,20,201.70,15.00, 5.10, 0.21,-0.08,-0.01, 0.74, 0.00, 0.00, 0.00, 0.00, 0.00, 0.00,1804.00,687.00,609.00,202,0,1
20150827081820037,-124.316680,48.266065,68.99,18.10, 7.60,194.20,20,20,202.00,15.00, 4.60, 0.19,-0.07,-0.01, 0.74, 0.00, 0.00, 0.00, 0.00, 0.00, 0.00,1785.00,718.00,617.00,211,0,1
20150827081820237,-124.316700,48.266035,70.19,18.40, 7.70,195.10,20,20,202.30,15.00, 4.30, 0.18,-0.07,-0.01, 0.74, 0.00, 0.00, 0.00, 0.00, 0.00, 0.00,1766.00,748.00,624.00,220,0,1
20150827081820438,-124.316715,48.266000,71.52,18.80, 7.70,196.00,19,19,202.70,15.00, 4.00, 0.17,-0.08,-0.01, 0.71, 0.00, 0.00, 0.00, 0.00, 0.00, 0.00,1744.00,781.00,632.00,230,0,1
20150827081820637,-124.316740,48.265970,72.72,19.10, 7.80,196.70,19,19,203.00,15.00, 3.70, 0.16,-0.08,-0.01, 0.68, 0.00, 0.00, 0.00, 0.00, 0.00, 0.00,1723.00,809.00,637.00,239,0,1
20150827081820837,-124.316760,48.265940,73.93,19.30, 7.90,197.50,19,19,203.40,15.00, 3.50, 0.14,-0.09, 0.00, 0.66, 0.00, 0.00, 0.00, 0.00, 0.00, 0.00,1702.00,835.00,641.00,248,0,1
20150827081821037,-124.316785,48.265910,75.27,19.40, 7.90,198.40,19,19,203.70,15.00, 3.10, 0.13,-0.09, 0.00, 0.63, 0.00, 0.00, 0.00, 0.00, 0.00, 0.00,1679.00,863.00,641.00,2,0,1
20150827081821237,-124.316810,48.265880,76.46,19.20, 8.00,199.20,19,19,204.00,14.40, 2.80, 0.12,-0.11, 0.00, 0.60, 0.00, 0.00, 0.00, 0.00, 0.00, 0.00,1659.00,888.00,634.00,11,0,1
20150827081821437,-124.316840,48.265850,77.78,18.60, 8.10,200.00,19,19,204.30,13.40, 2.60, 0.11,-0.13, 0.00, 0.60, 0.00, 0.00, 0.00, 0.00, 0.00, 0.00,1641.00,915.00,618.00,21,0,1
20150827081821637,-124.316860,48.265820,78.90,17.70, 8.10,200.60,19,19,204.60,12.50, 2.50, 0.10,-0.14, 0.00, 0.60, 0.00, 0.00, 0.00, 0.00, 0.00, 0.00,1632.00,939.00,590.00,30,0,1
20150827081821837,-124.316885,48.265790,80.06,16.30, 8.10,201.20,19,19,205.00,11.60, 2.40, 0.09,-0.13, 0.00, 0.60, 0.00,-10.00, 0.00, 0.00,-10.00, 0.00,1630.00,965.00,548.00,40,0,1
20150827081822037,-124.316915,48.265760,81.10,15.00, 8.10,201.90,19,19,205.30,11.00, 2.20, 0.08,-0.12, 0.00, 0.60, 0.00,-10.00, 0.00, 0.00,-10.00, 0.00,1633.00,992.00,503.00,50,0,1
20150827081822237,-124.316940,48.265730,82.02,13.80, 8.00,202.50,19,19,205.70,10.50, 2.10, 0.08,-0.12, 0.00, 0.60, 0.00, 0.00, 0.00, 0.00, 0.00, 0.00,1638.00,1019.00,462.00,60,0,1
20150827081822437,-124.316970,48.265700,82.94,12.70, 7.70,203.30,19,19,206.00, 9.90, 1.80, 0.06,-0.11,-0.01, 0.60, 0.00, 0.00, 0.00, 0.00, 0.00, 0.00,1643.00,1049.00,424.00,71,0,1
20150827081822637,-124.317000,48.265670,83.75,11.80, 7.20,204.00,19,19,206.30, 9.50, 1.60, 0.06,-0.11,-0.01, 0.60, 0.00, 0.00, 0.00, 0.00, 0.00, 0.00,1649.00,1079.00,394.00,82,0,1
20150827081822837,-124.317030,48.265640,84.44,11.00, 6.70,204.60,20,20,206.60, 9.10, 1.40, 0.05,-0.11,-0.01, 0.38, 0.00, 0.00, 0.00, 0.00, 0.00, 0.00,1655.00,1106.00,369.00,92,0,1
20150827081823041,-124.317060,48.265610,85.13,10.20, 6.20,205.20,20,20,207.00, 8.70, 1.30, 0.04,-0.11,-0.01, 0.36, 0.00, 0.00, 0.00, 0.00, 0.00, 0.00,1658.00,1131.00,343.00,103,0,1
20150827081823237,-124.317090,48.265580,85.82, 9.40, 5.70,205.80,20,20,207.30, 8.30, 1.20, 0.04,-0.11,-0.01, 0.33, 0.00, 0.00, 0.00, 0.00, 0.00, 0.00,1658.00,1155.00,315.00,115,0,1
20150827081823437,-124.317120,48.265550,86.41, 8.60, 5.20,206.40,20,20,207.70, 7.90, 1.10, 0.03,-0.10,-0.01, 0.31, 0.00, 0.00, 0.00, 0.00, 0.00, 0.00,1658.00,1176.00,288.00,127,0,1
20150827081823637,-124.317160,48.265520,86.94, 7.80, 4.70,206.90,20,20,208.10, 7.60, 1.00, 0.03,-0.10, 0.00, 0.29, 0.00, 0.00, 0.00, 0.00, 0.00, 0.00,1659.00,1196.00,262.00,139,0,1
20150827081823837,-124.317190,48.265490,87.43, 7.10, 4.20,207.30,20,20,208.40, 7.30, 1.00, 0.03,-0.10, 0.00, 0.27, 0.00, 0.00, 0.00, 0.00, 0.00, 0.00,1660.00,1214.00,239.00,151,0,1
20150827081824037,-124.317220,48.265460,87.86, 6.50, 3.70,207.80,20,20,208.80, 7.10, 0.90, 0.02,-0.10, 0.00, 0.25, 0.00, 0.00, 0.00, 0.00, 0.00, 0.00,1663.00,1232.00,217.00,163,0,1
20150827081824241,-124.317250,48.265430,88.22, 5.90, 3.30,208.10,20,20,209.10, 6.90, 0.90, 0.02,-0.10, 0.00, 0.23, 0.00, 0.00, 0.00, 0.00, 0.00, 0.00,1666.00,1247.00,198.00,174,0,1
20150827081824437,-124.317290,48.265400,88.60, 5.30, 2.90,208.60,20,20,209.50, 6.60, 0.90, 0.02,-0.10, 0.00, 0.21, 0.00, 0.00, 0.00, 0.00, 0.00, 0.00,1671.00,1264.00,176.00,187,0,1
20150827081824637,-124.317325,48.265370,88.91, 4.70, 2.50,208.90,20,20,209.90, 6.50, 0.90, 0.02,-0.09, 0.00, 0.19, 0.00, 0.00, 0.00, 0.00, 0.00, 0.00,1676.00,1279.00,157.00,199,0,1
20150827081824837,-124.317355,48.265340,89.19, 4.20, 2.10,209.20,21,21,210.20, 6.40, 1.00, 0.02,-0.09, 0.00, 0.17, 0.00, 0.00, 0.00, 0.00, 0.00, 0.00,1681.00,1293.00,140.00,211,0,1
20150827081825037,-124.317395,48.265310,89.43, 3.80, 1.70,209.50,21,21,210.60, 6.20, 1.00, 0.03,-0.09, 0.00, 0.15, 0.00, 0.00, 0.00, 0.00, 0.00, 0.00,1687.00,1307.00,125.00,223,0,1
20150827081825240,-124.317425,48.265285,89.63, 3.40, 1.40,209.80,21,21,211.00, 6.10, 1.10, 0.03,-0.08, 0.00, 0.14, 0.00, 0.00, 0.00, 0.00, 0.00, 0.00,1692.00,1318.00,113.00,234,0,1
20150827081825437,-124.317465,48.265250,89.84, 3.20, 1.20,210.10,21,21,211.40, 6.00, 1.20, 0.03,-0.07, 0.00, 0.12, 0.00, 0.00, 0.00, 0.00, 0.00, 0.00,1698.00,1330.00,101.00,247,0,1
20150827081825637,-124.317500,48.265220,90.01, 3.10, 0.90,210.30,21,21,211.80, 5.90, 1.30, 0.02,-0.07, 0.00, 0.10, 0.00, 0.00, 0.00, 0.00, 0.00, 0.00,1703.00,1341.00,97.00,3,0,1
20150827081825836,-124.317540,48.265190,90.19, 3.30, 0.70,210.40,21,21,212.20, 6.20, 1.50, 0.02,-0.06, 0.00, 0.09, 0.00, 0.00, 0.00, 0.00, 0.00, 0.00,1706.00,1350.00,99.00,15,0,1
20150827081826040,-124.317570,48.265160,90.36, 3.60, 0.50,210.50,21,21,212.60, 6.50, 1.70, 0.01,-0.05, 0.00, 0.08, 0.00, 0.00, 0.00, 0.00, 0.00, 0.00,1708.00,1357.00,107.00,26,0,1
20150827081826236,-124.317610,48.265130,90.57, 4.00, 0.20,210.50,21,21,213.00, 6.70, 2.00, 0.00,-0.05, 0.00, 0.07, 0.00, 0.00, 0.00, 0.00, 0.00, 0.00,1709.00,1362.00,122.00,38,0,1
20150827081826441,-124.317645,48.265095,90.81, 4.60, 0.10,210.50,21,21,213.40, 6.90, 2.20, 0.00,-0.05, 0.00, 0.07, 0.00, 0.00, 0.00, 0.00, 0.00, 0.00,1708.00,1365.00,141.00,50,0,1
20150827081826640,-124.317685,48.265065,91.09, 5.10, 0.00,210.50,21,21,213.90, 7.10, 2.60, 0.00,-0.05, 0.01, 0.06, 0.00, 0.00, 0.00, 0.00, 0.00, 0.00,1706.00,1366.00,161.00,62,0,1
20150827081826836,-124.317715,48.265035,91.42, 5.60, 0.00,210.50,21,21,214.30, 7.20, 2.80, 0.00,-0.05, 0.01, 0.06, 0.00, 0.00, 0.00, 0.00, 0.00, 0.00,1702.00,1365.00,180.00,74,0,1
20150827081827036,-124.317755,48.265005,91.78, 6.10, 0.00,210.60,21,21,214.70, 7.40, 3.10, 0.00,-0.06, 0.02, 0.05, 0.00, 0.00, 0.00, 0.00, 0.00, 0.00,1697.00,1364.00,197.00,86,0,1
20150827081827236,-124.317790,48.264975,92.17, 6.50, 0.20,210.70,21,21,215.10, 7.40, 3.30, 0.00,-0.06, 0.02, 0.05, 0.00, 0.00, 0.00, 0.00, 0.00, 0.00,1690.00,1362.00,213.00,98,0,1
20150827081827436,-124.317830,48.264945,92.59, 6.90, 0.60,210.80,21,21,215.60, 7.50, 3.60, 0.02,-0.06, 0.03, 0.04, 0.00, 0.00, 0.00, 0.00, 0.00, 0.00,1682.00,1361.00,226.00,110,0,1
20150827081827636,-124.317870,48.264915,93.04, 7.30, 1.10,211.00,21,21,216.00, 7.50, 3.00, 0.04,-0.06, 0.00, 0.04, 0.00, 0.00, 0.00, 0.00, 0.00, 0.00,1673.00,1361.00,239.00,122,0,1
20150827081827836,-124.317905,48.264885,93.51, 7.60, 1.20,211.40,21,21,216.40, 7.40, 3.00, 0.05,-0.06, 0.01, 0.03, 0.00, 0.00, 0.00, 0.00, 0.00, 0.00,1661.00,1361.00,249.00,134,0,1
20150827081828036,-124.317945,48.264855,93.99, 7.80, 1.50,211.90,21,21,216.90, 7.40, 3.00, 0.06,-0.06, 0.01, 0.03, 0.00, 0.00, 0.00, 0.00, 0.00, 0.00,1648.00,1363.00,258.00,146,0,1
20150827081828236,-124.317975,48.264825,94.50, 8.00, 1.80,212.30,21,21,217.30, 7.30, 3.00, 0.07,-0.06, 0.01, 0.03, 0.00, 0.00, 0.00, 0.00, 0.00, 0.00,1633.00,1365.00,265.00,158,0,1
20150827081828435,-124.318015,48.264800,95.01, 8.20, 2.20,212.70,21,21,217.70, 7.20, 3.00, 0.09,-0.06, 0.01, 0.03, 0.00, 0.00, 0.00, 0.00, 0.00, 0.00,1618.00,1369.00,269.00,170,0,1
20150827081828636,-124.318050,48.264770,95.54, 8.30, 2.50,213.10,21,21,218.20, 7.10, 3.00, 0.10,-0.06, 0.00, 0.03, 0.00, 0.00, 0.00, 0.00, 0.00, 0.00,1602.00,1373.00,272.00,182,0,1
20150827081828835,-124.318090,48.264735,96.07, 8.40, 2.80,213.60,21,21,218.70, 7.00, 3.00, 0.12,-0.07, 0.00, 0.02, 0.00, 0.00, 0.00, 0.00, 0.00, 0.00,1586.00,1379.00,274.00,194,0,1
20150827081829035,-124.318130,48.264710,96.59, 8.40, 3.10,214.20,20,20,219.10, 6.80, 2.90, 0.12,-0.07, 0.00, 0.02, 0.00, 0.00, 0.00, 0.00, 0.00, 0.00,1569.00,1385.00,273.00,206,0,1
20150827081829235,-124.318165,48.264685,97.12, 8.20, 3.50,214.70,20,20,219.50, 6.60, 2.90, 0.12,-0.08, 0.00, 0.02, 0.00, 0.00, 0.00, 0.00, 0.00, 0.00,1552.00,1394.00,268.00,218,0,1
20150827081829435,-124.318205,48.264655,97.62, 7.90, 3.70,215.20,20,20,220.00, 6.40, 2.90, 0.12,-0.08, 0.00, 0.02, 0.00, 0.00, 0.00, 0.00, 0.00, 0.00,1535.00,1404.00,257.00,230,0,1
20150827081829635,-124.318235,48.264630,98.06, 7.50, 3.90,215.60,20,20,220.30, 6.20, 2.90, 0.11,-0.08, 0.00, 0.01, 0.00, 0.00, 0.00, 0.00, 0.00, 0.00,1522.00,1414.00,244.00,241,0,1
20150827081829835,-124.318280,48.264600,98.55, 7.00, 4.10,216.00,20,20,220.80, 6.00, 3.00, 0.12,-0.08, 0.00, 0.01, 0.00, 0.00, 0.00, 0.00, 0.00, 0.00,1508.00,1428.00,226.00,254,0,1
20150827081830035,-124.318320,48.264575,98.97, 6.50, 4.30,216.50,20,20,221.30, 5.80, 3.10, 0.12,-0.08, 0.00, 0.00, 0.00, 0.00, 0.00, 0.00, 0.00, 0.00,1496.00,1441.00,209.00,10,0,1
20150827081830235,-124.318355,48.264545,99.35, 6.10, 4.30,217.10,20,20,221.70, 5.60, 3.00, 0.11,-0.08, 0.00, 0.00, 0.00, 0.00, 0.00, 0.00, 0.00, 0.00,1485.00,1455.00,192.00,22,0,1
20150827081830435,-124.318395,48.264520,99.69, 5.60, 4.20,217.70,20,20,222.20, 5.50, 3.00, 0.11,-0.08,-0.01, 0.00, 0.00, 0.00, 0.00, 0.00, 0.00, 0.00,1474.00,1470.00,176.00,34,0,1
20150827081830635,-124.318440,48.264495,100.01, 5.20, 4.00,218.20,20,20,222.70, 5.30, 3.00, 0.11,-0.08,-0.01,-0.01, 0.00, 0.00, 0.00, 0.00, 0.00, 0.00,1464.00,1486.00,160.00,46,0,1
20150827081830835,-124.318480,48.264465,100.29, 4.70, 3.80,218.70,20,20,223.10, 5.20, 3.00, 0.11,-0.07,-0.01,-0.01, 0.00, 0.00, 0.00, 0.00, 0.00, 0.00,1455.00,1501.00,145.00,58,0,1
20150827081831035,-124.318515,48.264445,100.55, 4.40, 3.60,219.20,20,20,223.50, 5.00, 3.00, 0.10,-0.07,-0.01,-0.02, 0.00, 0.00, 0.00, 0.00, 0.00, 0.00,1447.00,1516.00,130.00,70,0,1
20150827081831235,-124.318565,48.264415,100.78, 4.00, 3.40,219.60,20,20,224.00, 4.80, 3.10, 0.11,-0.07, 0.00,-0.03, 0.00, 0.00, 0.00, 0.00, 0.00, 0.00,1440.00,1531.00,118.00,82,0,1
20150827081831435,-124.318600,48.264390,100.98, 3.80, 3.30,220.10,20,20,224.50, 4.70, 3.20, 0.11,-0.06, 0.00,-0.04, 0.00, 0.00, 0.00, 0.00, 0.00, 0.00,1433.00,1546.00,108.00,94,0,1
20150827081831634,-124.318645,48.264365,101.17, 3.60, 3.10,220.60,21,21,225.00, 4.50, 3.20, 0.10,-0.06, 0.00,-0.05, 0.00, 0.00, 0.00, 0.00, 0.00, 0.00,1426.00,1560.00,100.00,106,0,1
20150827081831834,-124.318685,48.264340,101.35, 3.50, 3.00,221.10,21,21,225.40, 4.40, 3.20, 0.10,-0.06, 0.00,-0.06, 0.00, 0.00, 0.00, 0.00, 0.00, 0.00,1418.00,1574.00,97.00,118,0,1
20150827081832034,-124.318730,48.264315,101.52, 3.60, 2.90,221.50,21,21,225.90, 4.20, 3.30, 0.09,-0.06, 0.00,-0.06, 0.00, 0.00, 0.00, 0.00, 0.00, 0.00,1410.00,1588.00,97.00,130,0,1
20150827081832240,-124.318770,48.264285,101.70, 3.60, 2.80,221.80,21,21,226.40, 4.00, 3.50, 0.09,-0.06, 0.00,-0.07, 0.00, 0.00, 0.00, 0.00, 0.00, 0.00,1401.00,1600.00,98.00,142,0,1
20150827081832436,-124.318815,48.264260,101.89, 3.60, 2.80,222.20,21,21,226.90, 3.90, 3.60, 0.09,-0.06, 0.00,-0.08, 0.00, 0.00, 0.00, 0.00, 0.00, 0.00,1393.00,1613.00,99.00,155,0,1
20150827081832635,-124.318860,48.264240,102.06, 3.70, 2.90,222.50,21,21,227.40, 3.70, 3.70, 0.09,-0.06, 0.00,-0.09, 0.00, 0.00, 0.00, 0.00, 0.00, 0.00,1385.00,1623.00,100.00,167,0,1
20150827081832839,-124.318905,48.264215,102.24, 3.60, 3.00,223.00,21,21,227.90, 3.50, 2.90, 0.12,-0.06, 0.00,-0.10, 0.00, 0.00, 0.00, 0.00, 0.00, 0.00,1376.00,1634.00,100.00,179,0,1
20150827081833036,-124.318950,48.264190,102.43, 3.60, 2.90,223.70,21,21,228.40, 3.30, 2.80, 0.12,-0.06, 0.00,-0.10, 0.00, 0.00, 0.00, 0.00, 0.00, 0.00,1366.00,1645.00,99.00,192,0,1
20150827081833235,-124.318990,48.264165,102.60, 3.50, 3.00,224.30,21,21,228.90, 3.00, 2.80, 0.11,-0.06, 0.00,-0.11, 0.00, 0.00, 0.00, 0.00, 0.00, 0.00,1355.00,1656.00,98.00,204,0,1
20150827081833439,-124.319035,48.264140,102.77, 3.40, 3.10,224.80,21,21,229.40, 2.90, 2.90, 0.11,-0.07, 0.00,-0.12, 0.00, 0.00, 0.00, 0.00, 0.00, 0.00,1343.00,1668.00,95.00,216,0,1
20150827081833635,-124.319080,48.264115,102.94, 3.10, 3.20,225.10,21,21,229.90, 2.70, 3.00, 0.12,-0.07, 0.00,-0.12, 0.00, 0.00, 0.00, 0.00, 0.00, 0.00,1331.00,1680.00,88.00,229,0,1
20150827081833835,-124.319125,48.264095,103.09, 2.80, 3.10,225.50,21,21,230.40, 2.50, 2.90, 0.12,-0.07,-0.01,-0.13, 0.00, 0.00, 0.00, 0.00, 0.00, 0.00,1322.00,1692.00,78.00,241,0,1
20150827081834039,-124.319175,48.264070,103.21, 2.50, 3.00,225.90,21,21,230.90, 2.20, 3.00, 0.12,-0.07, 0.00,-0.14, 0.00, 0.00, 0.00, 0.00, 0.00, 0.00,1314.00,1703.00,67.00,253,0,1
20150827081834235,-124.319220,48.264045,103.31, 2.10, 3.00,226.40,21,21,231.40, 2.10, 3.00, 0.12,-0.07, 0.00,-0.15, 0.00, 0.00, 0.00, 0.00, 0.00, 0.00,1305.00,1716.00,54.00,10,0,1
20150827081834435,-124.319270,48.264020,103.39, 1.70, 3.00,227.00,21,21,232.10, 1.90, 3.00, 0.12,-0.07, 0.00,-0.16, 0.00, 0.00, 0.00, 0.00, 0.00, 0.00,1296.00,1729.00,41.00,23,0,1
20150827081834635,-124.319310,48.263995,103.44, 1.40, 3.00,227.50,21,21,232.60, 1.70, 3.00, 0.12,-0.07, 0.00,-0.17, 0.00, 0.00, 0.00, 0.00, 0.00, 0.00,1287.00,1742.00,29.00,35,0,1
20150827081834835,-124.319365,48.263975,103.47, 1.10, 3.10,227.90,21,21,233.10, 1.60, 3.10, 0.13,-0.06, 0.00,-0.18, 0.00, 0.00, 0.00, 0.00, 0.00, 0.00,1278.00,1756.00,18.00,48,0,1
20150827081835035,-124.319410,48.263950,103.48, 1.00, 3.10,228.30,21,21,233.70, 1.50, 3.20, 0.13,-0.06, 0.00,-0.19, 0.00, 0.00, 0.00, 0.00, 0.00, 0.00,1269.00,1769.00,11.00,60,0,1
20150827081835235,-124.319455,48.263930,103.48, 0.90, 3.10,228.80,21,21,234.20, 1.30, 3.20, 0.13,-0.05, 0.00,-0.20, 0.00, 0.00, 0.00, 0.00, 0.00, 0.00,1260.00,1783.00, 8.00,73,0,1
20150827081835435,-124.319510,48.263905,103.48, 0.90, 3.20,229.30,21,21,234.80, 1.20, 3.30, 0.13,-0.06, 0.00,-0.21, 0.00, 0.00, 0.00, 0.00, 0.00, 0.00,1249.00,1797.00, 8.00,86,0,1
20150827081835635,-124.319555,48.263885,103.48, 0.90, 3.40,229.80,21,21,235.30, 1.10, 3.30, 0.13,-0.05, 0.00,-0.21, 0.00, 0.00, 0.00, 0.00, 0.00, 0.00,1239.00,1809.00, 8.00,98,0,1
20150827081835835,-124.319610,48.263865,103.48, 0.90, 3.60,230.30,21,21,235.90, 0.90, 3.30, 0.14,-0.05, 0.00,-0.22, 0.00, 0.00, 0.00, 0.00, 0.00, 0.00,1226.00,1822.00, 9.00,111,0,1
20150827081836035,-124.319655,48.263840,103.48, 0.90, 3.90,230.90,21,21,236.50, 0.80, 3.30, 0.14,-0.06, 0.00,-0.23, 0.00, 0.00, 0.00, 0.00, 0.00, 0.00,1212.00,1836.00, 9.00,124,0,1
20150827081836234,-124.319700,48.263820,103.48, 0.90, 4.10,231.40,21,21,237.00, 0.70, 3.30, 0.14,-0.06, 0.00,-0.24, 0.00, 0.00, 0.00, 0.00, 0.00, 0.00,1198.00,1848.00, 9.00,136,0,1
20150827081836435,-124.319755,48.263800,103.48, 0.80, 4.10,232.00,21,21,237.60, 0.50, 3.30, 0.14,-0.06,-0.02,-0.25, 0.00, 0.00, 0.00, 0.00, 0.00, 0.00,1183.00,1862.00, 7.00,149,0,1
20150827081836635,-124.319805,48.263775,103.46, 0.60, 3.80,232.60,21,21,238.20, 0.40, 3.30, 0.14,-0.06,-0.02,-0.26, 0.00, 0.00, 0.00, 0.00, 0.00, 0.00,1168.00,1875.00, 1.00,162,0,1
20150827081836835,-124.319860,48.263755,103.44, 0.30, 3.60,233.20,22,22,238.80, 0.30, 3.30, 0.14,-0.07,-0.01,-0.27, 0.00, 0.00, 0.00, 0.00, 0.00, 0.00,1154.00,1887.00, 6.00,175,0,1
20150827081837034,-124.319905,48.263740,103.40, 0.10, 3.50,233.70,22,22,239.30, 0.10, 3.30, 0.14,-0.07,-0.01,-0.28, 0.00, 0.00, 0.00, 0.00, 0.00, 0.00,1142.00,1898.00,14.00,187,0,1
20150827081837234,-124.319960,48.263715,103.34,-0.10, 3.30,234.20,22,22,240.00, 0.10, 3.40, 0.14,-0.07,-0.01,-0.28, 0.00, 0.00, 0.00, 0.00, 0.00, 0.00,1128.00,1910.00,24.00,200,0,1
20150827081837435,-124.320005,48.263695,103.27,-0.30, 3.30,234.60,22,22,240.50, 0.00, 3.50, 0.14,-0.06,-0.01,-0.29, 0.00, 0.00, 0.00, 0.00, 0.00, 0.00,1117.00,1921.00,32.00,212,0,1
20150827081837634,-124.320060,48.263675,103.17,-0.50, 3.30,235.10,22,22,241.20, 0.00, 3.60, 0.14,-0.05, 0.00,-0.30, 0.00, 0.00, 0.00, 0.00, 0.00, 0.00,1104.00,1934.00,41.00,225,0,1
20150827081837835,-124.320110,48.263660,103.06,-0.50, 3.40,235.50,22,22,241.80, 0.00, 3.70, 0.14,-0.05, 0.00,-0.31, 0.00, 0.00, 0.00, 0.00, 0.00, 0.00,1091.00,1946.00,46.00,238,0,1
20150827081838034,-124.320165,48.263640,102.96,-0.50, 3.50,236.00,22,22,242.40,-0.10, 3.80, 0.14,-0.05, 0.00,-0.32, 0.00, 0.00, 0.00, 0.00, 0.00, 0.00,1079.00,1958.00,44.00,250,0,1
20150827081838234,-124.320220,48.263620,102.85,-0.40, 3.70,236.60,22,22,243.00,-0.10, 3.80, 0.15,-0.05, 0.00,-0.33, 0.00, 0.00, 0.00, 0.00, 0.00, 0.00,1064.00,1969.00,41.00,7,0,1
20150827081838434,-124.320270,48.263600,102.76,-0.30, 3.90,237.30,22,22,243.70,-0.20, 3.80, 0.16,-0.05, 0.00,-0.34, 0.00, 0.00, 0.00, 0.00, 0.00, 0.00,1048.00,1980.00,37.00,20,0,1
20150827081838638,-124.320325,48.263580,102.67,-0.20, 4.10,237.90,22,22,244.30,-0.20, 3.80, 0.16,-0.05, 0.00,-0.35, 0.00, 0.00, 0.00, 0.00, 0.00, 0.00,1031.00,1991.00,35.00,32,0,1
20150827081838834,-124.320380,48.263565,102.58,-0.20, 4.20,238.60,22,22,245.00,-0.30, 3.80, 0.16,-0.05,-0.01,-0.36, 0.00, 0.00, 0.00, 0.00, 0.00, 0.00,1012.00,2002.00,33.00,45,0,1
20150827081839034,-124.320430,48.263545,102.50,-0.20, 4.20,239.20,22,22,245.60,-0.40, 3.80, 0.16,-0.06,-0.01,-0.36, 0.00, 0.00, 0.00, 0.00, 0.00, 0.00,994.00,2012.00,32.00,57,0,1
20150827081839234,-124.320495,48.263530,102.41,-0.20, 4.10,239.70,22,22,246.30,-0.40, 3.90, 0.16,-0.06,-0.01,-0.37, 0.00, 0.00, 0.00, 0.00, 0.00, 0.00,974.00,2021.00,32.00,70,0,1
20150827081839434,-124.320545,48.263510,102.33,-0.30, 4.00,240.30,22,22,247.00,-0.50, 4.00, 0.16,-0.06,-0.01,-0.38, 0.00, 0.00, 0.00, 0.00, 0.00, 0.00,957.00,2030.00,35.00,82,0,1
20150827081839638,-124.320600,48.263495,102.24,-0.40, 3.90,240.90,22,22,247.60,-0.50, 4.00, 0.16,-0.06,-0.01,-0.39, 0.00, 0.00, 0.00, 0.00, 0.00, 0.00,939.00,2039.00,39.00,94,0,1
20150827081839833,-124.320655,48.263475,102.13,-0.60, 3.90,241.50,22,22,248.30,-0.50, 4.00, 0.16,-0.06,-0.01,-0.39, 0.00, 0.00, 0.00, 0.00, 0.00, 0.00,920.00,2048.00,45.00,107,0,1
20150827081840033,-124.320705,48.263460,102.02,-0.90, 3.90,242.10,22,22,248.90,-0.50, 4.00, 0.16,-0.06,-0.01,-0.40, 0.00, 0.00, 0.00, 0.00, 0.00, 0.00,903.00,2056.00,53.00,119,0,1
20150827081840233,-124.320770,48.263445,101.89,-1.10, 4.10,242.60,22,22,249.60,-0.50, 4.20, 0.17,-0.04, 0.00,-0.41, 0.00, 0.00, 0.00, 0.00, 0.00, 0.00,885.00,2065.00,61.00,131,0,1
20150827081840434,-124.320820,48.263430,101.75,-1.10, 4.30,243.10,22,22,250.30,-0.50, 4.30, 0.18,-0.04, 0.00,-0.42, 0.00, 0.00, 0.00, 0.00, 0.00, 0.00,868.00,2074.00,65.00,143,0,1
20150827081840634,-124.320880,48.263415,101.59,-1.00, 4.40,243.90,22,22,251.00,-0.40, 4.20, 0.18,-0.04,-0.01,-0.43, 0.00, 0.00, 0.00, 0.00, 0.00, 0.00,847.00,2084.00,64.00,156,0,1
20150827081840834,-124.320935,48.263400,101.45,-0.80, 4.50,244.50,22,22,251.70,-0.40, 4.30, 0.18,-0.04,-0.01,-0.44, 0.00, 0.00, 0.00, 0.00, 0.00, 0.00,827.00,2093.00,60.00,168,0,1
20150827081841034,-124.320990,48.263385,101.32,-0.70, 4.50,245.30,22,22,252.40,-0.40, 4.20, 0.18,-0.04,-0.02,-0.44, 0.00, 0.00, 0.00, 0.00, 0.00, 0.00,806.00,2101.00,55.00,180,0,1
20150827081841234,-124.321050,48.263370,101.20,-0.50, 4.40,245.90,22,22,253.20,-0.40, 4.30, 0.18,-0.04,-0.01,-0.45, 0.00, 0.00, 0.00, 0.00, 0.00, 0.00,784.00,2108.00,49.00,192,0,1
20150827081841434,-124.321105,48.263355,101.09,-0.30, 4.40,246.50,22,22,253.80,-0.30, 4.30, 0.18,-0.04,-0.01,-0.46, 0.00, 0.00, 0.00, 0.00, 0.00, 0.00,762.00,2114.00,43.00,204,0,1
20150827081841633,-124.321165,48.263340,100.99,-0.20, 4.40,247.20,22,22,254.60,-0.30, 4.40, 0.18,-0.04,-0.01,-0.46, 0.00, 0.00, 0.00, 0.00, 0.00, 0.00,739.00,2119.00,38.00,216,0,1
20150827081841834,-124.321220,48.263330,100.90,-0.10, 4.40,247.80,22,22,255.20,-0.40, 4.40, 0.18,-0.04,-0.01,-0.47, 0.00, 0.00, 0.00, 0.00, 0.00, 0.00,717.00,2124.00,34.00,228,0,1
20150827081842034,-124.321280,48.263315,100.82, 0.00, 4.50,248.40,22,22,256.00,-0.30, 4.50, 0.19,-0.04,-0.01,-0.47, 0.00, 0.00, 0.00, 0.00, 0.00, 0.00,695.00,2128.00,32.00,240,0,1
20150827081842233,-124.321330,48.263305,100.74,-0.10, 4.50,249.10,22,22,256.70,-0.30, 4.50, 0.19,-0.04,-0.01,-0.48, 0.00, 0.00, 0.00, 0.00, 0.00, 0.00,672.00,2131.00,33.00,252,0,1
20150827081842433,-124.321395,48.263290,100.66,-0.20, 4.60,249.80,22,22,257.50,-0.30, 4.60, 0.19,-0.04,-0.01,-0.49, 0.00, 0.00, 0.00, 0.00, 0.00, 0.00,650.00,2135.00,36.00,8,0,1
20150827081842633,-124.321445,48.263280,100.57,-0.30, 4.70,250.40,22,22,258.20,-0.30, 4.60, 0.19,-0.04,-0.01,-0.49, 0.00, 0.00, 0.00, 0.00, 0.00, 0.00,628.00,2139.00,39.00,20,0,1
20150827081842833,-124.321510,48.263270,100.47,-0.40, 4.70,251.10,22,22,259.00,-0.30, 4.70, 0.19,-0.04,-0.02,-0.50, 0.00, 0.00, 0.00, 0.00, 0.00, 0.00,605.00,2142.00,43.00,32,0,1
20150827081843033,-124.321560,48.263260,100.37,-0.50, 4.70,251.80,22,22,259.60,-0.30, 4.60, 0.19,-0.04,-0.02,-0.50, 0.00, 0.00, 0.00, 0.00, 0.00, 0.00,582.00,2146.00,47.00,44,0,1
20150827081843233,-124.321620,48.263250,100.25,-0.60, 4.70,252.40,22,22,260.40,-0.30, 4.80, 0.19,-0.04,-0.01,-0.51, 0.00, 0.00, 0.00, 0.00, 0.00, 0.00,560.00,2150.00,52.00,56,0,1
20150827081843432,-124.321685,48.263240,100.13,-0.80, 4.80,253.10,22,22,261.20,-0.30, 4.80, 0.20,-0.03,-0.01,-0.52, 0.00, 0.00, 0.00, 0.00, 0.00, 0.00,537.00,2154.00,58.00,68,0,1
20150827081843632,-124.321735,48.263230,99.99,-0.80, 4.80,253.80,22,22,261.90,-0.30, 4.80, 0.20,-0.03,-0.01,-0.52, 0.00, 0.00, 0.00, 0.00, 0.00, 0.00,514.00,2158.00,62.00,80,0,1
20150827081843832,-124.321800,48.263225,99.85,-0.70, 4.90,254.50,22,22,262.70,-0.30, 4.90, 0.20,-0.03,-0.02,-0.53, 0.00, 0.00, 0.00, 0.00, 0.00, 0.00,490.00,2162.00,61.00,92,0,1
20150827081844032,-124.321860,48.263210,99.72,-0.60, 4.90,255.30,22,22,263.60,-0.30, 4.90, 0.20,-0.03,-0.01,-0.54, 0.00, 0.00, 0.00, 0.00, 0.00, 0.00,466.00,2165.00,58.00,104,0,1
20150827081844232,-124.321910,48.263205,99.59,-0.50, 5.10,256.00,22,22,264.30,-0.30, 4.90, 0.20,-0.03,-0.01,-0.54, 0.00, 0.00, 0.00, 0.00, 0.00, 0.00,441.00,2168.00,54.00,116,0,1
20150827081844432,-124.321975,48.263195,99.47,-0.40, 5.20,256.70,22,22,265.10, 0.30, 5.00, 0.21,-0.02,-0.01,-0.55, 0.00, 0.00, 0.00, 0.00, 0.00, 0.00,416.00,2170.00,50.00,128,0,1
20150827081844632,-124.322035,48.263190,99.36,-0.20, 5.10,257.50,22,22,265.90, 0.40, 5.00, 0.21,-0.01,-0.01,-0.55, 0.00, 0.00, 0.00, 0.00, 0.00, 0.00,390.00,2171.00,47.00,140,0,1
